Severity,Start_Lat,Start_Lng,Street,City,County,State,Temperature(F),Wind_Chill(F),Humidity(%),Pressure(in),Visibility(mi),Wind_Speed(mph),Precipitation(in)
3,38.723884999999996,-104.732079,I-25 S,Colorado Springs,El Paso,CO,85.0,85.0,2.0,24.11,10.0,15.0,0.0
2,33.47234,-111.98696699999999, N 44th St,Phoenix,Maricopa,AZ,93.0,93.0,11.0,28.57,10.0,3.0,0.0
2,39.439419,-104.961601,N US Highway 85,Sedalia,Douglas,CO,27.0,15.0,92.0,24.07,0.25,16.0,0.0
2,45.981151000000004,-112.48873600000002,I-15 N,Butte,Silver Bow,MT,31.0,19.0,57.0,24.59,10.0,18.0,0.0
2,45.687315000000005,-108.694928,I-90 E,Laurel,Yellowstone,MT,5.0,-4.0,87.0,26.68,9.0,5.0,0.0
2,32.26482,-110.960999,N 1st Ave,Tucson,Pima,AZ,66.0,66.0,13.0,27.18,10.0,12.0,0.0
2,40.9852,-111.89961000000001,I-15 S,Farmington,Davis,UT,73.0,73.0,25.0,25.24,10.0,24.0,0.0
2,33.667685999999996,-111.959686,AZ-101 Loop E,Phoenix,Maricopa,AZ,69.0,69.0,26.0,28.33,10.0,0.0,0.0
2,41.210239,-111.97071799999999,Washington Blvd,Ogden,Weber,UT,67.0,67.0,22.0,25.54,10.0,5.0,0.0
2,40.72429,-111.90703,S 600 W,West Valley City,Salt Lake,UT,40.0,34.0,51.0,25.77,10.0,8.0,0.0
2,39.655781,-105.08136699999999,W Girton Ave,Denver,Jefferson,CO,72.0,72.0,46.0,24.19,10.0,8.0,0.0
4,39.80461,-111.50308999999999,US-89 N,Fairview,Sanpete,UT,57.0,57.0,27.0,24.02,10.0,15.0,0.0
2,33.669128,-112.112778,AZ-101 Loop W,Phoenix,Maricopa,AZ,63.0,63.0,29.0,28.2,10.0,18.0,0.0
2,33.56609,-112.26293000000001, W Olive Ave,Peoria,Maricopa,AZ,103.0,103.0,7.0,28.62,10.0,8.0,0.0
3,39.77994,-104.97248,I-70 W,Denver,Denver,CO,45.0,45.0,46.0,24.17,80.0,0.0,0.0
2,33.38568,-111.88089199999999,Superstition Fwy E,Tempe,Maricopa,AZ,53.0,53.0,34.0,28.78,10.0,8.0,0.0
4,39.759885,-105.667023, US Highway 40,Empire,Clear Creek,CO,4.0,-10.0,80.0,20.8,10.0,9.0,0.0
2,35.292411,-113.04319699999999,I-40 W,Seligman,Yavapai,AZ,22.0,7.0,34.0,23.34,10.0,18.0,0.0
1,33.531220000000005,-112.1343, N 35th Ave,Phoenix,Maricopa,AZ,84.0,84.0,12.0,28.55,10.0,8.0,0.0
2,40.31195,-111.72491000000001,Canyon Pkwy,Orem,Utah,UT,63.0,63.0,52.0,25.45,10.0,7.0,0.0
2,39.740210999999995,-104.931541,E Colfax Ave,Denver,Denver,CO,22.0,12.0,90.0,24.5,10.0,9.0,0.0
3,39.725590000000004,-105.01693700000001,US-6 W,Denver,Denver,CO,54.0,54.0,44.0,24.44,6.0,6.0,0.0
3,40.311797999999996,-111.726013,Canyon Pkwy,Orem,Utah,UT,89.0,89.0,19.0,25.41,10.0,14.0,0.0
2,32.323087,-111.012328,N La Cholla Blvd,Tucson,Pima,AZ,50.0,50.0,26.0,27.24,10.0,0.0,0.0
2,40.704785,-111.90353,I-15 N,Salt Lake City,Salt Lake,UT,72.0,72.0,24.0,25.54,10.0,9.0,0.0
3,39.552,-105.08573, S Platte Canyon Rd,Littleton,Jefferson,CO,78.0,78.0,27.0,24.17,10.0,8.0,0.0
2,39.59509,-104.98828, S Broadway,Littleton,Arapahoe,CO,63.0,63.0,35.0,24.23,10.0,10.0,0.0
2,39.534046000000004,-119.75322,I-80 W,Sparks,Washoe,NV,50.0,50.0,32.0,25.63,10.0,3.0,0.0
1,32.28284,-110.97811000000002,W Limberlost Dr,Tucson,Pima,AZ,95.0,95.0,19.0,27.16,10.0,10.0,0.0
2,38.95694,-104.769676,Lexington Dr,Colorado Springs,El Paso,CO,22.0,13.0,55.0,23.19,10.0,7.0,0.0
2,33.436840000000004,-112.119469,W Buckeye Rd,Phoenix,Maricopa,AZ,105.0,105.0,20.0,28.49,10.0,3.0,0.0
2,40.703309999999995,-111.9528,I-215 N,West Valley City,Salt Lake,UT,28.0,17.0,63.0,26.12,10.0,13.0,0.0
2,40.482362,-111.89668600000002, Minuteman Dr,Draper,Salt Lake,UT,24.0,18.0,84.0,25.76,5.0,5.0,0.0
3,38.223545,-104.614571,I-25 S,Pueblo,Pueblo,CO,77.0,77.0,18.0,25.04,10.0,13.0,0.0
2,33.392086,-112.13359799999999,W Southern Ave,Phoenix,Maricopa,AZ,54.0,54.0,83.0,28.9,10.0,5.0,0.0
2,39.891174,-105.074715,Denver Boulder Tpke W,Broomfield,Jefferson,CO,39.0,36.0,33.0,24.17,30.0,5.0,0.0
2,33.565839000000004,-113.33396299999998,I-10 E,Salome,La Paz,AZ,68.0,68.0,52.0,28.84,3.0,0.0,0.0
2,43.593582,-116.42513400000001,I-84 W,Meridian,Ada,ID,50.0,50.0,100.0,27.25,10.0,7.0,0.0
2,39.879436,-105.066032,US-36 W,Broomfield,Jefferson,CO,37.0,37.0,36.0,24.35,30.0,0.0,0.0
3,40.407326,-104.993233,I-25 S,Loveland,Larimer,CO,67.0,67.0,14.0,25.06,10.0,6.0,0.0
2,39.692371,-104.977295,I-25 S,Denver,Denver,CO,41.0,34.0,45.0,24.02,10.0,13.0,0.0
2,45.985647,-112.512456,I-15 S,Butte,Silver Bow,MT,9.0,9.0,77.0,24.4,10.0,0.0,0.0
3,39.72525,-105.1352,US-6 E,Denver,Jefferson,CO,27.0,17.0,100.0,24.37,2.0,10.0,0.0
1,32.23611,-110.8756, E Speedway Blvd,Tucson,Pima,AZ,95.0,95.0,22.0,27.1,10.0,17.0,0.0
2,33.44373,-111.92903700000001, E Weber Dr,Tempe,Maricopa,AZ,65.0,65.0,25.0,28.87,10.0,8.0,0.0
3,39.531799,-107.71311200000001,County Road 316,Silt,Garfield,CO,71.0,71.0,28.0,24.37,10.0,14.0,0.0
2,33.305145,-112.05219299999999,S Marketplace Way,Phoenix,Maricopa,AZ,44.0,41.0,82.0,28.85,10.0,6.0,0.0
2,33.559360999999996,-112.037727,Piestewa Fwy N,Phoenix,Maricopa,AZ,105.0,105.0,20.0,28.26,10.0,6.0,0.0
2,33.630817,-111.89022800000001,AZ-101 Loop N,Scottsdale,Maricopa,AZ,106.0,106.0,8.0,28.15,10.0,9.0,0.0
3,40.681694,-111.797577,I-215 N,Salt Lake City,Salt Lake,UT,28.0,17.0,85.0,25.74,9.0,13.0,0.0
2,39.775822,-104.93171699999999,Dahlia St,Denver,Denver,CO,21.0,12.0,50.0,24.46,10.0,8.0,0.0
3,38.87962,-104.757,Rebecca Ln,Colorado Springs,El Paso,CO,71.0,71.0,23.0,24.1,10.0,7.0,0.0
3,39.848122,-104.98530600000001,I-25 N,Denver,Adams,CO,95.0,95.0,9.0,24.46,6.0,8.0,0.0
2,39.592521999999995,-105.222504,US Highway 285,Morrison,Jefferson,CO,32.0,27.0,100.0,24.65,3.0,5.0,0.0
3,39.782709999999994,-104.99885,I-70 W,Denver,Denver,CO,23.0,16.0,93.0,24.55,3.0,6.0,0.0
3,33.49136,-112.11313,Black Canyon Fwy S,Phoenix,Maricopa,AZ,78.0,78.0,16.0,28.69,10.0,12.0,0.0
2,38.675596999999996,-104.710875,I-25 N,Fountain,El Paso,CO,49.0,48.0,42.0,24.53,10.0,5.0,0.0
1,40.76115,-111.94991, W 500 S,Salt Lake City,Salt Lake,UT,52.0,52.0,50.0,25.59,10.0,12.0,0.01
2,33.479521000000005,-112.24647, N 87th Ave,Phoenix,Maricopa,AZ,61.0,61.0,41.0,28.86,10.0,5.0,0.0
2,41.090225,-114.710297,Independence Vly,Wells,Elko,NV,47.0,41.0,52.0,24.87,10.0,15.0,0.0
2,39.70709,-111.81871000000001,I-15 S,Nephi,Juab,UT,20.0,20.0,81.0,25.6,10.0,0.0,0.0
3,39.39643,-104.86017,I-25 N,Castle Rock,Douglas,CO,81.0,81.0,10.0,23.08,10.0,5.0,0.0
2,40.898697,-111.87899399999999, N Main St,Bountiful,Davis,UT,59.0,59.0,39.0,25.66,10.0,6.0,0.0
4,41.24848,-111.88771000000001, Ogden Cyn,Ogden,Weber,UT,45.0,43.0,44.0,25.55,10.0,5.0,0.0
2,39.537418,-104.873131,Park Meadows Dr,Lone Tree,Douglas,CO,19.0,9.0,71.0,24.44,10.0,8.0,0.0
2,33.19018,-111.99830800000001, Maricopa Rd,Maricopa,Pinal,AZ,86.0,86.0,13.0,28.36,10.0,6.0,0.0
3,40.588146,-111.90053600000002,W 9000 S,Sandy,Salt Lake,UT,73.0,73.0,31.0,25.68,10.0,5.0,0.0
1,33.49517,-112.00421999999999, E Indian School Rd,Phoenix,Maricopa,AZ,99.0,99.0,9.0,28.56,10.0,9.0,0.0
2,45.752234,-108.547028,I-90 W,Billings,Yellowstone,MT,14.0,0.0,80.0,26.59,6.0,13.0,0.0
2,32.24345,-110.909683,N Alvernon Way,Tucson,Pima,AZ,56.0,56.0,21.0,27.22,10.0,0.0,0.0
1,32.20641,-110.8411, S Kolb Rd,Tucson,Pima,AZ,74.0,74.0,21.0,27.09,10.0,10.0,0.0
2,41.053089,-111.91046100000001,N Highway 89,Kaysville,Davis,UT,69.0,69.0,34.0,25.29,10.0,16.0,0.0
2,33.490437,-111.94293200000001,E Indian School Rd,Scottsdale,Maricopa,AZ,77.0,77.0,15.0,28.83,10.0,5.0,0.0
2,33.385637,-111.890226,US-60 E,Tempe,Maricopa,AZ,79.0,79.0,24.0,28.68,10.0,8.0,0.0
2,39.367393,-110.850816, E 1100 N,Cleveland,Emery,UT,55.0,55.0,29.0,24.33,10.0,3.0,0.0
2,40.724740000000004,-111.90361000000001,I-15 N,Salt Lake City,Salt Lake,UT,35.0,27.0,59.0,25.81,10.0,12.0,0.0
2,32.250636,-110.905401, E Grant Rd,Tucson,Pima,AZ,48.0,45.0,39.0,27.19,10.0,6.0,0.0
3,33.480255,-112.113045,Black Canyon Fwy N,Phoenix,Maricopa,AZ,84.0,84.0,9.0,28.68,10.0,3.0,0.0
2,33.638706,-112.305283,N 114th Ave,Surprise,Maricopa,AZ,54.0,54.0,72.0,28.91,10.0,2.0,0.0
2,33.386672999999995,-111.894348,S Siesta Ln,Tempe,Maricopa,AZ,44.0,44.0,71.0,28.85,10.0,3.0,0.0
3,39.631386,-104.902832,Technology Way,Denver,Denver,CO,79.0,79.0,31.0,24.21,10.0,18.0,0.0
4,39.086690000000004,-104.86124,US-87 N,Monument,El Paso,CO,58.0,58.0,47.0,23.65,10.0,0.0,0.0
3,38.41976,-105.03998, State Highway 115,Penrose,Fremont,CO,50.0,50.0,30.0,24.53,10.0,5.0,0.0
3,40.699622999999995,-111.902473,I-15 S,Salt Lake City,Salt Lake,UT,89.0,89.0,12.0,25.81,10.0,7.0,0.0
2,38.81351,-104.75261,E Fountain Blvd,Colorado Springs,El Paso,CO,91.0,91.0,11.0,23.96,10.0,16.0,0.0
3,39.689213,-104.97121399999999,E Florida Ave,Denver,Denver,CO,81.0,81.0,15.0,24.05,10.0,6.0,0.0
1,33.65743,-112.23228,Agua Fria Fwy N,Glendale,Maricopa,AZ,78.0,78.0,17.0,28.14,10.0,9.0,0.0
2,33.494652,-112.22058100000001,W Indian School Rd,Phoenix,Maricopa,AZ,39.0,36.0,100.0,28.86,10.0,5.0,0.0
2,33.410807,-111.99416699999999,I-10 E,Phoenix,Maricopa,AZ,79.0,79.0,24.0,28.68,10.0,8.0,0.0
3,33.334804999999996,-111.972237,I-10 E,Phoenix,Maricopa,AZ,95.0,95.0,11.0,28.71,10.0,3.0,0.0
2,40.66299,-111.83805, Highland Dr,Salt Lake City,Salt Lake,UT,26.0,21.0,78.0,25.83,10.0,5.0,0.0
1,32.25051,-110.91831, E Grant Rd,Tucson,Pima,AZ,69.0,69.0,26.0,27.27,10.0,16.0,0.0
3,39.778263,-104.908203,I-70 E,Denver,Denver,CO,86.0,86.0,27.0,24.4,10.0,8.0,0.0
2,32.232194,-110.982602, N Freeway,Tucson,Pima,AZ,39.0,34.0,62.0,27.16,10.0,7.0,0.0
2,40.77067,-112.00923999999999,I-80 W,Salt Lake City,Salt Lake,UT,29.0,24.0,72.0,25.75,10.0,5.0,0.0
2,32.290878,-110.97013100000001,N Stone Ave,Tucson,Pima,AZ,74.0,74.0,46.0,27.23,10.0,0.0,0.0
2,33.527939,-111.975632,N Tatum Blvd,Paradise Valley,Maricopa,AZ,63.0,63.0,37.0,28.51,10.0,3.0,0.0
2,39.362264,-104.86698,I-25 S,Castle Rock,Douglas,CO,46.0,42.0,32.0,23.1,10.0,9.0,0.0
2,34.728802,-114.34796599999999,AZ-95 N,Lake Havasu City,Mohave,AZ,76.0,76.0,13.0,28.8,10.0,8.0,0.0
2,32.239540000000005,-110.965668,N 4th Ave,Tucson,Pima,AZ,73.0,73.0,40.0,27.3,10.0,6.0,0.0
2,32.156631,-110.96543899999999,E Olive St,Tucson,Pima,AZ,90.0,90.0,12.0,27.26,10.0,3.0,0.0
2,40.923286,-111.89976499999999,Legacy Pkwy S,Centerville,Davis,UT,23.0,23.0,81.0,25.91,10.0,0.0,0.0
4,32.981182000000004,-109.256619,Coronado Blvd,Morenci,Greenlee,AZ,56.0,56.0,26.0,26.8,10.0,0.0,0.0
2,39.618276,-119.878875,Martin Luther King Jr Memorial Fwy,Reno,Washoe,NV,21.0,21.0,68.0,25.12,10.0,3.0,0.0
2,41.052692,-111.960706,I-15 N,Layton,Davis,UT,27.0,27.0,60.0,25.48,10.0,3.0,0.0
2,40.69659,-111.9538,W 3500 S,West Valley City,Salt Lake,UT,44.0,44.0,82.0,25.6,10.0,3.0,0.0
1,32.33709,-110.9774,N Oracle Rd,Tucson,Pima,AZ,97.0,97.0,10.0,27.1,10.0,0.0,0.0
3,32.281867999999996,-106.882729,I-10 E,Las Cruces,Doña Ana,NM,82.0,82.0,17.0,25.53,10.0,9.0,0.0
1,32.23553,-111.00399999999999, N Silverbell Rd,Tucson,Pima,AZ,98.0,98.0,8.0,27.14,10.0,7.0,0.0
2,33.623641,-112.350277, W Greenway Rd,Surprise,Maricopa,AZ,55.0,55.0,36.0,28.84,10.0,0.0,0.0
2,39.798367,-104.762672,E 56th Ave,Denver,Denver,CO,63.0,63.0,65.0,24.59,10.0,8.0,0.0
2,43.59732,-116.29413000000001,I-84 W,Boise,Ada,ID,27.0,18.0,78.0,26.96,10.0,9.0,0.0
2,32.139519,-110.84071399999999,S Kolb Rd,Tucson,Pima,AZ,77.0,77.0,10.0,27.24,10.0,9.0,0.0
2,43.965257,-116.906815,I-84 E,Fruitland,Payette,ID,31.0,31.0,85.0,27.84,9.0,3.0,0.0
2,33.597019,-112.013153,N 32nd St,Phoenix,Maricopa,AZ,60.0,60.0,35.0,28.31,10.0,8.0,0.0
2,39.579304,-105.02597800000001,W Mineral Ave,Littleton,Arapahoe,CO,16.0,4.0,74.0,24.26,10.0,9.0,0.0
2,35.108841,-106.506523,Menaul Blvd NE,Albuquerque,Bernalillo,NM,100.0,100.0,7.0,24.71,10.0,17.0,0.0
3,39.79849,-104.98617,US-87 N,Denver,Adams,CO,82.0,82.0,13.0,24.12,10.0,9.0,0.0
2,39.721573,-105.008751,I-25 N,Denver,Denver,CO,54.0,54.0,28.0,24.54,15.0,12.0,0.0
3,33.480309000000005,-112.11321299999999,Black Canyon Fwy S,Phoenix,Maricopa,AZ,57.0,57.0,20.0,28.9,10.0,5.0,0.0
2,40.52325,-104.99432, E Harmony Rd,Fort Collins,Larimer,CO,60.0,60.0,53.0,24.93,10.0,0.0,0.0
3,39.639812,-104.884583,I-225 S,Denver,Denver,CO,21.0,13.0,55.0,24.44,10.0,6.0,0.0
2,39.783809999999995,-104.94052099999999,Colorado Blvd,Denver,Denver,CO,63.0,63.0,63.0,24.43,10.0,12.0,0.0
2,40.646885,-112.288353,Stansbury Pkwy,Tooele,Tooele,UT,94.0,94.0,8.0,25.39,10.0,5.0,0.0
2,39.654041,-105.875801,US Highway 6,Dillon,Summit,CO,20.0,10.0,78.0,20.63,10.0,8.0,0.0
2,45.853178,-111.339077,Wooden Shoe Trailer Ct,Manhattan,Gallatin,MT,29.0,29.0,61.0,25.8,10.0,3.0,0.0
1,33.39224,-112.06468000000001, E Southern Ave,Phoenix,Maricopa,AZ,91.0,91.0,8.0,28.56,10.0,5.0,0.0
2,39.738461,-104.98613700000001,Lincoln St,Denver,Denver,CO,73.0,73.0,47.0,24.54,10.0,0.0,0.0
3,35.161278,-111.27108,I-40 W,Flagstaff,Coconino,AZ,31.0,24.0,50.0,23.45,10.0,7.0,0.0
3,41.038311,-111.949417,W 200 N,Kaysville,Davis,UT,31.0,31.0,63.0,25.56,10.0,3.0,0.0
2,41.232386,-112.01305,I-15 N,Ogden,Weber,UT,30.0,30.0,85.0,25.58,10.0,0.0,0.0
4,35.03118,-106.94936000000001,Historic US 66 E,Laguna,Bernalillo,NM,57.0,57.0,12.0,23.8,10.0,7.0,0.0
2,40.914629999999995,-111.89147,I-15 S,Centerville,Davis,UT,38.0,34.0,53.0,25.87,10.0,5.0,0.0
2,32.225367999999996,-110.857933,E Carondelet Dr,Tucson,Pima,AZ,99.0,99.0,19.0,27.01,10.0,12.0,0.0
3,39.860508,-104.98748799999998,I-25 N,Denver,Adams,CO,75.0,75.0,44.0,24.7,10.0,3.0,0.0
2,33.480209,-111.943192,E Thomas Rd,Scottsdale,Maricopa,AZ,51.0,51.0,50.0,28.59,10.0,0.0,0.0
2,33.465740000000004,-112.060753,N 10th St,Phoenix,Maricopa,AZ,101.0,101.0,7.0,28.62,10.0,9.0,0.0
2,40.667584999999995,-112.02559699999999, W 4700 S,Salt Lake City,Salt Lake,UT,73.0,73.0,25.0,25.77,10.0,8.0,0.0
2,48.30873,-114.30146599999999, Whitefish Stage,Kalispell,Flathead,MT,21.0,21.0,88.0,27.19,9.0,0.0,0.0
2,32.236095,-110.935272,N Tucson Blvd,Tucson,Pima,AZ,96.0,96.0,30.0,27.15,10.0,6.0,0.0
2,40.696622999999995,-111.940127, W 3500 S,West Valley City,Salt Lake,UT,77.0,77.0,22.0,25.69,10.0,0.0,0.0
2,40.6122,-112.37536000000001, W Highway 138,Tooele,Tooele,UT,34.0,27.0,87.0,25.56,1.0,8.0,0.01
2,36.826761,-112.254148,US Highway 89 Alternate,Fredonia,Coconino,AZ,32.0,26.0,35.0,25.28,10.0,7.0,0.0
1,32.28648,-110.97811999999999,W Wetmore Rd,Tucson,Pima,AZ,94.0,94.0,7.0,27.15,10.0,12.0,0.0
2,40.857524,-111.929777, W 900 N,North Salt Lake,Davis,UT,36.0,26.0,62.0,25.73,10.0,17.0,0.0
4,38.8115,-104.75746,Verde Dr,Colorado Springs,El Paso,CO,63.0,63.0,52.0,23.96,10.0,7.0,0.0
1,38.81749,-104.78055,S Circle Dr,Colorado Springs,El Paso,CO,67.0,67.0,21.0,23.93,10.0,25.0,0.0
2,32.14148,-110.8579, S Wilmot Rd,Tucson,Pima,AZ,58.0,58.0,35.0,27.29,10.0,3.0,0.0
2,40.76556,-111.93416,I-80 E,Salt Lake City,Salt Lake,UT,57.0,57.0,51.0,25.53,3.0,28.0,0.0
2,33.687302,-112.36833999999999,N Tom Ryan Dr,Sun City West,Maricopa,AZ,70.0,70.0,54.0,28.92,10.0,6.0,0.0
3,33.462151,-112.065102,N 7th St,Phoenix,Maricopa,AZ,84.0,84.0,16.0,28.77,10.0,12.0,0.0
1,32.13387,-111.02882,W Valencia Rd,Tucson,Pima,AZ,67.0,67.0,20.0,27.18,10.0,8.0,0.0
3,40.737159999999996,-111.90441100000001,I-15 N,Salt Lake City,Salt Lake,UT,24.0,11.0,91.0,25.41,0.75,15.0,0.06
2,32.37412,-111.04691000000001, N Thornydale Rd,Tucson,Pima,AZ,102.0,102.0,12.0,27.07,10.0,10.0,0.0
2,32.24345,-110.909683,N Alvernon Way,Tucson,Pima,AZ,104.0,104.0,10.0,27.18,10.0,12.0,0.0
2,39.707802,-104.819321,S Sable Blvd,Aurora,Arapahoe,CO,19.0,11.0,85.0,24.43,10.0,6.0,0.0
2,39.63541,-104.902817,I-225 S,Denver,Denver,CO,64.0,64.0,13.0,24.31,10.0,5.0,0.0
3,40.88049,-111.89658999999999,I-15 N,Woods Cross,Davis,UT,81.0,81.0,29.0,25.68,10.0,14.0,0.0
2,33.43396,-111.891171,AZ-202 Loop E,Mesa,Maricopa,AZ,64.0,64.0,19.0,28.8,10.0,3.0,0.0
2,32.115421999999995,-110.84706899999999, E Via Arroyo Largo,Tucson,Pima,AZ,74.0,74.0,29.0,26.97,10.0,6.0,0.0
2,45.08384,-111.209157, Gallatin Rd,Gallatin Gateway,Gallatin,MT,12.0,12.0,77.0,25.51,10.0,0.0,0.0
2,33.66917,-112.05912,Pima Fwy W,Phoenix,Maricopa,AZ,105.0,105.0,7.0,28.07,10.0,15.0,0.0
2,32.337551,-111.04693600000002,N Thornydale Rd,Tucson,Pima,AZ,89.0,89.0,18.0,27.2,10.0,0.0,0.0
2,34.835704,-114.144977,I-40 E,Bullhead City,Mohave,AZ,86.0,86.0,13.0,28.94,10.0,0.0,0.0
2,33.461383000000005,-112.11718400000001, N 27th Ave,Phoenix,Maricopa,AZ,50.0,50.0,44.0,28.79,10.0,3.0,0.0
2,33.485502000000004,-112.041074,Piestewa Fwy S,Phoenix,Maricopa,AZ,53.0,53.0,34.0,28.83,10.0,8.0,0.0
3,40.797241,-111.91853300000001,I-15 S,Salt Lake City,Salt Lake,UT,92.0,92.0,18.0,25.63,10.0,10.0,0.0
2,33.458649,-112.15183999999999,N 43rd Ave,Phoenix,Maricopa,AZ,90.0,90.0,13.0,28.66,10.0,5.0,0.0
3,39.78374,-104.80983,Gateway Ave,Denver,Denver,CO,60.0,60.0,77.0,24.61,10.0,10.0,0.0
2,32.131302000000005,-111.03743,S Paseo de Las Aguilas,Tucson,Pima,AZ,97.0,97.0,9.0,27.1,10.0,0.0,0.0
3,39.528628999999995,-119.715515,Sparks Blvd,Sparks,Washoe,NV,36.0,28.0,48.0,25.73,10.0,12.0,0.0
3,39.28505,-104.89625,I-25 N,Castle Rock,Douglas,CO,23.0,7.0,80.0,23.24,2.0,25.0,0.0
2,46.929684,-114.21439699999999,Deep Creek Rd,Missoula,Missoula,MT,29.0,29.0,75.0,26.88,10.0,0.0,0.0
1,32.17783,-110.98178999999999, W Ajo Way,Tucson,Pima,AZ,74.0,74.0,18.0,27.09,10.0,8.0,0.0
2,33.446940000000005,-111.89098,AZ-101 Loop S,Scottsdale,Maricopa,AZ,102.0,102.0,9.0,28.65,10.0,8.0,0.0
2,32.337731,-111.06588700000002,W Ina Rd,Tucson,Pima,AZ,88.0,88.0,17.0,27.29,10.0,3.0,0.0
2,40.552853000000006,-105.11509699999999,W Drake Rd,Fort Collins,Larimer,CO,65.0,65.0,54.0,25.03,10.0,8.0,0.0
2,43.391083,-116.003533,I-84 E,Boise,Ada,ID,34.0,27.0,64.0,27.24,10.0,8.0,0.0
3,40.302440000000004,-104.98061000000001,I-25 S,Johnstown,Weld,CO,79.0,79.0,35.0,25.06,10.0,7.0,0.0
3,40.861686999999996,-111.902092,E 1100 N,Woods Cross,Davis,UT,31.0,20.0,89.0,25.63,3.0,15.0,0.0
2,40.761711,-111.91320800000001,I-80 W,Salt Lake City,Salt Lake,UT,29.0,18.0,82.0,25.58,10.0,14.0,0.0
2,33.406712,-112.073349,E Broadway Rd,Phoenix,Maricopa,AZ,61.0,61.0,54.0,28.74,10.0,3.0,0.0
4,39.780120000000004,-104.95299999999999,I-70 W,Denver,Denver,CO,66.0,66.0,73.0,24.47,10.0,7.0,0.0
2,33.864816,-112.634449, N US Highway 60,Morristown,Maricopa,AZ,76.0,76.0,26.0,28.8,10.0,5.0,0.0
1,39.68759,-104.98751999999999, S Broadway,Denver,Denver,CO,79.0,79.0,14.0,24.13,10.0,0.0,0.0
4,42.51863,-113.42636,I-84 W,Malta,Cassia,ID,30.0,18.0,66.0,25.89,10.0,20.0,0.0
2,33.447078999999995,-112.08811200000001,S 12th Ave,Phoenix,Maricopa,AZ,43.0,43.0,25.0,29.15,10.0,3.0,0.0
2,33.407848,-111.571991,S Delaware Dr,Apache Junction,Pinal,AZ,63.0,63.0,55.0,28.57,10.0,5.0,0.0
3,40.98607,-106.22068,CO-127,Walden,Jackson,CO,21.0,21.0,63.0,22.14,10.0,3.0,0.0
4,34.121143,-112.145901,Arizona Veterans Highway,Black Canyon City,Yavapai,AZ,57.0,57.0,67.0,28.4,10.0,5.0,0.0
2,33.63752,-112.06541999999999, E Greenway Pkwy,Phoenix,Maricopa,AZ,89.0,89.0,12.0,28.28,10.0,0.0,0.0
3,35.107128,-106.703644,Coronado Fwy W,Albuquerque,Bernalillo,NM,79.0,79.0,11.0,24.3,10.0,6.0,0.0
4,44.121965,-116.907122, Highway 95,Payette,Payette,ID,31.0,26.0,82.0,27.84,10.0,5.0,0.0
2,32.257751,-110.798019,E Tanque Verde Rd,Tucson,Pima,AZ,86.0,86.0,13.0,27.3,10.0,0.0,0.0
2,33.988640999999994,-114.074875, State Highway 72,Bouse,La Paz,AZ,69.0,69.0,11.0,29.73,10.0,20.0,0.0
2,40.71816,-111.89308999999999,I-80 W,Salt Lake City,Salt Lake,UT,42.0,37.0,47.0,25.76,10.0,8.0,0.0
2,40.238240000000005,-111.68891,I-15 N,Provo,Utah,UT,37.0,30.0,44.0,25.27,10.0,10.0,0.0
2,39.729172,-104.94068899999999,Colorado Blvd,Denver,Denver,CO,33.0,28.0,46.0,24.49,10.0,6.0,0.0
3,35.169739,-106.58480800000001,I-25 N,Albuquerque,Bernalillo,NM,41.0,34.0,26.0,24.97,10.0,13.0,0.0
1,32.17735,-110.84086, S Kolb Rd,Tucson,Pima,AZ,46.0,43.0,38.0,27.27,10.0,7.0,0.0
2,45.692637,-111.02731000000001,I-90 W,Bozeman,Gallatin,MT,17.0,8.0,81.0,25.51,10.0,7.0,0.0
4,39.476929999999996,-119.76418000000001,S McCarran Blvd,Reno,Washoe,NV,55.0,55.0,19.0,25.63,10.0,3.0,0.0
2,40.454288,-111.914001,I-15 S,Riverton,Salt Lake,UT,57.0,57.0,27.0,26.04,10.0,8.0,0.0
2,40.6344,-111.89536000000001,I-215 E,Salt Lake City,Salt Lake,UT,33.0,26.0,70.0,25.64,10.0,8.0,0.0
2,40.474940000000004,-109.528834, N Vernal Ave,Vernal,Uintah,UT,43.0,43.0,37.0,24.66,10.0,0.0,0.0
2,40.34843,-111.59196000000001,E Provo Canyon Rd,Provo,Utah,UT,51.0,51.0,31.0,25.34,10.0,13.0,0.0
2,45.834827000000004,-108.436295, Walter Rd,Billings,Yellowstone,MT,33.0,29.0,66.0,26.37,10.0,5.0,0.0
2,33.451778000000004,-112.22966000000001,W Van Buren St,Tolleson,Maricopa,AZ,96.0,96.0,6.0,28.57,10.0,10.0,0.0
3,39.987724,-104.98726699999999,I-25 N,Broomfield,Adams,CO,28.0,19.0,98.0,24.91,0.75,9.0,0.0
2,40.66045,-111.90117,I-15 N,Salt Lake City,Salt Lake,UT,39.0,29.0,50.0,25.49,10.0,22.0,0.0
2,40.55982,-111.89753,I-15 N,South Jordan,Salt Lake,UT,30.0,25.0,61.0,26.14,10.0,5.0,0.0
2,38.869919,-104.794151,N Union Blvd,Colorado Springs,El Paso,CO,30.0,22.0,56.0,23.9,10.0,9.0,0.0
3,40.654373,-111.901726,I-15 N,Salt Lake City,Salt Lake,UT,73.0,73.0,27.0,25.83,10.0,8.0,0.0
1,32.35179,-110.97478000000001, N Oracle Rd,Tucson,Pima,AZ,80.0,80.0,11.0,27.13,10.0,14.0,0.0
1,33.70901,-112.06573999999999, N 7th St,Phoenix,Maricopa,AZ,92.0,92.0,14.0,28.3,10.0,8.0,0.0
2,33.536869,-112.358208,N Litchfield Rd,Luke Air Force Base,Maricopa,AZ,37.0,34.0,99.0,28.67,10.0,5.0,0.0
2,43.628814,-116.354551, E Leslie Dr,Meridian,Ada,ID,50.0,50.0,100.0,27.47,10.0,0.0,0.0
2,40.698151,-112.09185,MIX Ave,Magna,Salt Lake,UT,39.0,36.0,82.0,25.88,10.0,5.0,0.0
2,33.567457,-112.15162, W Olive Ave,Glendale,Maricopa,AZ,68.0,68.0,25.0,28.78,10.0,0.0,0.0
2,32.140442,-110.84966299999999,E Valencia Rd,Tucson,Pima,AZ,69.0,69.0,28.0,27.08,10.0,6.0,0.0
2,40.593247999999996,-111.902629,I-15 S,Sandy,Salt Lake,UT,40.0,40.0,77.0,25.59,7.0,3.0,0.0
1,32.2871,-110.9439, E River Rd,Tucson,Pima,AZ,71.0,71.0,39.0,27.19,10.0,8.0,0.0
3,40.587475,-111.90068799999999,I-15 S,Sandy,Salt Lake,UT,69.0,69.0,22.0,25.56,10.0,22.0,0.0
3,39.796299,-105.05248999999999,I-76 E,Denver,Adams,CO,59.0,59.0,27.0,24.72,50.0,0.0,0.0
2,33.451389,-112.138802,W Van Buren St,Phoenix,Maricopa,AZ,53.0,53.0,93.0,28.66,10.0,5.0,0.0
2,33.386672999999995,-111.894348,S Siesta Ln,Tempe,Maricopa,AZ,48.0,44.0,74.0,28.86,10.0,8.0,0.0
2,32.218090000000004,-110.857948,S Wilmot Rd,Tucson,Pima,AZ,54.0,54.0,80.0,27.19,10.0,5.0,0.0
2,40.350243,-111.76937099999999,I-15 N,Pleasant Grove,Utah,UT,25.0,11.0,86.0,25.13,3.0,20.0,0.0
2,40.6443,-111.92928,I-215 W,Salt Lake City,Salt Lake,UT,47.0,41.0,33.0,25.88,10.0,13.0,0.0
2,33.45943,-112.0076,AZ-202 Loop W,Phoenix,Maricopa,AZ,79.0,79.0,23.0,28.83,10.0,8.0,0.0
3,33.557693,-112.113045,Black Canyon Fwy N,Phoenix,Maricopa,AZ,65.0,65.0,14.0,28.57,10.0,12.0,0.0
2,40.892540000000004,-111.89225, N 500 W,Bountiful,Davis,UT,58.0,58.0,46.0,25.7,10.0,9.0,0.0
1,39.72504,-105.05317, Sheridan Blvd,Lakewood,Denver,CO,23.0,16.0,80.0,24.44,2.0,6.0,0.0
2,33.406479,-112.59091200000002,W Broadway Rd,Buckeye,Maricopa,AZ,108.0,108.0,7.0,28.66,9.0,10.0,0.0
2,39.786331,-105.07753799999999,I-70 E,Arvada,Jefferson,CO,25.0,18.0,59.0,24.22,10.0,6.0,0.0
2,41.197829999999996,-111.97373, Riverdale Rd,Ogden,Weber,UT,17.0,8.0,77.0,25.59,10.0,7.0,0.0
2,32.097437,-110.687175, E Old Spanish Trl,Vail,Pima,AZ,45.0,41.0,12.0,27.35,10.0,8.0,0.0
2,41.101486,-111.910278,N Highway 89,Layton,Davis,UT,20.0,6.0,99.0,24.84,2.0,16.0,0.0
1,32.337540000000004,-111.03778, W Ina Rd,Tucson,Pima,AZ,90.0,90.0,20.0,27.06,10.0,20.0,0.0
2,32.236228999999994,-110.892632,N Swan Rd,Tucson,Pima,AZ,63.0,63.0,20.0,27.12,10.0,14.0,0.0
2,33.596045000000004,-112.117019,Black Canyon Fwy S,Phoenix,Maricopa,AZ,94.0,94.0,10.0,28.25,10.0,3.0,0.0
2,32.25761,-110.971977, E Glenn St,Tucson,Pima,AZ,54.0,54.0,22.0,27.34,10.0,9.0,0.0
3,39.653040000000004,-104.93399, E Hampden Ave,Denver,Denver,CO,77.0,77.0,19.0,23.89,10.0,13.0,0.0
3,40.858565999999996,-111.904922,I-15 S,North Salt Lake,Davis,UT,31.0,23.0,76.0,25.63,10.0,9.0,0.0
2,32.26305,-110.97203799999998,N Stone Ave,Tucson,Pima,AZ,70.0,70.0,21.0,27.18,10.0,9.0,0.0
2,40.72545,-111.89022, E 2100 S,Salt Lake City,Salt Lake,UT,24.0,11.0,91.0,25.41,0.75,15.0,0.06
3,37.693915999999994,-104.810806,I-25 S,Walsenburg,Huerfano,CO,23.0,8.0,46.0,20.58,10.0,20.0,0.0
3,39.780025,-104.966927,Brighton Blvd,Denver,Denver,CO,18.0,18.0,86.0,24.44,1.0,0.0,0.0
3,33.427624,-112.05251299999999,I-17 S,Phoenix,Maricopa,AZ,57.0,57.0,96.0,28.8,1.0,9.0,0.05
1,40.69663,-111.98188999999999,W 3500 S,West Valley City,Salt Lake,UT,74.0,74.0,13.0,25.86,10.0,0.0,0.0
2,43.61501,-116.60365,Vietnam Veterans Memorial Hwy,Nampa,Canyon,ID,70.0,70.0,18.0,27.31,10.0,10.0,0.0
2,46.73209,-112.020569, N Montana Ave,Helena,Lewis and Clark,MT,17.0,8.0,74.0,26.18,10.0,7.0,0.0
2,32.129349,-110.922348,S Lisa Frank Ave,Tucson,Pima,AZ,46.0,44.0,76.0,27.15,10.0,6.0,0.0
2,32.235816,-110.98386399999998,W Speedway Blvd,Tucson,Pima,AZ,79.0,79.0,29.0,27.15,10.0,7.0,0.0
2,40.54582,-105.07698,E Swallow Rd,Fort Collins,Larimer,CO,69.0,69.0,29.0,25.06,10.0,6.0,0.0
3,39.130219,-104.8638,I-25 S,Larkspur,Douglas,CO,79.0,79.0,21.0,23.22,10.0,5.0,0.0
2,35.010348,-107.02871200000001,Historic US 66 E,Laguna,Bernalillo,NM,14.0,14.0,80.0,23.9,10.0,0.0,0.0
2,40.63459,-111.89526000000001,I-215 W,Salt Lake City,Salt Lake,UT,51.0,51.0,71.0,25.79,10.0,0.0,0.0
2,41.06667,-111.97018,I-15 S,Layton,Davis,UT,32.0,26.0,100.0,25.13,1.0,7.0,0.04
2,36.746576,-110.22796100000001,US-163 N,Kayenta,Navajo,AZ,85.0,85.0,9.0,25.61,10.0,3.0,0.0
3,39.471531,-104.872231,I-25 N,Parker,Douglas,CO,62.0,62.0,24.0,24.34,10.0,12.0,0.0
3,39.755463,-105.01266499999998,I-25 S,Denver,Denver,CO,57.0,57.0,36.0,24.01,10.0,6.0,0.0
2,32.163166,-110.91763300000001,E Irvington Rd,Tucson,Pima,AZ,74.0,74.0,13.0,27.24,10.0,7.0,0.0
2,41.205078,-112.00198400000001,Hinkley Dr,Ogden,Weber,UT,54.0,54.0,45.0,25.42,2.0,14.0,0.0
3,38.610217999999996,-104.682976,I-25 N,Fountain,El Paso,CO,86.0,86.0,18.0,24.21,10.0,14.0,0.0
3,33.41238,-112.01064299999999,I-10 W,Phoenix,Maricopa,AZ,73.0,73.0,20.0,28.57,10.0,20.0,0.0
3,39.6298,-104.90516000000001,I-25 S,Denver,Denver,CO,17.0,7.0,74.0,24.2,10.0,8.0,0.0
3,39.780178,-104.93946799999999,I-70 W,Denver,Denver,CO,32.0,24.0,100.0,24.63,1.0,9.0,0.0
2,39.770103000000006,-104.804375,I-70 W,Aurora,Adams,CO,28.0,28.0,52.0,24.53,10.0,0.0,0.0
2,39.654109999999996,-110.86038700000002,Elberts Rd,Helper,Carbon,UT,12.0,0.0,64.0,24.26,10.0,9.0,0.0
2,33.654613,-112.11438799999999,Black Canyon Fwy N,Phoenix,Maricopa,AZ,65.0,65.0,21.0,28.66,10.0,0.0,0.0
2,39.840092,-104.671867,Peña Blvd,Denver,Denver,CO,59.0,59.0,44.0,24.82,10.0,7.0,0.0
4,41.05903,-111.9104, N Highway 89,Kaysville,Davis,UT,34.0,28.0,100.0,25.05,10.0,7.0,0.0
2,40.385017,-105.469673,US Highway 34,Drake,Larimer,CO,31.0,23.0,92.0,24.89,10.0,8.0,0.0
3,39.77073,-104.99099,I-25 N,Denver,Denver,CO,81.0,81.0,15.0,24.65,10.0,10.0,0.0
2,39.70863,-104.810005,E Alameda Ave,Aurora,Arapahoe,CO,70.0,70.0,45.0,24.43,10.0,14.0,0.0
2,32.192409999999995,-110.956207,S Park Ave,Tucson,Pima,AZ,88.0,88.0,18.0,27.05,10.0,0.0,0.0
2,32.133713,-110.993, W Valencia Rd,Tucson,Pima,AZ,35.0,30.0,55.0,27.34,10.0,6.0,0.0
2,46.628583,-113.080526,I-90 E,Drummond,Granite,MT,29.0,29.0,100.0,26.63,6.0,0.0,0.0
2,32.133990999999995,-110.977791,W Valencia Rd,Tucson,Pima,AZ,59.0,59.0,39.0,27.08,10.0,3.0,0.0
2,46.612159999999996,-105.542795,I-94 E,Ismay,Custer,MT,27.0,18.0,89.0,27.05,10.0,9.0,0.0
2,40.630013,-111.86376200000001,I-215 E,Midvale,Salt Lake,UT,64.0,64.0,31.0,25.61,10.0,0.0,0.0
2,32.17783,-110.96829199999999,S 6th Ave,Tucson,Pima,AZ,107.0,107.0,13.0,27.01,10.0,9.0,0.0
2,40.71824,-112.07893999999999, State Route 201,Magna,Salt Lake,UT,95.0,95.0,9.0,25.61,10.0,15.0,0.0
2,32.17223,-110.962822,S 2nd Ave,Tucson,Pima,AZ,57.0,57.0,52.0,27.23,10.0,3.0,0.0
2,42.624775,-113.09518200000001,I-86 W,American Falls,Power,ID,66.0,66.0,48.0,25.55,5.0,22.0,0.0
2,35.15957,-111.28509,I-40 E,Flagstaff,Coconino,AZ,57.0,57.0,22.0,23.17,10.0,16.0,0.0
3,39.57647,-104.87495,I-25 S,Englewood,Arapahoe,CO,27.0,15.0,74.0,24.21,2.0,14.0,0.0
2,38.856941,-104.865051,N 30th St,Colorado Springs,El Paso,CO,55.0,55.0,70.0,23.65,10.0,7.0,0.0
3,33.539367999999996,-112.112251,Black Canyon Fwy N,Phoenix,Maricopa,AZ,74.0,74.0,29.0,28.24,10.0,0.0,0.0
2,35.185863,-111.71030400000001,I-40 W,Flagstaff,Coconino,AZ,79.0,79.0,7.0,23.37,10.0,9.0,0.0
2,40.336393,-111.611351,E Provo Canyon Rd,Provo,Utah,UT,34.0,29.0,75.0,25.7,10.0,6.0,0.0
4,33.538502,-112.17733, N 55th Ave,Glendale,Maricopa,AZ,104.0,104.0,9.0,28.68,10.0,0.0,0.0
2,40.586269,-111.900742,S 300 W,Sandy,Salt Lake,UT,27.0,19.0,89.0,25.75,8.0,7.0,0.0
2,40.623863,-111.976418,Bangerter Hwy,West Jordan,Salt Lake,UT,22.0,22.0,78.0,26.13,8.0,0.0,0.0
3,38.72801,-104.73592,I-25 N,Fountain,El Paso,CO,70.0,70.0,21.0,24.25,10.0,16.0,0.0
2,40.681073,-111.90241100000001,I-15 S,Salt Lake City,Salt Lake,UT,33.0,29.0,78.0,25.75,10.0,5.0,0.0
3,40.388256,-111.833611,E Main St,Lehi,Utah,UT,77.0,77.0,32.0,25.3,10.0,8.0,0.0
2,39.559063,-119.55435200000001,Interstate 80 E,Sparks,Washoe,NV,44.0,41.0,76.0,25.58,10.0,6.0,0.0
3,33.5238,-112.11218999999998,Black Canyon Fwy N,Phoenix,Maricopa,AZ,53.0,53.0,20.0,29.04,10.0,6.0,0.0
2,33.567532,-112.151657,N 43rd Ave,Phoenix,Maricopa,AZ,89.0,89.0,14.0,28.17,10.0,9.0,0.0
2,39.653194,-104.96768999999999,E Hampden Ave,Englewood,Arapahoe,CO,63.0,63.0,34.0,24.46,10.0,7.0,0.0
1,33.37767,-112.11648999999998, W Baseline Rd,Laveen,Maricopa,AZ,79.0,79.0,12.0,28.77,10.0,12.0,0.0
2,33.386086,-111.83996599999999,S Country Club Dr,Mesa,Maricopa,AZ,74.0,74.0,34.0,28.71,10.0,6.0,0.0
2,33.494960999999996,-112.151711,W Indian School Rd,Phoenix,Maricopa,AZ,96.0,96.0,10.0,28.73,10.0,8.0,0.0
2,33.776424,-112.13074499999999,Black Canyon Fwy S,Phoenix,Maricopa,AZ,93.0,93.0,13.0,28.25,10.0,8.0,0.0
1,35.1066,-106.64732, 4th St NW,Albuquerque,Bernalillo,NM,80.0,80.0,19.0,24.76,10.0,0.0,0.0
2,33.462218,-112.047776,I-10 W,Phoenix,Maricopa,AZ,88.0,88.0,14.0,28.61,10.0,3.0,0.0
2,40.4678,-111.91123,I-15 S,Draper,Salt Lake,UT,38.0,31.0,68.0,25.76,10.0,10.0,0.0
1,32.33709,-110.97737,N Oracle Rd,Tucson,Pima,AZ,71.0,71.0,17.0,27.15,10.0,7.0,0.0
2,33.55312,-112.10830700000001,N 23rd Ave,Phoenix,Maricopa,AZ,49.0,45.0,61.0,28.36,10.0,9.0,0.0
3,39.536415000000005,-119.78668200000001,Depaoli St,Reno,Washoe,NV,83.0,83.0,24.0,25.5,10.0,26.0,0.0
2,33.530997,-112.05519, E Maryland Ave,Phoenix,Maricopa,AZ,70.0,70.0,30.0,28.83,10.0,5.0,0.0
2,32.337638,-111.05455900000001, W Ina Rd,Tucson,Pima,AZ,48.0,46.0,32.0,27.24,10.0,6.0,0.0
2,33.393867,-111.713509,E Southern Ave,Mesa,Maricopa,AZ,47.0,43.0,59.0,28.69,10.0,9.0,0.0
2,40.69661,-111.98664, S 4000 W,West Valley City,Salt Lake,UT,40.0,40.0,68.0,25.88,10.0,3.0,0.0
2,43.618906,-116.35438700000002, N Eagle Rd,Meridian,Ada,ID,34.0,27.0,81.0,27.58,9.0,8.0,0.0
3,39.822528999999996,-104.96241,I-270 W,Denver,Adams,CO,27.0,18.0,93.0,24.25,0.75,8.0,0.0
2,47.86096,-112.26161200000001, US Highway 89,Choteau,Teton,MT,42.0,32.0,40.0,26.0,10.0,25.0,0.0
2,33.487572,-111.98700000000001,N 44th St,Phoenix,Maricopa,AZ,66.0,66.0,20.0,28.79,10.0,5.0,0.0
1,32.23573,-110.85799999999999, E Speedway Blvd,Tucson,Pima,AZ,73.0,73.0,23.0,27.23,10.0,8.0,0.0
2,40.63858,-111.97671000000001,Bangerter Hwy,Salt Lake City,Salt Lake,UT,71.0,71.0,35.0,25.55,10.0,13.0,0.0
2,33.451355,-111.89034299999999,E McKellips Rd,Scottsdale,Maricopa,AZ,44.0,42.0,76.0,29.08,10.0,5.0,0.0
2,41.21014,-111.97072, Washington Blvd,Ogden,Weber,UT,44.0,39.0,51.0,25.6,10.0,9.0,0.0
3,39.66946,-104.82955,I-225 S,Aurora,Arapahoe,CO,19.0,7.0,98.0,24.61,9.0,10.0,0.0
2,33.567659,-112.117429,W Dunlap Ave,Phoenix,Maricopa,AZ,89.0,89.0,19.0,28.33,10.0,5.0,0.0
1,33.49487,-111.89171999999999, N Pima Rd,Scottsdale,Maricopa,AZ,88.0,88.0,15.0,28.72,10.0,6.0,0.0
2,38.941059,-104.701157,Black Forest Rd,Colorado Springs,El Paso,CO,72.0,72.0,57.0,23.66,10.0,10.0,0.0
2,33.60778,-112.16851000000001,W Eugie Ave,Glendale,Maricopa,AZ,40.0,37.0,75.0,29.1,10.0,5.0,0.0
2,39.146293,-119.746674,I-580 S,Carson City,Carson City,NV,46.0,46.0,40.0,25.56,10.0,0.0,0.0
2,39.671859999999995,-111.66415,N State St,Fairview,Sanpete,UT,38.0,38.0,93.0,23.88,5.0,3.0,0.07
2,40.60767,-111.90516000000001,I-15 N,Midvale,Salt Lake,UT,27.0,17.0,75.0,25.82,8.0,10.0,0.0
1,39.75371,-104.98633000000001, Park Ave W,Denver,Denver,CO,72.0,72.0,18.0,24.38,10.0,0.0,0.0
2,33.673031,-111.989451,AZ-101 Loop W,Phoenix,Maricopa,AZ,82.0,82.0,14.0,28.14,10.0,0.0,0.0
3,38.72357,-104.68233000000001,Powers Blvd,Colorado Springs,El Paso,CO,28.0,15.0,88.0,23.8,0.0,18.0,0.0
1,33.49463,-111.9346, E Indian School Rd,Scottsdale,Maricopa,AZ,83.0,83.0,15.0,28.59,10.0,15.0,0.0
2,33.461578,-112.09416100000001,I-10 E,Phoenix,Maricopa,AZ,63.0,63.0,60.0,28.83,10.0,6.0,0.0
3,39.981636,-104.988258,I-25 S,Broomfield,Broomfield,CO,24.0,13.0,91.0,24.83,10.0,12.0,0.0
2,33.167155,-112.649828, State Route 85,Buckeye,Maricopa,AZ,63.0,63.0,26.0,29.03,10.0,9.0,0.0
3,33.462505,-112.151627,N 43rd Ave,Phoenix,Maricopa,AZ,66.0,66.0,19.0,28.79,10.0,3.0,0.0
1,32.23611,-110.8756, E Speedway Blvd,Tucson,Pima,AZ,95.0,95.0,22.0,27.1,10.0,17.0,0.0
3,33.419613,-112.01853899999999,I-10 W,Phoenix,Maricopa,AZ,81.0,81.0,15.0,28.75,10.0,0.0,0.0
2,32.242709999999995,-110.81008100000001,N La Rienda Ave,Tucson,Pima,AZ,100.0,100.0,9.0,27.07,10.0,10.0,0.0
4,39.77843,-104.9061,I-70 W,Denver,Denver,CO,34.0,25.0,70.0,24.44,10.0,12.0,0.0
2,34.987857,-107.10007399999999,Historic US 66 W,Laguna,Cibola,NM,33.0,33.0,85.0,23.87,10.0,0.0,0.0
2,39.76866,-110.90728999999999,US-6 E,Helper,Carbon,UT,83.0,83.0,24.0,24.24,10.0,6.0,0.0
2,32.264688,-110.97801499999998, W Fort Lowell Rd,Tucson,Pima,AZ,65.0,65.0,28.0,27.21,10.0,5.0,0.0
2,33.463572,-112.18649199999999,N 59th Ave,Phoenix,Maricopa,AZ,73.0,73.0,25.0,28.69,10.0,0.0,0.0
2,32.098380999999996,-110.90943899999999,S Alvernon Way,Tucson,Pima,AZ,64.0,64.0,35.0,27.24,10.0,8.0,0.0
3,33.461826,-112.108902,I-10 W,Phoenix,Maricopa,AZ,58.0,58.0,67.0,28.72,9.0,9.0,0.0
2,39.524372,-119.86190800000001,I-80 E,Reno,Washoe,NV,53.0,53.0,20.0,25.69,10.0,0.0,0.0
2,35.18031,-106.632745,Paseo del Norte E,Albuquerque,Bernalillo,NM,34.0,29.0,32.0,24.34,10.0,6.0,0.0
3,39.725570000000005,-105.06053,W 6th Ave,Denver,Jefferson,CO,75.0,75.0,27.0,24.45,75.0,8.0,0.0
2,45.662495,-108.769644,I-90 E,Laurel,Yellowstone,MT,22.0,13.0,82.0,26.7,10.0,8.0,0.0
2,40.587879,-111.984039,S 3900 W,West Jordan,Salt Lake,UT,68.0,68.0,27.0,25.83,10.0,8.0,0.0
3,32.480171,-110.91478000000001,E Canter Rd,Tucson,Pima,AZ,81.0,81.0,12.0,27.22,10.0,14.0,0.0
1,32.25063,-110.9097, N Alvernon Way,Tucson,Pima,AZ,61.0,61.0,38.0,27.34,10.0,3.0,0.0
1,39.78903,-104.98891,I-25 N,Denver,Denver,CO,59.0,59.0,59.0,24.25,10.0,8.0,0.0
2,45.766259000000005,-111.179055,I-90 W,Belgrade,Gallatin,MT,16.0,7.0,81.0,25.9,10.0,6.0,0.0
1,32.264959999999995,-110.90985, N Alvernon Way,Tucson,Pima,AZ,97.0,97.0,7.0,27.14,10.0,0.0,0.0
2,33.60622,-112.30188000000001,Grand Ave,Sun City,Maricopa,AZ,89.0,89.0,15.0,28.83,10.0,5.0,0.0
2,43.586304999999996,-111.60179699999999, Swan Valley Hwy,Ririe,Bonneville,ID,23.0,17.0,53.0,25.18,10.0,5.0,0.0
2,40.66758,-111.97702,S 3600 W,West Valley City,Salt Lake,UT,57.0,57.0,41.0,25.7,10.0,8.0,0.0
1,33.50902,-112.2205, N 75th Ave,Phoenix,Maricopa,AZ,90.0,90.0,17.0,28.72,10.0,3.0,0.0
1,32.17784,-111.00336999999999, W Ajo Way,Tucson,Pima,AZ,93.0,93.0,20.0,27.06,10.0,16.0,0.0
2,40.7038,-112.0249, W 3100 S,West Valley City,Salt Lake,UT,40.0,36.0,43.0,25.58,10.0,6.0,0.0
2,32.221035,-110.841003,Kolb Rd,Tucson,Pima,AZ,93.0,93.0,34.0,27.15,10.0,9.0,0.0
2,32.337356,-111.01264499999999,W Ina Rd,Tucson,Pima,AZ,57.0,57.0,17.0,27.35,10.0,10.0,0.0
2,33.463956,-111.994975,N 40th St,Phoenix,Maricopa,AZ,42.0,42.0,51.0,28.99,10.0,3.0,0.0
2,41.208248,-111.97926299999999,31st St,Ogden,Weber,UT,49.0,45.0,24.0,25.58,10.0,9.0,0.0
2,39.765905,-105.00006,I-25 N,Denver,Denver,CO,21.0,9.0,86.0,24.43,4.0,12.0,0.0
2,39.542638000000004,-111.95286100000001,I-15 S,Nephi,Juab,UT,32.0,19.0,88.0,25.5,10.0,22.0,0.0
3,33.429024,-112.06498700000002,I-17 N,Phoenix,Maricopa,AZ,102.0,102.0,24.0,28.59,10.0,12.0,0.0
3,39.780571,-104.991859,I-70 E,Denver,Denver,CO,37.0,33.0,100.0,24.38,3.0,6.0,0.0
2,44.3384,-112.17591999999999,I-15 N,Spencer,Clark,ID,71.0,71.0,47.0,25.02,10.0,10.0,0.0
2,32.2882,-111.002563,W Ruthrauff Rd,Tucson,Pima,AZ,99.0,99.0,15.0,27.12,10.0,8.0,0.0
2,40.54834,-112.3421, W Utah Ave,Tooele,Tooele,UT,48.0,44.0,62.0,25.39,10.0,10.0,0.0
2,46.672142,-113.15861100000001,I-90 E,Drummond,Granite,MT,37.0,31.0,89.0,26.17,10.0,8.0,0.0
2,40.71816,-111.89308999999999,I-80 W,Salt Lake City,Salt Lake,UT,56.0,56.0,47.0,25.67,10.0,5.0,0.0
3,39.066631,-104.856468,I-25 N,Monument,El Paso,CO,51.0,51.0,48.0,23.49,10.0,3.0,0.0
1,33.47994,-112.11706000000001, N 27th Ave,Phoenix,Maricopa,AZ,100.0,100.0,14.0,28.59,10.0,13.0,0.0
2,32.398803,-110.95253799999999, N La Reserve Dr,Tucson,Pima,AZ,53.0,53.0,30.0,27.39,10.0,3.0,0.0
1,33.480470000000004,-112.00421000000001, N 36th St,Phoenix,Maricopa,AZ,77.0,77.0,19.0,28.85,10.0,5.0,0.0
1,40.62465,-111.86008999999999, Union Park Ave,Midvale,Salt Lake,UT,44.0,44.0,60.0,25.69,10.0,3.0,0.0
2,40.562671,-111.89887399999999,I-15 N,South Jordan,Salt Lake,UT,33.0,33.0,72.0,25.93,10.0,0.0,0.0
2,33.462841999999995,-112.20983799999999,I-10 W,Phoenix,Maricopa,AZ,59.0,59.0,34.0,28.89,10.0,7.0,0.0
2,39.33947,-110.37208000000001,US-191 N,Green River,Emery,UT,91.0,91.0,11.0,25.32,10.0,20.0,0.0
2,40.644299,-111.937752,I-215 E,Salt Lake City,Salt Lake,UT,20.0,10.0,74.0,25.84,9.0,8.0,0.0
2,33.630537,-112.16831100000002,W Monte Cristo Ave,Glendale,Maricopa,AZ,58.0,58.0,32.0,28.42,10.0,3.0,0.0
2,35.123298999999996,-106.58646399999999,San Mateo Blvd NE,Albuquerque,Bernalillo,NM,41.0,36.0,62.0,24.71,10.0,8.0,0.0
2,39.326141,-105.127357,S County Highway 67,Sedalia,Douglas,CO,57.0,57.0,39.0,23.96,10.0,10.0,0.0
3,39.580172999999995,-104.876442,I-25 N,Englewood,Arapahoe,CO,40.0,35.0,26.0,24.15,10.0,7.0,0.0
2,41.056206,-111.961266,I-15 S,Layton,Davis,UT,35.0,25.0,59.0,24.96,10.0,16.0,0.0
1,32.250479999999996,-110.99541, W Grant Rd,Tucson,Pima,AZ,71.0,71.0,26.0,27.24,10.0,9.0,0.0
2,39.594894000000004,-104.866653,E Arapahoe Rd,Englewood,Arapahoe,CO,70.0,70.0,32.0,24.31,7.0,0.0,0.0
4,33.62847,-111.8943, N Hayden Rd,Scottsdale,Maricopa,AZ,62.0,62.0,34.0,28.13,10.0,0.0,0.0
3,33.462627000000005,-112.13423200000001,I-10 E,Phoenix,Maricopa,AZ,60.0,60.0,33.0,29.05,10.0,0.0,0.0
2,33.462038,-112.25968799999998,I-10 E,Tolleson,Maricopa,AZ,60.0,60.0,74.0,28.88,10.0,0.0,0.0
2,40.667484,-111.952408,I-215 N,Salt Lake City,Salt Lake,UT,35.0,29.0,92.0,25.88,10.0,7.0,0.0
2,35.07652,-110.86698600000001,I-40 E,Flagstaff,Coconino,AZ,30.0,30.0,51.0,23.21,10.0,0.0,0.0
2,32.241642999999996,-110.88621699999999, N Santa Rosa Ave,Tucson,Pima,AZ,57.0,57.0,25.0,27.25,10.0,0.0,0.0
2,33.474429,-112.11315,Black Canyon Fwy S,Phoenix,Maricopa,AZ,71.0,71.0,39.0,28.6,10.0,6.0,0.0
2,38.936859999999996,-110.4749,I-70 W,Green River,Emery,UT,81.0,81.0,8.0,25.35,10.0,13.0,0.0
2,41.110884000000006,-112.064574, S 2000 W,Syracuse,Davis,UT,29.0,25.0,75.0,25.35,10.0,5.0,0.0
4,33.43586,-112.10825,US-60 E,Phoenix,Maricopa,AZ,111.0,111.0,11.0,28.51,10.0,12.0,0.0
2,39.6967,-105.00033, S Kalamath St,Denver,Denver,CO,70.0,70.0,25.0,24.23,10.0,15.0,0.0
2,40.53345,-111.89205,I-15 N,Draper,Salt Lake,UT,70.0,70.0,30.0,25.47,10.0,18.0,0.0
2,39.798264,-104.84719100000001,E 56th Ave,Commerce City,Adams,CO,60.0,60.0,77.0,24.23,10.0,14.0,0.0
3,39.63217,-104.90596000000001,I-25 N,Denver,Denver,CO,38.0,38.0,36.0,24.2,10.0,0.0,0.0
2,33.406712,-112.064568,E Broadway Rd,Phoenix,Maricopa,AZ,102.0,102.0,10.0,28.62,10.0,9.0,0.0
2,32.199658,-110.920203, S Kelvin Stra,Tucson,Pima,AZ,65.0,65.0,34.0,27.2,10.0,8.0,0.0
2,40.64983,-111.90207,I-15 N,Salt Lake City,Salt Lake,UT,33.0,28.0,96.0,25.82,2.0,6.0,0.01
2,45.94212,-108.143165,I-94 W,Ballantine,Yellowstone,MT,14.0,14.0,47.0,26.71,10.0,0.0,0.0
3,39.712692,-105.000298,I-25 S,Denver,Denver,CO,71.0,71.0,16.0,23.95,10.0,9.0,0.0
2,39.885222999999996,-104.98751100000001,I-25 N,Denver,Adams,CO,16.0,9.0,93.0,24.36,10.0,5.0,0.0
2,39.68874,-111.83018500000001,I-15 N,Nephi,Juab,UT,33.0,20.0,59.0,25.45,10.0,24.0,0.0
2,42.576559,-113.94220200000001,I-84 W,Hazelton,Jerome,ID,27.0,20.0,78.0,26.23,10.0,6.0,0.0
2,40.7464,-111.9488,I-215 N,Salt Lake City,Salt Lake,UT,85.0,85.0,22.0,25.8,10.0,7.0,0.0
1,33.668209999999995,-112.10858999999999, W Beardsley Rd,Phoenix,Maricopa,AZ,99.0,99.0,7.0,28.18,10.0,6.0,0.0
2,32.175282,-110.90823400000001,S Contractors Way,Tucson,Pima,AZ,88.0,88.0,22.0,27.16,10.0,5.0,0.0
2,32.205639,-110.811218,E Sarnoff Ridge Loop,Tucson,Pima,AZ,77.0,77.0,64.0,27.09,10.0,9.0,0.0
2,34.558341999999996,-111.907521,Arizona Veterans Highway,Mayer,Yavapai,AZ,62.0,62.0,34.0,25.07,10.0,3.0,0.0
2,32.250749,-110.873976, E Grant Rd,Tucson,Pima,AZ,81.0,81.0,35.0,27.28,10.0,14.0,0.0
2,34.580071000000004,-114.36723500000001,Highway 95 N,Lake Havasu City,Mohave,AZ,63.0,63.0,18.0,28.91,10.0,8.0,0.0
2,33.4641,-112.23812099999999,N 83rd Ave,Tolleson,Maricopa,AZ,93.0,93.0,27.0,28.65,10.0,0.0,0.0
2,39.620598,-105.016396,S Prince St,Littleton,Arapahoe,CO,66.0,66.0,15.0,24.35,10.0,8.0,0.0
2,40.233124,-111.68321200000001,W Center St,Provo,Utah,UT,78.0,78.0,19.0,25.58,10.0,5.0,0.0
2,39.718361,-104.986267,E 1st Ave,Denver,Denver,CO,14.0,6.0,96.0,24.39,6.0,5.0,0.0
2,35.465658000000005,-104.529515,NM-104,Trementina,San Miguel,NM,38.0,31.0,68.0,23.4,10.0,9.0,0.0
2,38.877311999999996,-104.795349,N Union Blvd,Colorado Springs,El Paso,CO,83.0,83.0,20.0,23.63,10.0,12.0,0.0
2,39.539359999999995,-119.48658799999998,USA Pkwy,Sparks,Storey,NV,56.0,56.0,34.0,25.46,10.0,16.0,0.0
2,40.69662,-111.93751, W 3500 S,West Valley City,Salt Lake,UT,32.0,20.0,56.0,25.71,10.0,21.0,0.0
2,40.72565,-112.03667,UT-201 W,West Valley City,Salt Lake,UT,53.0,53.0,52.0,25.81,10.0,7.0,0.0
2,32.192413,-110.94710500000001,E 36th St,Tucson,Pima,AZ,82.0,82.0,8.0,27.15,10.0,5.0,0.0
2,33.461647,-112.14371200000001,I-10 E,Phoenix,Maricopa,AZ,91.0,91.0,11.0,28.59,10.0,0.0,0.0
2,46.880340000000004,-113.99259199999999,N Orange St,Missoula,Missoula,MT,56.0,56.0,64.0,26.86,10.0,0.0,0.0
2,43.904016999999996,-116.812423,I-84 E,Caldwell,Payette,ID,30.0,25.0,92.0,27.56,5.0,5.0,0.01
1,32.163140000000006,-110.90913,E Irvington Rd,Tucson,Pima,AZ,96.0,96.0,5.0,27.07,10.0,5.0,0.0
2,33.66928,-112.16282,AZ-101 Loop E,Glendale,Maricopa,AZ,93.0,93.0,13.0,28.21,10.0,3.0,0.0
2,33.763936,-112.128492,Black Canyon Fwy S,Phoenix,Maricopa,AZ,42.0,42.0,27.0,28.58,10.0,0.0,0.0
1,40.567040000000006,-105.05793999999999, S Lemay Ave,Fort Collins,Larimer,CO,84.0,84.0,19.0,25.19,10.0,6.0,0.0
2,40.282309999999995,-111.73206299999998,S Geneva Rd,Vineyard,Utah,UT,28.0,28.0,85.0,25.8,10.0,3.0,0.0
2,40.376259999999995,-111.88646000000001,W Pioneer Xing,Lehi,Utah,UT,50.0,50.0,38.0,24.94,10.0,0.0,0.0
2,48.316091,-114.33595600000001,KM Ranch Rd,Kalispell,Flathead,MT,28.0,28.0,88.0,26.79,4.0,0.0,0.0
2,39.97215,-105.20273,US-36 E,Boulder,Boulder,CO,48.0,43.0,17.0,24.32,10.0,14.0,0.0
2,40.63459,-111.89526000000001,I-215 W,Salt Lake City,Salt Lake,UT,41.0,37.0,76.0,25.73,10.0,6.0,0.0
1,33.39222,-112.08200000000001, S 7th Ave,Phoenix,Maricopa,AZ,64.0,64.0,24.0,28.75,10.0,21.0,0.0
2,33.670868,-111.99983999999999,AZ-101 Loop E,Phoenix,Maricopa,AZ,59.0,59.0,62.0,28.41,10.0,0.0,0.0
2,40.71213,-111.78981999999999,I-80 W,Salt Lake City,Salt Lake,UT,28.0,28.0,69.0,25.86,10.0,3.0,0.0
2,32.177415,-110.80691599999999, E Escalante Rd,Tucson,Pima,AZ,96.0,96.0,8.0,27.19,10.0,13.0,0.0
3,39.69794,-104.82915,I-225 N,Aurora,Arapahoe,CO,20.0,20.0,77.0,24.75,10.0,3.0,0.0
2,43.669078000000006,-116.354398, W Oakhampton Dr,Eagle,Ada,ID,50.0,50.0,48.0,27.1,8.0,8.0,0.0
3,39.631386,-104.902832,Technology Way,Denver,Denver,CO,53.0,53.0,18.0,24.31,10.0,5.0,0.0
1,33.61074,-112.18583000000001, W Thunderbird Rd,Glendale,Maricopa,AZ,92.0,92.0,14.0,28.15,10.0,22.0,0.0
2,40.421490000000006,-104.81348, 83rd Ave,Greeley,Weld,CO,27.0,14.0,93.0,25.42,1.0,17.0,0.0
1,38.89074,-104.7571,Austin Bluffs Pkwy,Colorado Springs,El Paso,CO,67.0,67.0,14.0,23.45,10.0,8.0,0.0
2,33.319855,-111.976059,S 50th St,Phoenix,Maricopa,AZ,47.0,44.0,44.0,28.9,10.0,6.0,0.0
2,40.609482,-111.967453,S 3200 W,West Jordan,Salt Lake,UT,76.0,76.0,45.0,25.61,10.0,8.0,0.0
2,38.80583,-104.78669000000001,Hancock Expy,Colorado Springs,El Paso,CO,27.0,15.0,72.0,24.09,10.0,15.0,0.0
2,33.291649,-111.99728400000001,S 40th St,Laveen,Maricopa,AZ,72.0,72.0,20.0,28.77,10.0,5.0,0.0
2,39.184509000000006,-108.280574,I-70 W,De Beque,Mesa,CO,22.0,16.0,58.0,25.26,10.0,5.0,0.0
2,40.713772,-111.809227,I-215 N,Salt Lake City,Salt Lake,UT,61.0,61.0,41.0,25.73,10.0,8.0,0.0
2,39.599951000000004,-111.91228500000001,I-15 S,Nephi,Juab,UT,20.0,20.0,57.0,25.89,10.0,0.0,0.0
2,33.637608,-112.06552099999999,N 7th St,Phoenix,Maricopa,AZ,86.0,86.0,14.0,28.28,10.0,0.0,0.0
2,39.67411,-104.9944, S Santa Fe Dr,Denver,Denver,CO,22.0,13.0,78.0,24.2,0.5,7.0,0.0
1,33.63893,-112.1691,N 51st Ave,Glendale,Maricopa,AZ,84.0,84.0,19.0,28.29,10.0,10.0,0.0
2,33.451275,-111.890327,AZ-101 Loop N,Scottsdale,Maricopa,AZ,62.0,62.0,53.0,28.83,10.0,0.0,0.0
2,32.184629,-110.82455700000001, E Stella Rd,Tucson,Pima,AZ,49.0,44.0,18.0,27.24,10.0,12.0,0.0
1,32.250609999999995,-110.87983, E Grant Rd,Tucson,Pima,AZ,46.0,44.0,40.0,27.34,10.0,5.0,0.0
2,33.451401000000004,-112.07382199999999,E Van Buren St,Phoenix,Maricopa,AZ,68.0,68.0,26.0,28.89,10.0,13.0,0.0
3,40.188431,-111.64659099999999,I-15 S,Spanish Fork,Utah,UT,31.0,31.0,64.0,25.7,10.0,3.0,0.0
1,32.235479999999995,-110.82387,N Pantano Rd,Tucson,Pima,AZ,91.0,91.0,24.0,27.17,10.0,3.0,0.0
2,32.22155,-110.92662800000001,Country Club Rd,Tucson,Pima,AZ,73.0,73.0,20.0,27.16,10.0,7.0,0.0
1,33.53103,-112.07373, E Maryland Ave,Phoenix,Maricopa,AZ,72.0,72.0,16.0,28.73,10.0,9.0,0.0
4,39.772059999999996,-104.82208,I-70 W,Aurora,Adams,CO,17.0,8.0,95.0,24.43,3.0,6.0,0.01
2,39.66772,-105.0815,W Yale Ave,Denver,Denver,CO,82.0,82.0,24.0,24.27,10.0,3.0,0.0
2,33.406712,-112.082001,W Broadway Rd,Phoenix,Maricopa,AZ,103.0,103.0,12.0,28.72,10.0,7.0,0.0
3,38.672348,-104.70835100000001,I-25 N,Fountain,El Paso,CO,52.0,52.0,25.0,24.46,10.0,0.0,0.0
2,40.72555,-111.9075,W 2100 S,Salt Lake City,Salt Lake,UT,35.0,31.0,76.0,25.58,10.0,5.0,0.0
2,40.65464,-112.28938000000001, Highway 36,Tooele,Tooele,UT,39.0,31.0,39.0,25.85,10.0,13.0,0.0
1,32.22893,-110.87553999999999,E 5th St,Tucson,Pima,AZ,61.0,61.0,39.0,27.13,10.0,14.0,0.0
2,39.717087,-104.903275,E Lowry Blvd,Denver,Denver,CO,16.0,7.0,86.0,24.43,1.0,6.0,0.0
2,48.360237,-114.454429, Farm To Market Rd,Whitefish,Flathead,MT,34.0,27.0,79.0,26.5,7.0,9.0,0.0
2,33.637608,-112.06552099999999,N 7th St,Phoenix,Maricopa,AZ,67.0,67.0,47.0,28.4,10.0,7.0,0.0
2,33.615879,-112.3741,W Evans Dr,Surprise,Maricopa,AZ,92.0,92.0,11.0,28.6,10.0,0.0,0.0
2,32.273998,-110.96103600000001,Rillito Village Apartments,Tucson,Pima,AZ,69.0,69.0,25.0,27.34,10.0,13.0,0.0
3,39.596001,-104.886177,CO-88,Englewood,Arapahoe,CO,86.0,86.0,16.0,24.24,10.0,10.0,0.0
1,33.65469,-112.11712, W Union Hills Dr,Phoenix,Maricopa,AZ,89.0,89.0,16.0,28.16,9.0,7.0,0.0
2,48.240368,-114.27508600000002, E Reserve Dr,Kalispell,Flathead,MT,19.0,12.0,88.0,27.35,9.0,5.0,0.0
1,33.43691,-112.1519, W Buckeye Rd,Phoenix,Maricopa,AZ,70.0,70.0,30.0,28.87,10.0,8.0,0.0
3,39.94186,-104.98781000000001,I-25 N,Thornton,Adams,CO,21.0,10.0,91.0,25.18,4.0,9.0,0.0
2,39.769329,-105.109673,W 38th Ave,Wheat Ridge,Jefferson,CO,72.0,72.0,38.0,24.4,75.0,0.0,0.0
2,42.571185,-113.508219,I-86 E,Declo,Cassia,ID,31.0,22.0,69.0,26.07,10.0,10.0,0.0
3,39.667393,-104.92570500000001,I-25 S,Denver,Denver,CO,48.0,48.0,34.0,24.39,10.0,3.0,0.0
2,43.619409000000005,-116.34681499999999,E Fairview Ave,Meridian,Ada,ID,55.0,55.0,36.0,27.22,10.0,7.0,0.0
3,33.621365000000004,-112.116684,Black Canyon Fwy S,Phoenix,Maricopa,AZ,103.0,103.0,11.0,28.16,10.0,12.0,0.0
1,32.19806,-110.92719, S Country Club Rd,Tucson,Pima,AZ,68.0,68.0,17.0,27.14,10.0,7.0,0.0
2,40.20335,-111.65548000000001,I-15 S,Provo,Utah,UT,72.0,72.0,28.0,25.46,10.0,18.0,0.0
2,32.699759,-114.445773, E Highway 95,Yuma,Yuma,AZ,65.0,65.0,68.0,29.76,10.0,6.0,0.0
2,40.31949,-111.64943000000001, E Provo Canyon Rd,Provo,Utah,UT,34.0,28.0,28.0,25.52,10.0,7.0,0.0
2,39.675621,-105.14585100000001,W Warren Ave,Denver,Jefferson,CO,12.0,12.0,85.0,24.48,12.0,0.0,0.0
2,40.66757,-111.98393, W 4700 S,Taylorsville,Salt Lake,UT,60.0,60.0,24.0,25.56,10.0,8.0,0.0
2,33.465919,-112.195122,N 63rd Ave,Phoenix,Maricopa,AZ,51.0,51.0,48.0,28.96,10.0,3.0,0.0
2,33.50222,-111.91745800000001,N Miller Rd,Scottsdale,Maricopa,AZ,71.0,71.0,25.0,28.76,10.0,5.0,0.0
2,39.63825,-104.89488,S Tamarac Pkwy,Denver,Denver,CO,59.0,59.0,53.0,24.3,10.0,13.0,0.0
2,39.711021,-105.08152,W Alameda Ave,Denver,Jefferson,CO,12.0,12.0,92.0,24.33,1.0,3.0,0.0
2,40.69763,-111.7954,I-215 N,Salt Lake City,Salt Lake,UT,31.0,31.0,85.0,25.66,4.0,0.0,0.01
2,48.08815,-114.02892299999999, Swan River Rd,Bigfork,Flathead,MT,20.0,20.0,89.0,26.99,10.0,0.0,0.0
1,32.235490000000006,-110.8411, E Speedway Blvd,Tucson,Pima,AZ,74.0,74.0,10.0,27.21,10.0,5.0,0.0
4,33.68381,-111.92535, N Scottsdale Rd,Scottsdale,Maricopa,AZ,82.0,82.0,17.0,28.09,10.0,12.0,0.0
3,39.658062,-104.843124,S Parker Rd,Aurora,Arapahoe,CO,40.0,40.0,54.0,24.22,10.0,0.0,0.0
2,32.258076,-110.799016, E Tanque Verde Rd,Tucson,Pima,AZ,59.0,59.0,22.0,27.11,10.0,5.0,0.0
3,35.217392,-114.011131,I-40 W,Kingman,Mohave,AZ,93.0,93.0,7.0,26.63,10.0,7.0,0.0
2,48.114346000000005,-114.60096000000001, US Highway 2 W,Kila,Flathead,MT,31.0,31.0,72.0,26.9,10.0,0.0,0.0
3,39.760384,-105.6511,I-70 E,Dumont,Clear Creek,CO,8.0,-2.0,73.0,20.72,10.0,6.0,0.0
2,38.854469,-104.76545,Palmer Park Blvd,Colorado Springs,El Paso,CO,73.0,73.0,31.0,24.02,10.0,5.0,0.0
2,39.624103999999996,-104.89463799999999,E Belleview Ave,Englewood,Arapahoe,CO,60.0,60.0,32.0,24.16,10.0,3.0,0.0
2,33.479675,-112.26433600000001,AZ-101 Loop S,Phoenix,Maricopa,AZ,53.0,53.0,54.0,28.86,10.0,7.0,0.0
2,32.257688,-110.927333, E Glenn St,Tucson,Pima,AZ,47.0,42.0,45.0,27.22,10.0,10.0,0.0
3,39.239779999999996,-104.87749,I-25 S,Larkspur,Douglas,CO,43.0,39.0,53.0,23.12,10.0,7.0,0.0
2,33.670868,-111.99983999999999,AZ-101 Loop E,Phoenix,Maricopa,AZ,111.0,111.0,15.0,28.13,10.0,10.0,0.0
2,38.523398,-112.265413, S Highway 89,Sevier,Sevier,UT,41.0,36.0,47.0,25.19,10.0,8.0,0.0
2,40.72576,-112.00129,UT-201 W,West Valley City,Salt Lake,UT,49.0,49.0,56.0,25.9,10.0,0.0,0.0
2,40.29723,-111.723373,N 1200 W,Orem,Utah,UT,56.0,56.0,69.0,25.6,10.0,0.0,0.0
2,46.935081,-112.12716999999999,I-15 N,Wolf Creek,Lewis and Clark,MT,32.0,26.0,69.0,25.76,10.0,6.0,0.0
2,32.191803,-110.78948999999999,E Golf Links Rd,Tucson,Pima,AZ,50.0,50.0,94.0,27.28,10.0,6.0,0.0
3,39.666431,-104.83114599999999,I-225 S,Aurora,Arapahoe,CO,35.0,31.0,61.0,24.29,10.0,5.0,0.0
2,32.182758,-110.957422, E Benson Hwy,Tucson,Pima,AZ,84.0,84.0,12.0,27.39,10.0,21.0,0.0
2,35.134871999999994,-111.68500700000001,Arizona Veterans Highway,Flagstaff,Coconino,AZ,17.0,17.0,81.0,23.25,10.0,0.0,0.0
1,33.50946,-112.13418999999999, W Camelback Rd,Phoenix,Maricopa,AZ,55.0,55.0,47.0,28.84,10.0,7.0,0.0
2,39.767990000000005,-104.846962,E 37th Ave,Denver,Denver,CO,60.0,60.0,65.0,24.44,10.0,10.0,0.0
3,39.71162,-104.99943999999999,I-25 S,Denver,Denver,CO,23.0,12.0,85.0,24.18,1.0,10.0,0.0
2,43.59912,-116.49356,I-84 E,Nampa,Canyon,ID,39.0,35.0,45.0,27.63,10.0,6.0,0.0
2,45.855548999999996,-108.364173,I-94 W,Huntley,Yellowstone,MT,6.0,-12.0,69.0,26.61,10.0,16.0,0.0
2,33.445717,-111.856796,N Alma School Rd,Mesa,Maricopa,AZ,86.0,86.0,8.0,28.83,10.0,6.0,0.0
2,45.662838,-108.769122,I-90 W,Laurel,Yellowstone,MT,21.0,9.0,92.0,26.22,1.0,13.0,0.02
1,33.55314,-112.14291999999999, N 39th Ave,Phoenix,Maricopa,AZ,89.0,89.0,16.0,28.28,10.0,7.0,0.0
2,43.598653000000006,-116.52253700000001,I-84 E,Nampa,Canyon,ID,27.0,18.0,100.0,27.73,10.0,8.0,0.0
3,39.88472,-104.98766,I-25 S,Denver,Adams,CO,73.0,73.0,8.0,24.07,10.0,14.0,0.0
2,32.264494,-110.909843, N Alvernon Way,Tucson,Pima,AZ,43.0,38.0,28.0,27.24,10.0,8.0,0.0
3,40.085682,-111.701897,I-15 S,Spanish Fork,Utah,UT,78.0,78.0,39.0,25.56,10.0,8.0,0.0
1,32.36626,-110.96951999999999,Hardy Rd,Tucson,Pima,AZ,98.0,98.0,6.0,27.12,10.0,6.0,0.0
2,40.675076000000004,-111.84187, Highland Dr,Salt Lake City,Salt Lake,UT,34.0,27.0,54.0,25.75,10.0,8.0,0.0
2,33.668873,-112.077919,AZ-101 Loop W,Phoenix,Maricopa,AZ,109.0,109.0,13.0,28.24,10.0,3.0,0.0
2,32.206882,-110.89448300000001, E 22nd St,Tucson,Pima,AZ,76.0,76.0,18.0,27.23,10.0,3.0,0.0
2,39.34045,-119.87278,Old Mt Rose Hwy,Reno,Washoe,NV,47.0,40.0,56.0,25.45,10.0,17.0,0.0
2,41.912959,-112.171171,I-15 N,Portage,Box Elder,UT,23.0,23.0,92.0,25.48,1.0,3.0,0.0
2,33.392231,-112.073318,E Southern Ave,Phoenix,Maricopa,AZ,76.0,76.0,23.0,28.64,10.0,10.0,0.0
2,32.279047,-110.96106200000001, N 1st Ave,Tucson,Pima,AZ,45.0,42.0,23.0,27.4,10.0,5.0,0.0
2,35.07652,-110.86698600000001,I-40 E,Flagstaff,Coconino,AZ,30.0,30.0,51.0,23.21,10.0,0.0,0.0
1,39.75842,-104.90345, N Quebec St,Denver,Denver,CO,44.0,41.0,38.0,24.39,10.0,5.0,0.0
3,32.241821,-107.249275,I-10 W,Las Cruces,Doña Ana,NM,82.0,82.0,38.0,25.8,10.0,7.0,0.0
2,32.221672999999996,-110.913909, E Broadway Blvd,Tucson,Pima,AZ,97.0,97.0,11.0,27.13,10.0,12.0,0.0
3,39.619095,-104.899025,I-25 S,Englewood,Arapahoe,CO,66.0,66.0,48.0,24.22,10.0,0.0,0.0
2,32.163166,-110.91763300000001,E Irvington Rd,Tucson,Pima,AZ,79.0,79.0,8.0,27.14,10.0,3.0,0.0
2,39.465378,-119.786827,Martin Luther King Jr Memorial Fwy,Reno,Washoe,NV,89.0,89.0,8.0,25.41,10.0,9.0,0.0
2,33.638107,-111.92539199999999,E Frank Lloyd Wright Blvd,Scottsdale,Maricopa,AZ,62.0,62.0,28.0,28.58,10.0,5.0,0.0
3,39.871239,-104.98769399999999,I-25 S,Denver,Adams,CO,45.0,34.0,29.0,24.49,10.0,37.0,0.0
1,33.49483,-112.20323, N 67th Ave,Phoenix,Maricopa,AZ,101.0,101.0,5.0,28.7,10.0,6.0,0.0
2,35.17794,-106.622482,2nd St NW,Albuquerque,Bernalillo,NM,81.0,81.0,17.0,24.41,10.0,6.0,0.0
2,40.028912,-111.505348,US-6 E,Spanish Fork,Utah,UT,23.0,23.0,81.0,25.63,10.0,3.0,0.0
2,33.495022,-112.168945,W Indian School Rd,Phoenix,Maricopa,AZ,49.0,42.0,13.0,29.19,10.0,18.0,0.0
4,40.78475,-111.93938, N Redwood Rd,Salt Lake City,Salt Lake,UT,57.0,57.0,41.0,25.7,10.0,8.0,0.0
2,40.53999,-111.89391699999999,I-15 S,Draper,Salt Lake,UT,60.0,60.0,35.0,25.97,10.0,7.0,0.0
2,33.461436,-112.077271,Hance Deck Park Tunnel,Phoenix,Maricopa,AZ,77.0,77.0,15.0,28.73,10.0,3.0,0.0
3,40.644928,-111.93840800000001,I-215 W,Salt Lake City,Salt Lake,UT,34.0,29.0,79.0,25.57,10.0,6.0,0.0
2,33.602669,-112.28993999999999,Grand Ave,Sun City,Maricopa,AZ,74.0,74.0,18.0,28.81,10.0,0.0,0.0
2,39.768051,-105.01741000000001,N Alcott St,Denver,Denver,CO,23.0,16.0,80.0,24.4,10.0,6.0,0.0
2,32.250611,-110.91028, E Grant Rd,Tucson,Pima,AZ,61.0,61.0,20.0,27.36,10.0,7.0,0.0
3,39.701435,-104.986351,S Lincoln St,Denver,Denver,CO,51.0,51.0,17.0,24.18,10.0,12.0,0.0
1,33.4643,-112.35799999999999, W McDowell Rd,Goodyear,Maricopa,AZ,97.0,97.0,13.0,28.54,10.0,6.0,0.0
3,38.30577,-104.66354, N Pueblo Blvd,Pueblo,Pueblo,CO,91.0,91.0,6.0,24.94,10.0,26.0,0.0
2,33.107439,-112.025774,AZ-347,Maricopa,Pinal,AZ,83.0,83.0,11.0,28.36,8.0,8.0,0.0
2,39.725555,-105.01338999999999,W 6th Avenue Fwy E,Denver,Denver,CO,70.0,70.0,49.0,24.7,10.0,0.0,0.0
2,33.40728,-111.99536100000002,S 40th St,Phoenix,Maricopa,AZ,75.0,75.0,26.0,28.81,10.0,12.0,0.0
2,43.618766,-116.21445800000001, S 16th St,Boise,Ada,ID,26.0,26.0,75.0,27.23,10.0,3.0,0.0
3,37.133438,-104.52198800000001,County Road 69.1,Trinidad,Las Animas,CO,56.0,56.0,77.0,24.45,10.0,8.0,0.0
2,45.689531,-111.046304, W Juniper St,Bozeman,Gallatin,MT,33.0,23.0,61.0,25.29,10.0,15.0,0.0
2,33.45015,-112.470169,W Van Buren St,Buckeye,Maricopa,AZ,36.0,31.0,87.0,28.96,10.0,6.0,0.0
2,32.22094,-110.80684699999999,Camino Seco,Tucson,Pima,AZ,87.0,87.0,12.0,27.28,10.0,18.0,0.0
2,32.273663,-110.875252,E River Rd,Tucson,Pima,AZ,80.0,80.0,21.0,27.25,10.0,10.0,0.0
3,40.620064,-111.90416699999999,I-15 N,Midvale,Salt Lake,UT,27.0,17.0,75.0,25.82,8.0,10.0,0.0
3,37.361126,-113.262184,I-15 N,Hurricane,Washington,UT,93.0,93.0,11.0,26.92,10.0,9.0,0.0
2,33.386555,-111.667301,Superstition Fwy E,Mesa,Maricopa,AZ,63.0,63.0,18.0,28.62,10.0,7.0,0.0
4,33.462429,-112.220177,I-10 E,Phoenix,Maricopa,AZ,81.0,81.0,15.0,28.7,8.0,0.0,0.0
2,39.682091,-105.12016299999999,W Jewell Ave,Denver,Jefferson,CO,29.0,22.0,47.0,24.35,10.0,7.0,0.0
1,33.494279999999996,-112.23771, W Indian School Rd,Phoenix,Maricopa,AZ,63.0,63.0,44.0,28.82,10.0,8.0,0.0
2,33.436203000000006,-111.91246799999999,AZ-202 Loop W,Tempe,Maricopa,AZ,62.0,62.0,24.0,29.08,10.0,3.0,0.0
3,39.471691,-104.8722,I-25 N,Parker,Douglas,CO,71.0,71.0,41.0,24.3,10.0,10.0,0.0
2,40.699870000000004,-111.87133,E 3300 S,Salt Lake City,Salt Lake,UT,69.0,69.0,24.0,25.82,10.0,0.0,0.0
2,32.163189,-110.90911499999999,E Irvington Rd,Tucson,Pima,AZ,75.0,75.0,31.0,27.1,10.0,6.0,0.0
3,40.92215,-111.89099099999999,I-15 S,Centerville,Davis,UT,70.0,70.0,26.0,25.69,10.0,7.0,0.0
2,33.385597,-111.92591100000001,Superstition Fwy W,Tempe,Maricopa,AZ,59.0,59.0,36.0,28.67,10.0,6.0,0.0
2,33.292171,-112.032578,South Mountain Fwy,Phoenix,Maricopa,AZ,90.0,90.0,12.0,28.73,10.0,6.0,0.0
3,35.19212,-111.62168100000001,I-40 W,Flagstaff,Coconino,AZ,40.0,31.0,70.0,23.13,10.0,17.0,0.0
2,33.531059,-112.20311000000001,N 67th Ave,Glendale,Maricopa,AZ,74.0,74.0,32.0,28.73,10.0,5.0,0.0
2,33.501668,-111.986828, N 44th St,Phoenix,Maricopa,AZ,65.0,65.0,13.0,28.59,10.0,12.0,0.0
1,39.766529999999996,-104.99481999999999, Park Ave W,Denver,Denver,CO,23.0,16.0,80.0,24.44,2.0,6.0,0.0
2,32.182052,-110.942397, E Hidalgo Vista,Tucson,Pima,AZ,46.0,42.0,37.0,27.35,10.0,8.0,0.0
1,39.62427,-105.1101,W Belleview Ave,Littleton,Jefferson,CO,69.0,69.0,51.0,24.28,10.0,3.0,0.0
2,40.835677000000004,-111.915632,I-15 S,North Salt Lake,Davis,UT,24.0,17.0,81.0,25.62,8.0,6.0,0.0
3,39.55088,-104.86981999999999,I-25 S,Englewood,Douglas,CO,39.0,39.0,89.0,24.19,8.0,3.0,0.0
2,33.494846,-112.0438,Piestewa Fwy N,Phoenix,Maricopa,AZ,63.0,63.0,22.0,28.89,10.0,7.0,0.0
2,40.71826,-111.87391000000001, S 600 E,Salt Lake City,Salt Lake,UT,84.0,84.0,17.0,25.77,10.0,8.0,0.0
1,32.25062,-110.8754,E Grant Rd,Tucson,Pima,AZ,79.0,79.0,13.0,27.1,10.0,9.0,0.0
2,32.163231,-110.977531,S 12th Ave,Tucson,Pima,AZ,87.0,87.0,3.0,27.21,10.0,0.0,0.0
1,32.20641,-110.8411, S Kolb Rd,Tucson,Pima,AZ,80.0,80.0,14.0,26.97,10.0,14.0,0.0
2,39.465378,-119.786827,Martin Luther King Jr Memorial Fwy,Reno,Washoe,NV,31.0,31.0,89.0,25.35,2.0,0.0,0.01
2,32.366341,-111.04686000000001,N Thornydale Rd,Tucson,Pima,AZ,88.0,88.0,8.0,27.09,10.0,18.0,0.0
2,39.528154,-119.71438,Interstate 80 E,Sparks,Washoe,NV,51.0,51.0,52.0,25.8,5.0,0.0,0.0
2,32.250611,-110.900168, N Orchard Ave,Tucson,Pima,AZ,80.0,80.0,23.0,27.11,10.0,7.0,0.0
1,33.64066,-111.9775, N Tatum Blvd,Phoenix,Maricopa,AZ,81.0,81.0,7.0,28.17,10.0,8.0,0.0
2,33.626331,-112.00466899999999,E Greenway Rd,Phoenix,Maricopa,AZ,53.0,53.0,69.0,28.3,10.0,0.0,0.0
2,40.39114,-111.937569,UT-85,Cedar Valley,Utah,UT,55.0,55.0,37.0,25.83,10.0,7.0,0.0
2,33.480314,-111.977244, N 48th Pl,Phoenix,Maricopa,AZ,63.0,63.0,50.0,28.81,10.0,0.0,0.0
2,40.667568,-112.024689,W 4700 S,Salt Lake City,Salt Lake,UT,57.0,57.0,32.0,25.57,10.0,17.0,0.0
2,33.46229,-112.13443000000001, N 35th Ave,Phoenix,Maricopa,AZ,108.0,108.0,7.0,28.45,10.0,12.0,0.0
2,48.374356,-114.210773, Best Way,Columbia Falls,Flathead,MT,25.0,25.0,85.0,27.08,10.0,0.0,0.0
3,40.306267,-104.98061399999999,E County Highway 8,Johnstown,Weld,CO,88.0,88.0,20.0,25.07,10.0,7.0,0.0
2,41.170284,-112.005459,I-84 W,Ogden,Weber,UT,23.0,23.0,72.0,25.57,10.0,3.0,0.0
2,40.6967,-111.93893, W 3500 S,West Valley City,Salt Lake,UT,33.0,33.0,96.0,25.88,5.0,3.0,0.01
2,35.483855,-106.70330600000001, US Highway 550,San Ysidro,Sandoval,NM,54.0,54.0,20.0,24.26,10.0,0.0,0.0
2,33.607911,-112.30779799999999, W Grand Ave,El Mirage,Maricopa,AZ,50.0,44.0,13.0,29.21,10.0,17.0,0.0
2,35.568649,-105.22008500000001,S Grand Ave,Las Vegas,San Miguel,NM,28.0,17.0,96.0,23.42,0.25,14.0,0.0
2,32.177859999999995,-111.00378400000001,W Ajo Way,Tucson,Pima,AZ,72.0,72.0,18.0,27.18,10.0,8.0,0.0
2,40.806020000000004,-111.92282,I-15 N,Salt Lake City,Salt Lake,UT,79.0,79.0,20.0,25.75,10.0,0.0,0.0
1,33.567029999999995,-111.90268,N Hayden Rd,Scottsdale,Maricopa,AZ,82.0,82.0,11.0,28.21,10.0,6.0,0.0
2,38.808445,-104.822311,E Saint Elmo Ave,Colorado Springs,El Paso,CO,66.0,66.0,9.0,23.69,10.0,16.0,0.0
2,45.655708000000004,-110.849377,I-90 E,Bozeman,Gallatin,MT,39.0,39.0,65.0,25.46,10.0,3.0,0.0
2,43.60784,-116.59474499999999,I-84 E,Nampa,Canyon,ID,34.0,30.0,100.0,27.36,10.0,5.0,0.0
3,38.15344,-104.10464, US Highway 50,Fowler,Pueblo,CO,53.0,53.0,34.0,25.52,10.0,18.0,0.0
2,43.629417,-116.354551, N Eagle Rd,Meridian,Ada,ID,34.0,30.0,100.0,27.72,10.0,5.0,0.0
1,32.239470000000004,-110.9725, W Drachman St,Tucson,Pima,AZ,95.0,95.0,8.0,27.08,10.0,15.0,0.0
2,33.571628999999994,-112.117287,Black Canyon Fwy S,Phoenix,Maricopa,AZ,63.0,63.0,27.0,28.44,10.0,9.0,0.0
2,33.42276,-111.75367,E University Dr,Mesa,Maricopa,AZ,59.0,59.0,75.0,28.51,9.0,17.0,0.02
2,33.672896,-112.01733,AZ-101 Loop W,Phoenix,Maricopa,AZ,82.0,82.0,14.0,28.14,10.0,0.0,0.0
2,32.123589,-110.938271,S Tucson Blvd,Tucson,Pima,AZ,68.0,68.0,13.0,27.38,10.0,13.0,0.0
1,32.2431,-110.87555, N Craycroft Rd,Tucson,Pima,AZ,69.0,69.0,27.0,27.29,10.0,5.0,0.0
2,33.537109,-112.269875,AZ-101 Loop S,Glendale,Maricopa,AZ,42.0,38.0,69.0,28.85,10.0,6.0,0.0
2,33.38653,-111.6993,Superstition Fwy E,Mesa,Maricopa,AZ,69.0,69.0,44.0,28.79,10.0,5.0,0.0
2,33.617934999999996,-112.32378999999999,W Grand Ave,El Mirage,Maricopa,AZ,62.0,62.0,43.0,28.84,10.0,0.0,0.0
2,39.59505,-104.848,E Arapahoe Rd,Englewood,Arapahoe,CO,70.0,70.0,12.0,24.09,10.0,12.0,0.0
1,32.250479999999996,-110.99541, W Grant Rd,Tucson,Pima,AZ,68.0,68.0,28.0,27.24,10.0,5.0,0.0
2,39.35322,-110.932,UT-10,Elmo,Emery,UT,67.0,67.0,26.0,24.15,10.0,7.0,0.0
4,39.62786,-106.42048,I-70 E,Vail,Eagle,CO,16.0,-2.0,71.0,20.55,0.75,22.0,0.02
1,32.13406,-110.9346,S Tucson Blvd,Tucson,Pima,AZ,101.0,101.0,12.0,27.07,10.0,12.0,0.0
2,47.564772999999995,-114.198734, Back Rd,Ronan,Lake,MT,27.0,27.0,100.0,26.55,1.0,3.0,0.04
3,39.53688,-105.30305, US Highway 285,Conifer,Jefferson,CO,18.0,10.0,84.0,23.94,0.75,6.0,0.01
2,34.30615,-110.95059499999999,E AZ Highway 260,Payson,Gila,AZ,50.0,50.0,37.0,24.81,10.0,12.0,0.0
2,32.163269,-110.98861699999999,W Irvington Rd,Tucson,Pima,AZ,88.0,88.0,20.0,27.13,10.0,6.0,0.0
3,39.65208,-104.9174,US-87 N,Denver,Denver,CO,33.0,21.0,92.0,23.94,0.25,21.0,0.05
2,43.375956,-112.19598899999998,I-15 S,Shelley,Bingham,ID,28.0,22.0,66.0,25.42,10.0,6.0,0.0
2,40.483677,-111.899147,I-15 N,Draper,Salt Lake,UT,29.0,29.0,51.0,25.9,10.0,0.0,0.0
3,35.097694,-106.568977,Louisiana Blvd NE,Albuquerque,Bernalillo,NM,91.0,91.0,22.0,24.62,10.0,8.0,0.0
2,39.476936,-119.77428400000001,Airway Dr,Reno,Washoe,NV,50.0,50.0,46.0,25.5,10.0,5.0,0.0
3,38.24644,-104.61187,I-25 N,Pueblo,Pueblo,CO,58.0,58.0,19.0,25.08,10.0,17.0,0.0
2,33.670840999999996,-112.37171200000002,N Stardust Blvd,Sun City West,Maricopa,AZ,48.0,44.0,36.0,28.94,10.0,8.0,0.0
2,34.991058,-109.967211,I-40 W,Holbrook,Navajo,AZ,47.0,44.0,29.0,25.09,10.0,7.0,0.0
2,32.373562,-111.01281000000002,W Overton Rd,Tucson,Pima,AZ,53.0,53.0,26.0,27.24,10.0,5.0,0.0
2,39.180382,-119.723846,US Highway 50 E,Carson City,Carson City,NV,57.0,57.0,14.0,25.39,10.0,9.0,0.0
2,33.39222,-112.08197,S 7th Ave,Phoenix,Maricopa,AZ,55.0,55.0,57.0,28.76,10.0,6.0,0.0
3,39.775104999999996,-104.857697,I-70 W,Denver,Denver,CO,37.0,30.0,100.0,24.05,3.0,10.0,0.0
1,35.13477,-106.70177, Western Trl NW,Albuquerque,Bernalillo,NM,55.0,55.0,72.0,24.54,10.0,3.0,0.0
2,32.11763,-110.96069299999999,S Nogales Hwy,Tucson,Pima,AZ,75.0,75.0,16.0,27.06,10.0,14.0,0.0
3,39.848122,-104.98530600000001,I-25 N,Denver,Adams,CO,63.0,63.0,26.0,24.34,40.0,9.0,0.0
2,39.84498,-104.9846,I-25 N,Denver,Adams,CO,54.0,54.0,41.0,24.44,40.0,6.0,0.0
2,39.744228,-104.993378,15th St,Denver,Denver,CO,46.0,42.0,25.0,24.37,50.0,9.0,0.0
4,33.47999,-112.23778999999999,N 83rd Ave,Phoenix,Maricopa,AZ,85.0,85.0,18.0,28.6,10.0,16.0,0.0
2,32.206902,-111.011803,S La Cholla Blvd,Tucson,Pima,AZ,40.0,35.0,77.0,27.34,10.0,7.0,0.0
1,32.1633,-110.94341999999999, E Irvington Rd,Tucson,Pima,AZ,94.0,94.0,7.0,27.13,10.0,6.0,0.0
3,33.461315,-112.08236699999999,I-10 W,Phoenix,Maricopa,AZ,97.0,97.0,10.0,28.69,10.0,9.0,0.0
2,40.66413,-111.93886, S Redwood Rd,Salt Lake City,Salt Lake,UT,64.0,64.0,18.0,25.82,10.0,7.0,0.0
2,33.393209000000006,-112.116345, S 27th Ave,Phoenix,Maricopa,AZ,74.0,74.0,25.0,28.63,10.0,5.0,0.0
2,32.139561,-110.97768799999999, S 12th Ave,Tucson,Pima,AZ,61.0,61.0,36.0,27.27,10.0,6.0,0.0
2,39.585651,-104.796806,E Fremont Ave,Aurora,Arapahoe,CO,17.0,4.0,84.0,24.19,0.75,12.0,0.0
1,33.553129999999996,-112.1342, W Northern Ave,Phoenix,Maricopa,AZ,97.0,97.0,10.0,28.13,10.0,5.0,0.0
2,40.71752,-111.95338000000001,I-215 N,West Valley City,Salt Lake,UT,35.0,27.0,48.0,25.66,10.0,10.0,0.0
2,39.957809000000005,-104.83242800000001,E 144th Ave,Brighton,Adams,CO,94.0,94.0,9.0,24.51,10.0,7.0,0.0
3,39.848122,-104.98530600000001,I-25 N,Denver,Adams,CO,59.0,59.0,72.0,24.56,10.0,5.0,0.0
2,38.933231,-104.775215,N Union Blvd,Colorado Springs,El Paso,CO,59.0,59.0,92.0,23.68,10.0,3.0,0.0
2,39.224059999999994,-104.700523,Gillian Rd,Franktown,Douglas,CO,43.0,43.0,46.0,23.52,10.0,0.0,0.0
2,37.146577,-112.568777,US-89 N,Orderville,Kane,UT,37.0,29.0,70.0,24.94,10.0,14.0,0.0
3,40.726259999999996,-111.9739,UT-201 E,West Valley City,Salt Lake,UT,59.0,59.0,51.0,25.76,10.0,3.0,0.0
1,35.16095,-106.5933, Jefferson St NE,Albuquerque,Bernalillo,NM,55.0,55.0,23.0,24.85,10.0,30.0,0.0
2,42.67713,-114.50679,I-84 W,Jerome,Jerome,ID,57.0,57.0,51.0,25.99,10.0,13.0,0.0
2,43.778746999999996,-111.829994,Yellowstone Hwy N,Rexburg,Madison,ID,26.0,19.0,92.0,25.22,2.0,6.0,0.0
2,43.614568,-116.35448600000001, N Eagle Rd,Meridian,Ada,ID,34.0,27.0,81.0,27.58,9.0,8.0,0.0
2,33.58188,-112.13403000000001,N 35th Ave,Phoenix,Maricopa,AZ,105.0,105.0,7.0,28.15,10.0,12.0,0.0
3,33.700699,-112.114815,Black Canyon Fwy N,Phoenix,Maricopa,AZ,107.0,107.0,9.0,28.18,10.0,8.0,0.0
4,39.680888,-105.89431599999999, US Highway 6,Silver Plume,Clear Creek,CO,19.0,7.0,63.0,20.73,10.0,13.0,0.0
2,39.841827,-105.081848,W 80th Ave,Arvada,Jefferson,CO,46.0,44.0,34.0,24.37,10.0,5.0,0.0
2,33.495552,-111.887825,AZ-101 Loop N,Scottsdale,Maricopa,AZ,57.0,57.0,21.0,28.8,10.0,0.0,0.0
2,32.20694,-110.91803,S Randolph Way,Tucson,Pima,AZ,92.0,92.0,21.0,27.11,10.0,3.0,0.0
2,40.764416,-111.971572,I-80 E,Salt Lake City,Salt Lake,UT,33.0,26.0,75.0,25.72,10.0,8.0,0.0
3,40.834911,-111.93656899999999,S Redwood Rd,North Salt Lake,Davis,UT,31.0,24.0,72.0,25.91,10.0,7.0,0.0
1,40.42752,-111.88668999999999,I-15 S,Lehi,Utah,UT,88.0,88.0,19.0,25.45,10.0,10.0,0.0
2,39.65997,-104.99873999999998,S Santa Fe Dr,Englewood,Arapahoe,CO,82.0,82.0,26.0,24.14,10.0,6.0,0.0
2,47.224104,-111.773513,I-15 S,Cascade,Cascade,MT,39.0,30.0,57.0,25.59,10.0,17.0,0.0
2,33.638729,-112.355103,W Bell Rd,Surprise,Maricopa,AZ,59.0,59.0,31.0,28.99,10.0,0.0,0.0
2,43.595147,-116.455749,I-84 W,Meridian,Ada,ID,45.0,45.0,57.0,27.57,10.0,0.0,0.0
2,33.427394,-112.04274699999999,I-17 N,Phoenix,Maricopa,AZ,83.0,83.0,19.0,28.56,10.0,0.0,0.0
2,33.538502,-112.17733, N 55th Ave,Glendale,Maricopa,AZ,104.0,104.0,9.0,28.68,10.0,0.0,0.0
2,39.211690000000004,-111.01963, S Center St,Castle Dale,Emery,UT,36.0,25.0,52.0,24.22,10.0,21.0,0.0
2,40.832265,-111.65279699999999,Emigration Cyn,Morgan,Morgan,UT,73.0,73.0,18.0,24.97,10.0,0.0,0.0
2,39.530384999999995,-119.73199699999999,I-80 E,Sparks,Washoe,NV,40.0,40.0,51.0,25.86,10.0,0.0,0.0
2,39.478676,-104.75811800000001,E Stroh Rd,Parker,Douglas,CO,23.0,16.0,74.0,24.14,10.0,6.0,0.0
2,40.64983,-111.90207,I-15 N,Salt Lake City,Salt Lake,UT,53.0,53.0,40.0,25.64,10.0,18.0,0.0
2,40.558921999999995,-111.90273300000001,W South Jordan Pkwy,South Jordan,Salt Lake,UT,34.0,34.0,56.0,25.76,10.0,3.0,0.0
1,33.38609,-112.0302, S 24th St,Phoenix,Maricopa,AZ,61.0,61.0,25.0,28.79,10.0,15.0,0.0
2,41.08838,-111.91072, N Highway 89,Layton,Davis,UT,90.0,90.0,15.0,25.2,10.0,0.0,0.0
3,40.074409,-104.64664499999999,I-76 E,Hudson,Weld,CO,58.0,58.0,25.0,24.65,10.0,5.0,0.0
2,40.76263,-111.95401000000001,Delong St,Salt Lake City,Salt Lake,UT,12.0,4.0,84.0,25.79,10.0,5.0,0.0
2,40.376896,-111.818634,I-15 N,American Fork,Utah,UT,36.0,30.0,93.0,25.57,10.0,7.0,0.0
2,40.68231,-112.42918999999999,I-80 W,Grantsville,Tooele,UT,63.0,63.0,56.0,25.18,10.0,21.0,0.0
2,40.30171,-111.72601,I-15 S,Orem,Utah,UT,94.0,94.0,11.0,25.4,10.0,16.0,0.0
4,33.303145,-110.477002,US-70 E,Peridot,Gila,AZ,60.0,60.0,33.0,26.82,10.0,6.0,0.0
1,33.56566,-112.28983999999998, N 107th Ave,Peoria,Maricopa,AZ,89.0,89.0,17.0,28.64,10.0,10.0,0.0
3,33.439606,-112.037292,I-10 W,Phoenix,Maricopa,AZ,59.0,59.0,75.0,28.49,10.0,5.0,0.01
1,32.13387,-111.02882,W Valencia Rd,Tucson,Pima,AZ,65.0,65.0,42.0,27.22,10.0,0.0,0.0
2,40.587749,-111.910202,W 9000 S,Sandy,Salt Lake,UT,49.0,47.0,54.0,25.75,10.0,6.0,0.0
2,32.192226,-110.87513700000001,E Golf Links Rd,Tucson,Pima,AZ,76.0,76.0,37.0,27.17,10.0,7.0,0.0
3,39.534786,-119.8153,I-80 W,Reno,Washoe,NV,42.0,42.0,55.0,25.8,10.0,3.0,0.0
2,35.934895000000004,-114.63786,US-93 S,Willow Beach,Mohave,AZ,81.0,81.0,9.0,27.93,10.0,7.0,0.0
2,32.250293,-110.96096599999998,N 1st Ave,Tucson,Pima,AZ,56.0,56.0,24.0,27.21,10.0,8.0,0.0
1,32.2069,-110.95621000000001, S Park Ave,Tucson,Pima,AZ,94.0,94.0,7.0,27.06,10.0,14.0,0.0
2,33.385597,-111.939201,Superstition Fwy W,Tempe,Maricopa,AZ,97.0,97.0,10.0,28.65,10.0,7.0,0.0
2,40.38747,-111.91635, W Crossroads Blvd,Saratoga Springs,Utah,UT,59.0,59.0,39.0,25.34,10.0,13.0,0.0
2,40.821445000000004,-112.90335800000001,Hill Air Force Base,Dugway,Tooele,UT,41.0,41.0,49.0,25.83,10.0,0.0,0.0
2,32.308902,-110.833624, N Barrasca Ave,Tucson,Pima,AZ,75.0,75.0,20.0,27.18,10.0,5.0,0.0
2,32.136663,-110.98196399999999, W Hatfield St,Tucson,Pima,AZ,45.0,45.0,38.0,27.33,10.0,3.0,0.0
2,43.598365,-116.537306,I-84 W,Nampa,Canyon,ID,57.0,57.0,59.0,27.36,10.0,5.0,0.0
3,41.051025,-111.625092,E Rees Ln,Morgan,Morgan,UT,55.0,55.0,37.0,25.0,10.0,21.0,0.0
2,40.43072,-111.89076000000001,I-15 S,Lehi,Utah,UT,33.0,22.0,92.0,25.52,10.0,20.0,0.0
2,38.797531,-104.742828,S Chelton Rd,Colorado Springs,El Paso,CO,25.0,15.0,75.0,23.92,10.0,10.0,0.0
2,39.689547999999995,-105.053261,W Florida Ave,Lakewood,Jefferson,CO,27.0,27.0,81.0,24.26,10.0,0.0,0.0
3,41.976890999999995,-112.188957,W 25800 N,Portage,Box Elder,UT,34.0,25.0,92.0,25.31,4.0,13.0,0.01
2,33.248692,-111.63778700000002,S Ellsworth Loop Rd,Queen Creek,Maricopa,AZ,37.0,32.0,75.0,28.61,10.0,7.0,0.0
2,48.050331,-114.00702, Fernview Ln,Bigfork,Lake,MT,30.0,25.0,92.0,26.75,10.0,5.0,0.0
1,33.42403,-112.03035,E University Dr,Phoenix,Maricopa,AZ,74.0,74.0,23.0,28.85,10.0,0.0,0.0
2,40.6333,-111.88942, S State St,Salt Lake City,Salt Lake,UT,93.0,93.0,16.0,25.72,10.0,0.0,0.0
2,33.640125,-111.87844799999999,N 94th St,Scottsdale,Maricopa,AZ,48.0,48.0,56.0,28.39,10.0,3.0,0.0
2,38.878051,-104.83524399999999,I-25 N,Colorado Springs,El Paso,CO,33.0,27.0,76.0,23.57,10.0,7.0,0.0
2,33.582316999999996,-112.010246,E Shea Blvd,Phoenix,Maricopa,AZ,60.0,60.0,93.0,28.41,8.0,0.0,0.01
2,33.671959,-112.031448,AZ-101 Loop E,Phoenix,Maricopa,AZ,43.0,43.0,49.0,28.39,10.0,0.0,0.0
2,40.414333,-111.87008700000001,I-15 N,Lehi,Utah,UT,71.0,71.0,25.0,25.71,10.0,7.0,0.0
3,40.587475,-111.90068799999999,I-15 S,Sandy,Salt Lake,UT,82.0,82.0,15.0,25.54,10.0,28.0,0.0
3,39.471691,-104.8722,I-25 N,Parker,Douglas,CO,27.0,17.0,89.0,24.31,0.75,10.0,0.0
3,40.391415,-111.835228,I-15 N,Lehi,Utah,UT,44.0,40.0,51.0,25.68,10.0,8.0,0.0
2,43.648391,-116.354409,E McMillan Rd,Boise,Ada,ID,37.0,30.0,46.0,27.52,10.0,9.0,0.0
2,33.581173,-112.25952099999999,AZ-101 Loop N,Peoria,Maricopa,AZ,65.0,65.0,57.0,28.85,10.0,6.0,0.0
2,33.45734,-112.69748700000001,300th Ave,Buckeye,Maricopa,AZ,108.0,108.0,4.0,28.67,10.0,7.0,0.0
2,46.591072,-112.02031000000001, Prospect Ave,Helena,Lewis and Clark,MT,59.0,59.0,46.0,25.82,10.0,20.0,0.0
2,41.139866,-112.065836, W 1800 N,Clearfield,Davis,UT,37.0,37.0,61.0,25.45,10.0,0.0,0.0
2,32.834283,-112.129694,I-8 E,Maricopa,Pinal,AZ,73.0,73.0,17.0,28.41,10.0,8.0,0.0
3,40.504002,-111.891144,I-15 N,Draper,Salt Lake,UT,26.0,21.0,92.0,25.76,7.0,5.0,0.0
1,33.435559999999995,-112.5562,W Yuma Rd,Buckeye,Maricopa,AZ,95.0,95.0,12.0,28.78,10.0,0.0,0.0
2,32.898033,-109.26983700000001,Coronado Blvd,Duncan,Greenlee,AZ,37.0,37.0,36.0,26.78,10.0,3.0,0.0
2,45.662838,-108.769122,I-90 W,Laurel,Yellowstone,MT,22.0,14.0,92.0,26.5,3.0,6.0,0.01
2,33.436008,-111.92669699999999,AZ-202 Loop E,Tempe,Maricopa,AZ,86.0,86.0,13.0,28.6,10.0,7.0,0.0
2,39.549741999999995,-104.86968999999999,I-25 S,Englewood,Douglas,CO,27.0,19.0,49.0,24.1,10.0,8.0,0.0
2,33.509471999999995,-112.11698899999999,N 27th Ave,Phoenix,Maricopa,AZ,89.0,89.0,22.0,28.54,10.0,0.0,0.0
3,33.462685,-112.220184,I-10 W,Phoenix,Maricopa,AZ,47.0,43.0,49.0,28.79,10.0,8.0,0.0
3,33.523342,-112.112381,Black Canyon Fwy N,Phoenix,Maricopa,AZ,54.0,54.0,83.0,28.9,10.0,5.0,0.0
2,33.581959000000005,-112.156281,N 45th Dr,Glendale,Maricopa,AZ,69.0,69.0,18.0,29.07,10.0,6.0,0.0
2,39.678471,-104.99761200000002,W Evans Ave,Denver,Denver,CO,20.0,13.0,81.0,24.23,10.0,5.0,0.0
1,32.20637,-110.82383999999999,S Pantano Pkwy,Tucson,Pima,AZ,88.0,88.0,11.0,27.09,10.0,17.0,0.0
4,33.6728,-111.98856,Loop 101 E,Phoenix,Maricopa,AZ,70.0,70.0,20.0,28.21,10.0,9.0,0.0
3,40.883990999999995,-111.896782,I-15 S,Woods Cross,Davis,UT,78.0,78.0,16.0,25.94,10.0,7.0,0.0
1,32.17783,-110.98116,S 16th Ave,Tucson,Pima,AZ,65.0,65.0,15.0,27.21,10.0,6.0,0.0
2,32.206581,-110.839692, E 22nd St,Tucson,Pima,AZ,96.0,96.0,11.0,27.18,10.0,5.0,0.0
1,33.4512,-112.1089, W Van Buren St,Phoenix,Maricopa,AZ,65.0,65.0,32.0,28.63,10.0,10.0,0.0
2,32.26097,-110.98701000000001, W Miracle Mile,Tucson,Pima,AZ,71.0,71.0,15.0,27.13,10.0,9.0,0.0
2,33.537751,-112.04408400000001, E Flynn Ln,Phoenix,Maricopa,AZ,67.0,67.0,33.0,28.8,10.0,3.0,0.0
1,33.48036,-111.9261,E Thomas Rd,Scottsdale,Maricopa,AZ,84.0,84.0,19.0,28.71,10.0,15.0,0.0
2,32.265147999999996,-110.906227,E Fort Lowell Rd,Tucson,Pima,AZ,92.0,92.0,10.0,27.18,10.0,15.0,0.0
2,39.785548999999996,-105.07717099999999,I-70 E,Arvada,Jefferson,CO,19.0,8.0,80.0,24.24,10.0,10.0,0.0
1,32.29562,-110.96234, E River Rd,Tucson,Pima,AZ,73.0,73.0,40.0,27.17,10.0,5.0,0.0
2,43.657425,-116.65603899999999,I-84 E,Caldwell,Canyon,ID,38.0,28.0,89.0,26.93,10.0,21.0,0.04
2,40.726760999999996,-111.96788799999999,S 3200 W,West Valley City,Salt Lake,UT,82.0,82.0,20.0,25.69,10.0,9.0,0.0
3,39.450559999999996,-104.87576000000001,I-25 N,Castle Rock,Douglas,CO,24.0,24.0,84.0,24.19,0.75,3.0,0.01
1,33.45125,-112.1001, N 19th Ave,Phoenix,Maricopa,AZ,96.0,96.0,11.0,28.53,10.0,7.0,0.0
2,41.139881,-112.069992,W 1800 N,Clearfield,Davis,UT,54.0,54.0,43.0,25.36,10.0,21.0,0.0
1,33.67501,-111.89051,N Pima Rd,Scottsdale,Maricopa,AZ,98.0,98.0,12.0,28.05,10.0,7.0,0.0
2,48.471201,-114.358272, Big Mountain Rd,Whitefish,Flathead,MT,34.0,34.0,89.0,26.97,10.0,0.0,0.0
2,39.566390999999996,-119.49169199999999,Interstate 80 E,Sparks,Washoe,NV,72.0,72.0,26.0,25.48,10.0,12.0,0.0
2,39.767720000000004,-105.23531000000001, Washington St,Golden,Jefferson,CO,75.0,75.0,17.0,24.46,10.0,5.0,0.0
2,33.653154,-112.39810200000001,N Villa Bella Dr,Surprise,Maricopa,AZ,48.0,43.0,47.0,29.07,10.0,12.0,0.0
2,40.69662,-111.98093999999999,Bangerter Hwy,West Valley City,Salt Lake,UT,38.0,32.0,68.0,26.11,10.0,8.0,0.0
1,33.46585,-112.1, W McDowell Rd,Phoenix,Maricopa,AZ,80.0,80.0,11.0,28.6,10.0,3.0,0.0
2,46.73209,-112.020569, N Montana Ave,Helena,Lewis and Clark,MT,13.0,2.0,67.0,26.36,10.0,8.0,0.0
2,32.230339,-110.965607,N 4th Ave,Tucson,Pima,AZ,60.0,60.0,30.0,27.19,10.0,9.0,0.0
2,40.699421,-111.916931,W 3300 S,South Salt Lake,Salt Lake,UT,44.0,44.0,60.0,25.69,10.0,3.0,0.0
1,33.43685,-111.65053,E Brown Rd,Mesa,Maricopa,AZ,55.0,55.0,40.0,28.96,10.0,7.0,0.0
2,33.38862,-111.96783899999998,I-10 E,Tempe,Maricopa,AZ,90.0,90.0,16.0,28.64,10.0,0.0,0.0
2,39.50261,-111.15862,UT-31,Huntington,Emery,UT,48.0,42.0,46.0,24.07,10.0,15.0,0.0
2,40.72542,-111.89972,S 300 W,Salt Lake City,Salt Lake,UT,59.0,59.0,41.0,25.68,10.0,12.0,0.0
2,33.509242,-112.18633, N 59th Ave,Phoenix,Maricopa,AZ,83.0,83.0,16.0,28.7,10.0,5.0,0.0
2,35.0784,-106.62738799999998,Lead Ave SE,Albuquerque,Bernalillo,NM,82.0,82.0,33.0,24.84,10.0,6.0,0.0
2,39.711151,-104.987587,W Alameda Ave,Denver,Denver,CO,44.0,35.0,96.0,24.19,10.0,23.0,0.08
2,40.76376,-111.9143,I-15 S,Salt Lake City,Salt Lake,UT,20.0,10.0,74.0,25.84,9.0,8.0,0.0
2,33.386124,-111.82256299999999,S Mesa Dr,Mesa,Maricopa,AZ,74.0,74.0,30.0,28.79,10.0,14.0,0.0
2,33.45142,-112.082573,N 7th Ave,Phoenix,Maricopa,AZ,67.0,67.0,36.0,28.59,10.0,12.0,0.0
3,39.778263,-104.908203,I-70 E,Denver,Denver,CO,77.0,77.0,36.0,24.5,10.0,7.0,0.0
2,39.782270000000004,-104.86576000000001, Havana St,Denver,Denver,CO,36.0,30.0,71.0,24.28,10.0,7.0,0.0
2,40.649342,-111.88858799999998,S State St,Salt Lake City,Salt Lake,UT,52.0,52.0,37.0,25.72,10.0,9.0,0.0
3,39.750507,-105.016624,Children's Museum Dr,Denver,Denver,CO,39.0,39.0,75.0,24.66,10.0,0.0,0.0
4,39.51283,-119.74371000000001, S McCarran Blvd,Reno,Washoe,NV,58.0,58.0,16.0,25.56,10.0,8.0,0.0
2,36.670902000000005,-114.52168999999999,NV-169,Overton,Clark,NV,87.0,87.0,16.0,27.8,10.0,14.0,0.0
2,35.134975,-106.71401999999999,Western Trl NW,Albuquerque,Bernalillo,NM,66.0,66.0,46.0,24.32,10.0,0.0,0.0
2,33.610828000000005,-112.12260400000001,N 30th Ave,Phoenix,Maricopa,AZ,55.0,55.0,33.0,28.53,10.0,3.0,0.0
3,39.711246,-104.826752,E Alameda Ave,Aurora,Arapahoe,CO,30.0,22.0,47.0,24.67,10.0,9.0,0.0
2,39.848122,-104.98530600000001,I-25 N,Denver,Adams,CO,37.0,34.0,81.0,24.71,10.0,5.0,0.0
1,38.965559999999996,-104.79858, Voyager Pkwy,Colorado Springs,El Paso,CO,38.0,33.0,68.0,23.64,10.0,6.0,0.0
1,32.13371,-110.9989,W Valencia Rd,Tucson,Pima,AZ,102.0,102.0,7.0,27.13,10.0,13.0,0.0
2,41.02877,-111.94657,I-15 N,Kaysville,Davis,UT,58.0,58.0,28.0,25.04,10.0,17.0,0.0
2,40.703520000000005,-112.09182, S 8400 W,Magna,Salt Lake,UT,71.0,71.0,38.0,25.79,10.0,0.0,0.0
2,40.86138,-111.89887, E 1100 N,North Salt Lake,Davis,UT,67.0,67.0,51.0,25.76,10.0,0.0,0.0
2,39.988479999999996,-111.36835,US-6 E,Springville-Mapleton,Utah,UT,57.0,57.0,40.0,25.29,10.0,18.0,0.0
1,32.22141,-110.8923, S Swan Rd,Tucson,Pima,AZ,87.0,87.0,5.0,27.06,10.0,5.0,0.0
2,33.58186,-112.12205,N 28th Dr,Phoenix,Maricopa,AZ,104.0,104.0,9.0,28.24,10.0,12.0,0.0
2,39.476698,-119.79096200000001,Martin Luther King Jr Memorial Fwy,Reno,Washoe,NV,38.0,38.0,53.0,25.37,10.0,0.0,0.0
2,32.133906,-111.005253, W Valencia Rd,Tucson,Pima,AZ,51.0,51.0,62.0,27.13,10.0,6.0,0.0
2,38.8605,-104.820213,N Nevada Ave,Colorado Springs,El Paso,CO,57.0,57.0,30.0,23.53,10.0,13.0,0.0
2,33.461601,-112.07263200000001,Hance Deck Park Tunnel,Phoenix,Maricopa,AZ,62.0,62.0,26.0,28.91,10.0,3.0,0.0
1,32.28648,-110.97811999999999,W Wetmore Rd,Tucson,Pima,AZ,88.0,88.0,21.0,27.19,10.0,3.0,0.0
2,39.978840000000005,-105.21286,S Cherryvale Rd,Boulder,Boulder,CO,63.0,63.0,55.0,24.52,10.0,6.0,0.0
3,33.462092999999996,-112.04994199999999,I-10 W,Phoenix,Maricopa,AZ,72.0,72.0,14.0,28.99,10.0,8.0,0.0
2,33.304592,-111.972044,I-10 W,Phoenix,Maricopa,AZ,52.0,52.0,45.0,29.02,10.0,0.0,0.0
2,32.207031,-110.90959199999999,S Alvernon Way,Tucson,Pima,AZ,104.0,104.0,12.0,27.05,10.0,13.0,0.0
2,40.57291,-112.29499799999999,E 2400 N,Tooele,Tooele,UT,44.0,41.0,38.0,25.82,10.0,6.0,0.0
2,37.57154,-112.83913999999999,Cedar Cyn,Cedar City,Iron,UT,42.0,36.0,79.0,24.34,10.0,10.0,0.0
3,39.809574,-104.982849,I-25 N,Denver,Adams,CO,43.0,37.0,23.0,24.41,10.0,12.0,0.0
2,43.043993,-112.433062,Stock Trail Rd,Firth,Bingham,ID,25.0,14.0,63.0,25.58,10.0,12.0,0.0
2,32.13443,-110.889802,E Valencia Rd,Tucson,Pima,AZ,89.0,89.0,15.0,27.28,10.0,9.0,0.0
2,41.30182,-112.02604,I-15 S,Ogden,Weber,UT,67.0,67.0,13.0,25.48,10.0,17.0,0.0
2,32.190874,-110.90641299999999,E Golf Links Rd,Tucson,Pima,AZ,45.0,41.0,37.0,27.21,10.0,6.0,0.0
2,39.468449,-120.00275400000001,I-80 W,Verdi,Washoe,NV,89.0,89.0,14.0,25.61,10.0,5.0,0.0
2,39.77727,-104.883,N Central Park Blvd,Denver,Denver,CO,73.0,73.0,26.0,24.24,10.0,7.0,0.0
2,32.337509999999995,-111.05657, W Ina Rd,Tucson,Pima,AZ,55.0,55.0,21.0,27.34,10.0,10.0,0.0
2,37.49427,-113.21727,I-15 N,New Harmony,Iron,UT,29.0,19.0,82.0,24.36,10.0,12.0,0.0
3,39.848122,-104.98530600000001,I-25 N,Denver,Adams,CO,73.0,73.0,8.0,24.09,10.0,13.0,0.0
2,43.504446,-112.05506399999999,Grandview Dr,Idaho Falls,Bonneville,ID,28.0,19.0,58.0,25.32,10.0,9.0,0.0
1,32.23616,-110.89256,E Speedway Blvd,Tucson,Pima,AZ,62.0,62.0,34.0,27.12,10.0,12.0,0.0
2,32.139519,-110.84071399999999,S Kolb Rd,Tucson,Pima,AZ,81.0,81.0,23.0,27.04,10.0,9.0,0.0
3,33.524075,-112.112328,W Bethany Home Rd,Phoenix,Maricopa,AZ,69.0,69.0,19.0,29.05,10.0,7.0,0.0
2,41.015991,-111.490273,I-84 E,Henefer,Summit,UT,28.0,28.0,88.0,25.49,10.0,3.0,0.0
1,32.17759,-110.98579,I-19 S,Tucson,Pima,AZ,107.0,107.0,5.0,26.98,10.0,14.0,0.0
2,48.185935,-114.309334, Airport Rd,Kalispell,Flathead,MT,34.0,34.0,70.0,27.05,10.0,0.0,0.0
4,36.66452,-110.41381000000001,US-160 E,Kayenta,Navajo,AZ,32.0,32.0,40.0,25.87,10.0,3.0,0.0
2,47.6154,-116.521028,I-90 E,Coeur D Alene,Kootenai,ID,57.0,57.0,62.0,27.35,10.0,6.0,0.0
2,32.14112,-110.91264699999999, S Earp Wash Ln,Tucson,Pima,AZ,77.0,77.0,26.0,27.2,10.0,9.0,0.0
2,33.553111,-112.151559, N 43rd Ave,Glendale,Maricopa,AZ,59.0,59.0,36.0,28.82,10.0,5.0,0.0
2,33.567532,-112.151657,N 43rd Ave,Phoenix,Maricopa,AZ,86.0,86.0,11.0,28.36,10.0,0.0,0.0
2,33.610039,-112.237549,W Thunderbird Rd,Peoria,Maricopa,AZ,93.0,93.0,32.0,28.76,10.0,3.0,0.0
2,35.194866,-106.63694,Alameda Blvd NW,Albuquerque,Bernalillo,NM,88.0,88.0,11.0,24.28,10.0,9.0,0.0
1,40.75193,-111.91062,I-15 N,Salt Lake City,Salt Lake,UT,34.0,27.0,75.0,25.54,7.0,8.0,0.0
2,32.11908,-110.79721799999999,S Nexus Dr,Tucson,Pima,AZ,60.0,60.0,28.0,27.17,10.0,10.0,0.0
2,40.771148,-112.04469499999999,I-80 W,Magna,Salt Lake,UT,30.0,24.0,64.0,25.88,10.0,6.0,0.0
1,33.37749,-112.1682, W Baseline Rd,Laveen,Maricopa,AZ,102.0,102.0,8.0,28.67,10.0,8.0,0.0
2,41.162079,-112.023224,I-15 S,Ogden,Weber,UT,38.0,38.0,55.0,25.62,10.0,3.0,0.0
2,39.649828,-105.180872,CO-470 W,Denver,Jefferson,CO,35.0,29.0,35.0,24.38,10.0,8.0,0.0
2,40.58155,-104.9077,CO-257,Fort Collins,Weld,CO,58.0,58.0,36.0,25.01,10.0,10.0,0.0
3,39.749287,-105.01765400000001,I-25 S,Denver,Denver,CO,21.0,9.0,86.0,24.56,4.0,13.0,0.0
3,41.123871,-112.02368200000001,I-15 N,Clearfield,Davis,UT,83.0,83.0,25.0,25.18,10.0,7.0,0.0
2,33.483257,-112.113037,Black Canyon Fwy N,Phoenix,Maricopa,AZ,65.0,65.0,10.0,28.99,10.0,17.0,0.0
3,39.536484,-104.86833200000001,I-25 N,Englewood,Douglas,CO,21.0,12.0,88.0,24.02,1.0,7.0,0.0
2,38.847111,-104.752701,Galley Rd,Colorado Springs,El Paso,CO,64.0,64.0,80.0,24.17,10.0,0.0,0.0
4,41.22913,-111.9789, W 21st St,Ogden,Weber,UT,44.0,41.0,58.0,25.61,10.0,6.0,0.0
2,33.573898,-111.864632,E Via Linda,Scottsdale,Maricopa,AZ,72.0,72.0,28.0,28.31,10.0,3.0,0.0
2,32.337485,-111.04783400000001, W Ina Rd,Tucson,Pima,AZ,84.0,84.0,12.0,27.2,10.0,3.0,0.0
3,39.725681,-104.824646,I-225 N,Aurora,Arapahoe,CO,20.0,20.0,77.0,24.75,10.0,3.0,0.0
2,33.668709,-112.077431,AZ-101 Loop E,Phoenix,Maricopa,AZ,59.0,59.0,21.0,28.56,10.0,12.0,0.0
2,35.120533,-107.82451200000001,I-40 E,Grants,Cibola,NM,26.0,18.0,58.0,23.86,10.0,7.0,0.0
2,40.504002,-111.891144,I-15 N,Draper,Salt Lake,UT,41.0,41.0,62.0,26.06,10.0,0.0,0.0
2,34.360141999999996,-111.42476699999999,State Highway 87,Pine,Gila,AZ,84.0,84.0,18.0,24.91,10.0,6.0,0.0
3,39.71162,-104.99943999999999,I-25 S,Denver,Denver,CO,46.0,42.0,54.0,24.14,10.0,8.0,0.0
2,39.724529,-105.014374,US-6 E,Denver,Denver,CO,75.0,75.0,18.0,24.15,10.0,12.0,0.0
1,39.77665,-105.08143999999999,Wadsworth Blvd,Wheat Ridge,Jefferson,CO,41.0,37.0,29.0,24.38,10.0,6.0,0.0
2,33.597134000000004,-112.00946,E Cactus Rd,Phoenix,Maricopa,AZ,62.0,62.0,93.0,28.44,1.0,0.0,0.02
2,40.430665999999995,-111.890782,I-15 S,Lehi,Utah,UT,53.0,53.0,30.0,25.68,10.0,0.0,0.0
2,33.385959,-111.820171,Superstition Fwy E,Mesa,Maricopa,AZ,92.0,92.0,16.0,28.66,10.0,9.0,0.0
2,46.974106,-113.995516, Grant Creek Rd,Missoula,Missoula,MT,32.0,32.0,96.0,26.78,6.0,0.0,0.0
2,45.657773999999996,-110.76711,I-90 W,Livingston,Park,MT,23.0,15.0,88.0,25.22,5.0,7.0,0.0
1,33.52407,-112.1863, W Bethany Home Rd,Glendale,Maricopa,AZ,98.0,98.0,13.0,28.67,10.0,8.0,0.0
2,32.276142,-110.993169, N Reno Ave,Tucson,Pima,AZ,59.0,59.0,27.0,27.31,10.0,10.0,0.0
2,33.56583,-112.27118999999999, N 99th Ave,Peoria,Maricopa,AZ,99.0,99.0,13.0,28.64,10.0,3.0,0.0
2,41.274071,-111.969353,N Washington Blvd,Ogden,Weber,UT,81.0,81.0,14.0,25.72,10.0,7.0,0.0
2,33.655079,-112.024368,E Union Hills Dr,Phoenix,Maricopa,AZ,94.0,94.0,13.0,28.3,10.0,6.0,0.0
2,39.867153,-104.987541,I-25 N,Denver,Adams,CO,37.0,37.0,100.0,24.39,4.0,0.0,0.0
2,41.11058,-112.06453700000002,S 2000 W,Syracuse,Davis,UT,37.0,32.0,54.0,25.19,10.0,7.0,0.0
2,38.854401,-104.757408,N Academy Blvd,Colorado Springs,El Paso,CO,62.0,62.0,53.0,23.98,10.0,7.0,0.0
4,32.29424,-111.02696, N Davis Ave,Tucson,Pima,AZ,79.0,79.0,47.0,27.08,10.0,14.0,0.0
2,33.490479,-112.20755,N 69th Ave,Phoenix,Maricopa,AZ,50.0,50.0,80.0,28.79,10.0,8.0,0.0
2,45.685518,-109.461797,I-90 W,Reed Point,Stillwater,MT,16.0,-2.0,81.0,25.4,0.75,24.0,0.0
2,32.206965999999994,-110.892357,S Swan Rd,Tucson,Pima,AZ,61.0,61.0,60.0,27.35,10.0,6.0,0.0
2,32.191837,-110.772745,S Houghton Rd,Tucson,Pima,AZ,78.0,78.0,23.0,27.09,10.0,6.0,0.0
2,39.652885,-105.032417,S Lowell Blvd,Denver,Arapahoe,CO,56.0,56.0,37.0,24.18,10.0,7.0,0.0
2,45.751478999999996,-108.551498,I-90 W,Billings,Yellowstone,MT,22.0,8.0,63.0,26.25,10.0,17.0,0.0
2,33.446678000000006,-112.47888200000001,S Jackrabbit Trl,Buckeye,Maricopa,AZ,79.0,79.0,21.0,28.86,10.0,6.0,0.0
2,39.445744,-118.781626, Schurz Hwy,Fallon,Churchill,NV,35.0,31.0,33.0,26.26,10.0,5.0,0.0
3,40.431965000000005,-111.89128899999999,I-15 N,Lehi,Utah,UT,33.0,22.0,96.0,25.34,2.0,17.0,0.0
3,39.76455,-105.00165,US-87 N,Denver,Denver,CO,30.0,25.0,32.0,24.58,10.0,5.0,0.0
4,39.943034999999995,-104.987839,I-25 N,Broomfield,Adams,CO,44.0,37.0,25.0,24.68,10.0,14.0,0.0
2,33.52048,-112.11222,I-17 N,Phoenix,Maricopa,AZ,51.0,51.0,66.0,28.75,10.0,6.0,0.0
2,33.462070000000004,-112.258633,I-10 E,Tolleson,Maricopa,AZ,75.0,75.0,37.0,28.77,10.0,3.0,0.0
3,39.538639,-119.786842,E 9th St,Reno,Washoe,NV,59.0,59.0,41.0,25.41,10.0,8.0,0.0
2,32.380718,-111.04692800000001,N Thornydale Rd,Tucson,Pima,AZ,81.0,81.0,20.0,27.14,10.0,21.0,0.0
2,40.154011,-110.218781,Antelope Canyon Rd,Duchesne,Duchesne,UT,22.0,13.0,75.0,24.13,10.0,7.0,0.0
2,33.420989,-112.27235900000001,W Lower Buckeye Rd,Tolleson,Maricopa,AZ,44.0,41.0,48.0,28.84,10.0,7.0,0.0
2,40.63024,-111.85653,I-215 E,Salt Lake City,Salt Lake,UT,87.0,87.0,28.0,25.65,10.0,14.0,0.0
2,40.6344,-111.89536000000001,I-215 E,Salt Lake City,Salt Lake,UT,30.0,23.0,66.0,25.92,10.0,7.0,0.0
2,39.84283,-104.984117,I-25 N,Denver,Adams,CO,50.0,50.0,35.0,24.63,10.0,7.0,0.0
2,39.673486,-119.13373500000002,I-80 E,Fernley,Lyon,NV,34.0,34.0,85.0,25.53,10.0,3.0,0.0
1,32.20641,-110.8411, S Kolb Rd,Tucson,Pima,AZ,75.0,75.0,17.0,27.09,10.0,10.0,0.0
2,39.457471999999996,-106.144355, Highway 91,Frisco,Summit,CO,13.0,5.0,74.0,20.57,4.0,5.0,0.0
2,32.250622,-110.90123700000001,N Columbus Blvd,Tucson,Pima,AZ,63.0,63.0,14.0,27.31,10.0,9.0,0.0
3,33.461937,-112.151474,I-10 W,Phoenix,Maricopa,AZ,77.0,77.0,18.0,28.65,10.0,8.0,0.0
2,43.633811,-116.355745, E Ustick Rd,Meridian,Ada,ID,45.0,45.0,61.0,27.5,10.0,0.0,0.0
2,40.66505,-111.90123,I-15 N,Salt Lake City,Salt Lake,UT,60.0,60.0,27.0,25.6,10.0,3.0,0.0
1,33.40672,-112.09943999999999, W Broadway Rd,Phoenix,Maricopa,AZ,74.0,74.0,19.0,28.64,10.0,0.0,0.0
1,33.50978,-112.02162, E Camelback Rd,Phoenix,Maricopa,AZ,95.0,95.0,11.0,28.68,10.0,5.0,0.0
2,33.461627,-112.14488999999999,I-10 E,Phoenix,Maricopa,AZ,91.0,91.0,11.0,28.59,10.0,0.0,0.0
2,38.57443,-109.55077, N Main St,Moab,Grand,UT,29.0,24.0,64.0,25.37,10.0,5.0,0.0
2,32.25251,-110.825951,N Desert Links Dr,Tucson,Pima,AZ,81.0,81.0,13.0,27.19,10.0,12.0,0.0
2,39.72514,-105.10025800000001,Garrison St,Lakewood,Jefferson,CO,46.0,41.0,93.0,24.4,2.0,10.0,0.0
1,33.43572,-112.47882, S Jackrabbit Trl,Buckeye,Maricopa,AZ,72.0,72.0,27.0,28.72,10.0,3.0,0.0
3,40.431965000000005,-111.89128899999999,I-15 N,Lehi,Utah,UT,64.0,64.0,18.0,25.67,10.0,0.0,0.0
2,32.264809,-110.96188799999999, E Fort Lowell Rd,Tucson,Pima,AZ,52.0,52.0,24.0,27.26,10.0,5.0,0.0
2,40.64983,-111.90236000000002,I-15 S,Salt Lake City,Salt Lake,UT,47.0,44.0,61.0,25.89,10.0,7.0,0.0
2,45.671298,-111.211367, River Rd,Bozeman,Gallatin,MT,41.0,35.0,73.0,25.36,10.0,9.0,0.0
2,40.73195,-111.94991,I-215 S,Salt Lake City,Salt Lake,UT,67.0,67.0,40.0,25.85,10.0,5.0,0.0
2,40.233124,-111.68321200000001,W Center St,Provo,Utah,UT,40.0,30.0,51.0,25.34,10.0,21.0,0.0
2,33.67287,-112.02476599999999,AZ-101 Loop W,Phoenix,Maricopa,AZ,83.0,83.0,16.0,28.3,10.0,8.0,0.0
1,32.20667,-110.8581, E 22nd St,Tucson,Pima,AZ,75.0,75.0,15.0,27.2,10.0,7.0,0.0
2,34.137729,-112.14833999999999,Arizona Veterans Highway,Black Canyon City,Yavapai,AZ,101.0,101.0,15.0,28.28,10.0,14.0,0.0
2,48.320198,-114.331329, Bowdish Rd,Whitefish,Flathead,MT,26.0,26.0,84.0,26.6,10.0,3.0,0.0
2,40.72245,-111.93898999999999, S Redwood Rd,West Valley City,Salt Lake,UT,42.0,38.0,73.0,25.6,10.0,7.0,0.0
1,32.191720000000004,-110.7732, E Golf Links Rd,Tucson,Pima,AZ,84.0,84.0,14.0,27.24,10.0,5.0,0.0
2,33.422394,-112.189697,W Lower Buckeye Rd,Phoenix,Maricopa,AZ,76.0,76.0,10.0,28.92,10.0,0.0,0.0
1,32.28313,-110.94383, N Campbell Ave,Tucson,Pima,AZ,48.0,43.0,54.0,27.15,10.0,14.0,0.0
2,32.183986,-108.35035400000001,I-10 E,Hurley,Grant,NM,26.0,18.0,72.0,24.54,10.0,8.0,0.0
2,33.43453,-111.88161000000001,AZ-202 Loop E,Mesa,Maricopa,AZ,69.0,69.0,33.0,28.66,10.0,9.0,0.0
2,33.494791,-111.90029399999999, E Indian School Rd,Scottsdale,Maricopa,AZ,85.0,85.0,16.0,28.54,10.0,5.0,0.0
2,35.103667,-106.58404399999999,Coronado Fwy W,Albuquerque,Bernalillo,NM,61.0,61.0,26.0,24.8,10.0,7.0,0.0
1,33.70901,-112.06573999999999, N 7th St,Phoenix,Maricopa,AZ,59.0,59.0,48.0,28.34,10.0,0.0,0.0
3,40.526928000000005,-111.89101399999998,I-15 N,Draper,Salt Lake,UT,48.0,42.0,80.0,25.51,9.0,15.0,0.01
2,33.465705,-111.917553, E McDowell Rd,Scottsdale,Maricopa,AZ,74.0,74.0,16.0,28.77,10.0,5.0,0.0
3,33.462334000000006,-112.25808,I-10 W,Tolleson,Maricopa,AZ,52.0,52.0,34.0,28.78,10.0,7.0,0.0
3,39.130219,-104.8638,I-25 S,Larkspur,Douglas,CO,30.0,30.0,75.0,23.31,10.0,3.0,0.0
3,40.275784,-111.71903999999999,I-15 N,Orem,Utah,UT,66.0,66.0,43.0,25.51,10.0,20.0,0.0
1,33.495020000000004,-112.0999, W Indian School Rd,Phoenix,Maricopa,AZ,63.0,63.0,26.0,28.94,10.0,5.0,0.0
2,33.672871,-112.20195, N 66th Dr,Glendale,Maricopa,AZ,73.0,73.0,15.0,28.43,10.0,3.0,0.0
4,39.78629,-105.0795,I-70 E,Arvada,Jefferson,CO,52.0,52.0,62.0,24.35,10.0,3.0,0.0
2,39.78349,-105.0314,I-70 E,Denver,Denver,CO,21.0,6.0,86.0,24.33,1.0,18.0,0.0
3,39.77021,-104.9917,I-25 N,Denver,Denver,CO,91.0,91.0,13.0,24.36,20.0,5.0,0.0
1,32.1994,-110.90956000000001, E 32nd St,Tucson,Pima,AZ,91.0,91.0,7.0,27.05,10.0,10.0,0.0
2,32.340391,-110.71681299999999,Mount Lemmon Hwy,Tucson,Pima,AZ,68.0,68.0,22.0,27.14,10.0,7.0,0.0
2,33.37721,-111.64827,Santan Fwy N,Mesa,Maricopa,AZ,73.0,73.0,15.0,28.48,10.0,6.0,0.0
1,33.61083,-112.12255, W Thunderbird Rd,Phoenix,Maricopa,AZ,84.0,84.0,21.0,28.21,10.0,8.0,0.0
1,32.17791,-110.9524,E Ajo Way,Tucson,Pima,AZ,61.0,61.0,38.0,27.34,10.0,3.0,0.0
2,33.656502,-112.022209,E Rockwood Dr,Phoenix,Maricopa,AZ,50.0,50.0,86.0,28.38,10.0,5.0,0.0
2,40.561878,-111.973602,W South Jordan Pkwy,South Jordan,Salt Lake,UT,53.0,53.0,43.0,26.0,10.0,13.0,0.0
2,35.026641,-107.33518799999999,I-40 W,Casa Blanca,Cibola,NM,24.0,11.0,75.0,23.64,10.0,15.0,0.0
2,40.19682,-111.65014,I-15 S,Spanish Fork,Utah,UT,38.0,34.0,93.0,25.57,4.0,5.0,0.06
2,33.681851,-112.20658700000001, N 69th Ave,Glendale,Maricopa,AZ,60.0,60.0,41.0,28.43,10.0,5.0,0.0
3,39.777473,-104.88456699999999,I-70 W,Denver,Denver,CO,89.0,89.0,15.0,24.51,10.0,9.0,0.0
3,39.734790000000004,-105.01503000000001,US-87 N,Denver,Denver,CO,82.0,82.0,19.0,24.28,10.0,14.0,0.0
3,40.765079,-111.988853,I-80 W,Salt Lake City,Salt Lake,UT,53.0,53.0,41.0,25.77,10.0,7.0,0.0
2,41.051026,-111.621447,I-84 E,Morgan,Morgan,UT,28.0,14.0,44.0,25.15,10.0,25.0,0.0
2,40.63459,-111.89526000000001,I-215 W,Salt Lake City,Salt Lake,UT,25.0,14.0,88.0,25.7,1.0,13.0,0.03
2,32.221652,-110.90965700000001, E Broadway Blvd,Tucson,Pima,AZ,57.0,57.0,28.0,27.1,10.0,3.0,0.0
2,33.459679,-112.091278,N 15th Ave,Phoenix,Maricopa,AZ,63.0,63.0,38.0,28.91,10.0,3.0,0.0
2,34.24065,-111.32298999999999,N Beeline Hwy,Payson,Gila,AZ,63.0,63.0,39.0,24.76,10.0,9.0,0.0
2,40.726221,-111.97433999999998,UT-201 E,West Valley City,Salt Lake,UT,23.0,23.0,85.0,26.03,6.0,0.0,0.0
2,43.63555,-116.37453000000001, N Locust Grove Rd,Meridian,Ada,ID,46.0,43.0,100.0,27.19,10.0,7.0,0.0
3,40.544487,-111.89485900000001,W 11400 S,Sandy,Salt Lake,UT,66.0,66.0,20.0,25.9,10.0,9.0,0.0
2,40.63043,-111.87786000000001,I-215 E,Midvale,Salt Lake,UT,74.0,74.0,25.0,25.69,10.0,7.0,0.0
2,45.71138,-110.443418,I-90 W,Livingston,Park,MT,31.0,16.0,52.0,25.07,10.0,30.0,0.0
2,39.78395,-105.0284,I-70 E,Denver,Denver,CO,90.0,90.0,16.0,24.38,20.0,8.0,0.0
2,45.64432,-110.57248899999999,I-90 E,Livingston,Park,MT,45.0,36.0,63.0,25.11,10.0,25.0,0.0
3,40.835541,-115.788467,Mountain City Hwy,Elko,Elko,NV,81.0,81.0,10.0,25.06,10.0,3.0,0.0
2,41.110979,-111.75472099999999,I-84 E,Morgan,Morgan,UT,30.0,30.0,86.0,25.2,5.0,0.0,0.0
2,45.655285,-111.125, Texas Way,Bozeman,Gallatin,MT,29.0,29.0,78.0,25.53,10.0,3.0,0.0
2,33.445717,-111.856796,N Alma School Rd,Mesa,Maricopa,AZ,75.0,75.0,31.0,28.78,10.0,12.0,0.0
3,32.081309999999995,-110.80394,I-10 W,Tucson,Pima,AZ,48.0,42.0,30.0,27.34,10.0,17.0,0.0
2,33.82475,-113.53562600000001, Highway 60,Salome,La Paz,AZ,64.0,64.0,22.0,28.91,10.0,6.0,0.0
3,33.700699,-112.114815,Black Canyon Fwy N,Phoenix,Maricopa,AZ,84.0,84.0,15.0,28.32,10.0,3.0,0.0
2,33.614028999999995,-111.92588,N Scottsdale Rd,Scottsdale,Maricopa,AZ,94.0,94.0,16.0,28.26,10.0,0.0,0.0
2,32.344848999999996,-111.07071699999999,W Massingale Rd,Tucson,Pima,AZ,101.0,101.0,14.0,27.15,10.0,6.0,0.0
3,32.125510999999996,-106.63916,I-10 E,Vado,Doña Ana,NM,53.0,53.0,49.0,26.18,10.0,6.0,0.0
3,39.72542,-105.02212,W 6th Avenue Fwy E,Denver,Denver,CO,48.0,48.0,15.0,24.58,10.0,0.0,0.0
2,33.406712,-112.064568,E Broadway Rd,Phoenix,Maricopa,AZ,100.0,100.0,8.0,28.62,10.0,9.0,0.0
2,43.633812,-116.35621200000001, E Ustick Rd,Meridian,Ada,ID,41.0,37.0,87.0,27.41,10.0,6.0,0.0
3,39.734840000000005,-105.01517,I-25 S,Denver,Denver,CO,66.0,66.0,52.0,24.18,10.0,0.0,0.0
2,39.653079999999996,-104.91293300000001,E Hampden Ave,Denver,Denver,CO,76.0,76.0,26.0,24.19,10.0,10.0,0.0
2,41.215568,-111.978967, Doxey St,Ogden,Weber,UT,30.0,25.0,85.0,25.66,10.0,5.0,0.0
2,40.699877,-111.874793, E 3300 S,Salt Lake City,Salt Lake,UT,51.0,51.0,29.0,25.93,10.0,13.0,0.0
1,33.494279999999996,-112.23771, W Indian School Rd,Phoenix,Maricopa,AZ,89.0,89.0,4.0,28.72,10.0,14.0,0.0
2,33.460701,-112.01293899999999,N 32nd St,Phoenix,Maricopa,AZ,49.0,45.0,22.0,29.2,10.0,9.0,0.0
2,40.987331,-111.90052800000001,US-89 N,Farmington,Davis,UT,69.0,69.0,25.0,25.28,10.0,15.0,0.0
2,32.206768,-110.85798600000001,S Wilmot Rd,Tucson,Pima,AZ,90.0,90.0,11.0,27.01,10.0,8.0,0.0
2,33.670059,-112.03839099999999,AZ-101 Loop W,Phoenix,Maricopa,AZ,71.0,71.0,36.0,28.3,10.0,0.0,0.0
2,33.97332,-111.38421100000001,Beeline Hwy,Payson,Gila,AZ,32.0,24.0,32.0,24.92,10.0,9.0,0.0
2,40.517059,-112.303398,S Main St,Tooele,Tooele,UT,53.0,53.0,45.0,25.57,10.0,12.0,0.0
3,33.46253,-112.4964,I-10 W,Buckeye,Maricopa,AZ,64.0,64.0,30.0,28.67,10.0,5.0,0.0
1,32.33712,-110.9776, N Oracle Rd,Tucson,Pima,AZ,83.0,83.0,8.0,27.23,10.0,5.0,0.0
2,41.306671,-112.027679,N 2000 W,Ogden,Weber,UT,71.0,71.0,28.0,25.51,10.0,8.0,0.0
2,39.64377,-110.85954,US-191 N,Helper,Carbon,UT,56.0,56.0,90.0,23.96,2.0,9.0,0.1
2,33.392231,-112.071648,E Southern Ave,Phoenix,Maricopa,AZ,108.0,108.0,5.0,28.59,10.0,9.0,0.0
4,32.784515,-107.263962,County Road B108,Derry,Sierra,NM,78.0,78.0,37.0,25.18,10.0,6.0,0.0
2,39.492940000000004,-104.76038, S Parker Rd,Parker,Douglas,CO,83.0,83.0,28.0,24.27,10.0,17.0,0.0
2,46.52321,-114.114204, US Highway 93 N,Stevensville,Ravalli,MT,15.0,15.0,91.0,26.89,10.0,0.0,0.0
2,32.222532,-110.84108400000001, N Kolb Rd,Tucson,Pima,AZ,88.0,88.0,10.0,27.17,10.0,3.0,0.0
2,39.176601,-119.733223,US Highway 50 E,Carson City,Carson City,NV,36.0,36.0,44.0,25.41,10.0,0.0,0.0
2,40.69359,-111.90287,I-15 S,Salt Lake City,Salt Lake,UT,31.0,24.0,82.0,25.79,10.0,7.0,0.0
2,39.860996,-105.05489299999999,Denver Boulder Tpke W,Westminster,Jefferson,CO,70.0,70.0,12.0,24.34,30.0,30.0,0.0
2,33.848994,-114.216967, State Highway 95,Bouse,La Paz,AZ,89.0,89.0,9.0,29.44,10.0,7.0,0.0
3,39.242962,-104.87860900000001,I-25 S,Larkspur,Douglas,CO,55.0,55.0,25.0,23.24,10.0,5.0,0.0
2,32.184624,-110.96833899999999, S 6th Ave,Tucson,Pima,AZ,44.0,39.0,42.0,27.3,10.0,9.0,0.0
2,40.6344,-111.89536000000001,I-215 E,Salt Lake City,Salt Lake,UT,32.0,32.0,82.0,25.65,9.0,0.0,0.0
2,40.67432,-111.8883, E 4500 S,Salt Lake City,Salt Lake,UT,11.0,11.0,88.0,25.76,10.0,0.0,0.0
3,33.460476,-112.03640700000001,N 21st Pl,Phoenix,Maricopa,AZ,79.0,79.0,25.0,28.56,10.0,9.0,0.0
2,32.148694,-110.940542, S Jasmine Way,Tucson,Pima,AZ,80.0,80.0,15.0,27.24,10.0,9.0,0.0
2,32.25847,-110.98020700000001, W Florence St,Tucson,Pima,AZ,66.0,66.0,20.0,27.34,10.0,12.0,0.0
2,33.42168,-111.89138,AZ-101 Loop S,Tempe,Maricopa,AZ,65.0,65.0,19.0,28.79,10.0,5.0,0.0
3,33.425507,-112.625267,I-10 E,Buckeye,Maricopa,AZ,82.0,82.0,17.0,28.64,10.0,0.0,0.0
2,35.008790000000005,-111.73728, N State Route 89A,Sedona,Coconino,AZ,83.0,83.0,10.0,24.99,10.0,14.0,0.0
2,40.052585,-111.54803100000001, S Highway 6,Spanish Fork,Utah,UT,57.0,57.0,44.0,24.93,10.0,13.0,0.0
3,39.724419,-105.012245,I-25 S,Denver,Denver,CO,27.0,17.0,47.0,24.33,10.0,10.0,0.0
3,40.300892,-104.980049,I-25 N,Johnstown,Weld,CO,11.0,11.0,81.0,25.18,10.0,0.0,0.0
2,39.59114,-111.44859, N Highway 89,Mount Pleasant,Sanpete,UT,33.0,28.0,72.0,24.0,10.0,6.0,0.0
2,32.191963,-110.841057,E Golf Links Rd,Tucson,Pima,AZ,84.0,84.0,9.0,27.1,10.0,20.0,0.0
2,40.477482,-112.34665700000001,State Route 36,Tooele,Tooele,UT,53.0,53.0,59.0,25.51,10.0,8.0,0.0
2,40.54533,-111.89577,I-15 S,Sandy,Salt Lake,UT,26.0,18.0,92.0,25.68,2.0,7.0,0.01
3,39.801860999999995,-104.98496200000001,E 58th Ave,Denver,Adams,CO,57.0,57.0,25.0,24.62,10.0,9.0,0.0
3,40.794552,-105.216187,N Highway 287,Livermore,Larimer,CO,84.0,84.0,14.0,23.02,10.0,3.0,0.0
2,38.32528,-112.6561,I-15 S,Beaver,Beaver,UT,83.0,83.0,17.0,24.83,10.0,36.0,0.0
2,38.933811,-104.7966,N Academy Blvd,Colorado Springs,El Paso,CO,15.0,7.0,93.0,23.5,7.0,5.0,0.0
3,40.544487,-111.89485900000001,W 11400 S,Sandy,Salt Lake,UT,31.0,26.0,61.0,25.73,10.0,5.0,0.0
2,40.72558,-111.91063999999999, W 2100 S,Salt Lake City,Salt Lake,UT,57.0,57.0,51.0,25.53,3.0,28.0,0.0
2,32.308426000000004,-110.902382,E Sunrise Dr,Tucson,Pima,AZ,69.0,69.0,17.0,27.14,10.0,9.0,0.0
1,33.40678,-112.04713000000001, E Broadway Rd,Phoenix,Maricopa,AZ,56.0,56.0,39.0,28.7,10.0,8.0,0.0
2,39.542598999999996,-104.93096899999999,S University Blvd,Highlands Ranch,Douglas,CO,50.0,50.0,46.0,24.1,10.0,8.0,0.0
2,35.062360999999996,-106.18795700000001,I-40 E,Edgewood,Santa Fe,NM,76.0,76.0,12.0,23.89,10.0,17.0,0.0
2,40.846090000000004,-111.91458999999999,I-15 N,North Salt Lake,Davis,UT,71.0,71.0,21.0,25.69,10.0,6.0,0.0
2,33.408417,-111.891319,AZ-101 Loop S,Tempe,Maricopa,AZ,70.0,70.0,22.0,28.8,10.0,3.0,0.0
2,32.359262,-111.071671, W Cortaro Farms Rd,Tucson,Pima,AZ,48.0,48.0,54.0,27.22,10.0,0.0,0.0
2,40.544281,-111.89865900000001,S Lone Peak Pkwy,South Jordan,Salt Lake,UT,93.0,93.0,19.0,25.76,10.0,9.0,0.0
2,32.174107,-110.96828300000001, W District St,Tucson,Pima,AZ,68.0,68.0,17.0,27.14,10.0,7.0,0.0
2,40.91101,-109.41495,US-191 N,Manila,Daggett,UT,31.0,19.0,82.0,24.58,0.75,17.0,0.0
3,33.510071,-112.11248,Black Canyon Fwy S,Phoenix,Maricopa,AZ,92.0,92.0,13.0,28.63,10.0,3.0,0.0
2,39.533821,-119.76678500000001,I-80 E,Sparks,Washoe,NV,71.0,71.0,15.0,25.55,10.0,16.0,0.0
2,40.311871000000004,-111.73468000000001,Canyon Pkwy,Orem,Utah,UT,53.0,53.0,57.0,25.64,10.0,0.0,0.0
