Severity,Start_Lat,Start_Lng,Street,City,County,State,Temperature(F),Wind_Chill(F),Humidity(%),Pressure(in),Visibility(mi),Wind_Speed(mph),Precipitation(in)
2,41.200996999999994,-73.193377,CT-25 S,Bridgeport,Fairfield,CT,39.0,32.0,36.0,30.23,10.0,12.0,0.0
3,42.23818,-71.02391,Southeast Expy N,Quincy,Norfolk,MA,81.0,81.0,60.0,30.06,10.0,12.0,0.0
2,42.15419,-71.06818,MA-24 N,Stoughton,Norfolk,MA,71.0,71.0,81.0,29.81,7.0,5.0,0.0
3,41.108776,-73.405991,Governor John Davis Lodge Tpke,Norwalk,Fairfield,CT,81.0,81.0,58.0,30.09,10.0,9.0,0.0
3,42.36208,-71.05589300000001,I-93 N,Boston,Suffolk,MA,37.0,29.0,62.0,30.19,10.0,13.0,0.0
2,41.456672999999995,-72.98131500000001, Cheshire Rd,Bethany,New Haven,CT,47.0,41.0,90.0,29.42,10.0,13.0,0.0
2,43.465959999999995,-72.380684, Town House Rd,Cornish,Sullivan,NH,18.0,9.0,65.0,29.54,10.0,7.0,0.0
2,42.661839,-71.164063,Lowell St,Andover,Essex,MA,73.0,73.0,57.0,29.65,10.0,12.0,0.0
3,42.3111,-71.05281,I-93 N,Dorchester,Suffolk,MA,41.0,31.0,93.0,29.79,2.0,24.0,0.0
2,41.745796,-72.660453,I-91 N,Hartford,Hartford,CT,65.0,65.0,43.0,29.99,10.0,14.0,0.0
3,43.355862,-71.922638,North Rd,Warner,Merrimack,NH,74.0,74.0,71.0,29.53,10.0,7.0,0.0
2,41.98106,-71.069717,Broadway,Raynham,Bristol,MA,44.0,37.0,93.0,29.42,1.0,15.0,0.08
2,42.747219,-71.49269100000001,Everett Tpke S,Nashua,Hillsborough,NH,74.0,74.0,45.0,29.87,10.0,5.0,0.0
1,42.294309999999996,-71.75344,I-290 E,Shrewsbury,Worcester,MA,54.0,54.0,93.0,28.64,0.25,3.0,0.0
3,43.516071000000004,-71.48769399999999,Daniel Webster Hwy N,Belmont,Belknap,NH,27.0,19.0,75.0,29.72,10.0,7.0,0.0
2,41.643223,-72.646751,Main St,Rocky Hill,Hartford,CT,16.0,16.0,92.0,30.4,10.0,0.0,0.0
2,41.445095,-71.847598, Pendleton Hill Rd,North Stonington,New London,CT,38.0,38.0,89.0,30.34,10.0,3.0,0.0
2,41.291971999999994,-72.89949399999999,Governor John Davis Lodge Tpke S,East Haven,New Haven,CT,50.0,50.0,52.0,29.9,10.0,14.0,0.0
2,42.363289,-71.128731,Western Ave,Allston,Suffolk,MA,55.0,55.0,55.0,29.72,10.0,14.0,0.0
2,42.157021,-71.069061,MA-24 S,Stoughton,Norfolk,MA,27.0,27.0,72.0,30.32,10.0,0.0,0.0
3,41.933937,-71.318993,South Ave,Attleboro,Bristol,MA,20.0,20.0,96.0,29.32,10.0,3.0,0.0
3,41.088776,-73.455826,Governor John Davis Lodge Tpke,Darien,Fairfield,CT,72.0,72.0,93.0,29.63,1.0,0.0,0.0
2,42.310711,-71.0532,I-93 S,Dorchester,Suffolk,MA,28.0,20.0,63.0,29.73,10.0,8.0,0.0
2,41.109734,-73.40344499999999,Governor John Davis Lodge Tpke,Norwalk,Fairfield,CT,55.0,55.0,88.0,29.94,10.0,9.0,0.0
2,42.303951,-71.072006,Geneva Ave,Dorchester,Suffolk,MA,58.0,58.0,93.0,30.02,10.0,9.0,0.0
2,41.725792,-72.65438,I-91 S,Wethersfield,Hartford,CT,44.0,44.0,79.0,30.2,10.0,0.0,0.0
2,41.790290999999996,-70.832237,Estabrook Way,Rochester,Plymouth,MA,43.0,37.0,86.0,30.13,10.0,12.0,0.0
2,42.480083,-71.115051,I-93 S,Woburn,Middlesex,MA,35.0,26.0,61.0,29.69,10.0,13.0,0.0
4,41.765698,-72.688815,I-84 E,Hartford,Hartford,CT,46.0,46.0,93.0,29.99,6.0,0.0,0.0
2,41.04442,-73.55821,I-95 N,Stamford,Fairfield,CT,42.0,38.0,89.0,29.59,8.0,6.0,0.06
2,41.55904,-72.90626,I-691 W,Cheshire,New Haven,CT,53.0,53.0,89.0,29.74,7.0,12.0,0.01
2,41.771023,-72.67975899999999,I-84 E,Hartford,Hartford,CT,53.0,53.0,89.0,30.09,7.0,8.0,0.08
2,41.143081,-73.268766,N Pine Creek Rd,Fairfield,Fairfield,CT,44.0,36.0,34.0,29.76,10.0,21.0,0.0
2,42.323139000000005,-71.07330300000001,Dudley St,Roxbury,Suffolk,MA,51.0,51.0,54.0,30.12,10.0,9.0,0.0
3,41.28533,-73.04333000000001,CT-15 S,Orange,New Haven,CT,81.0,81.0,72.0,29.69,10.0,7.0,0.0
2,41.787102000000004,-71.43412,RI-10 N,Cranston,Providence,RI,74.0,74.0,62.0,30.1,10.0,9.0,0.0
2,42.537151,-71.135277,I-93 S,Wilmington,Middlesex,MA,58.0,58.0,84.0,29.7,10.0,7.0,0.0
2,42.140236,-71.218681,Providence Hwy,Walpole,Norfolk,MA,85.0,85.0,38.0,30.09,10.0,7.0,0.0
2,42.092587,-71.224579,I-95 S,Sharon,Norfolk,MA,31.0,31.0,85.0,30.52,8.0,0.0,0.0
2,42.514221,-71.027939,I-95 S,Lynnfield,Essex,MA,49.0,43.0,24.0,29.68,10.0,17.0,0.0
2,42.318001,-71.067291,Monadnock St,Dorchester,Suffolk,MA,50.0,50.0,32.0,30.13,10.0,9.0,0.0
2,42.53368,-70.953171,Lowell St,Peabody,Essex,MA,45.0,37.0,53.0,29.35,10.0,20.0,0.0
2,42.543147999999995,-71.897324,MA-140 S,Westminster,Worcester,MA,84.0,84.0,65.0,29.61,10.0,3.0,0.0
2,43.519798,-71.468918,Grant St,Laconia,Belknap,NH,41.0,35.0,53.0,29.27,10.0,10.0,0.0
2,42.62189,-71.17685,I-93 N,Andover,Essex,MA,69.0,69.0,93.0,29.64,10.0,8.0,0.0
3,42.34795,-71.0508,I-90 W,Boston,Suffolk,MA,62.0,62.0,21.0,29.71,10.0,12.0,0.0
2,41.902681,-72.636247,I-91 S,Windsor Locks,Hartford,CT,28.0,28.0,85.0,30.31,10.0,3.0,0.0
3,41.800743,-71.402214,Thurbers Ave,Providence,Providence,RI,59.0,59.0,93.0,30.0,7.0,8.0,0.0
3,42.26336,-71.57233000000001,I-90 W,Hopkinton,Middlesex,MA,50.0,50.0,28.0,30.02,10.0,10.0,0.0
2,42.609123,-71.32504300000001,US-3 N,Lowell,Middlesex,MA,66.0,66.0,42.0,29.74,10.0,17.0,0.0
2,42.187740000000005,-71.84721,I-395 N,Auburn,Worcester,MA,44.0,39.0,47.0,28.65,10.0,10.0,0.0
2,42.355804,-71.059387,Franklin St,Boston,Suffolk,MA,45.0,37.0,80.0,29.98,8.0,21.0,0.0
3,42.347683,-71.231789,Washington St,West Newton,Middlesex,MA,73.0,73.0,57.0,29.92,10.0,10.0,0.0
2,41.813074,-71.87106700000001,I-395 S,Danielson,Windham,CT,36.0,36.0,93.0,30.3,10.0,0.0,0.0
2,41.825752,-71.426239,RI-10 N,Providence,Providence,RI,22.0,22.0,82.0,30.35,10.0,0.0,0.0
2,41.36573,-72.922268,CT-15 N,Hamden,New Haven,CT,55.0,55.0,62.0,30.27,10.0,5.0,0.0
2,43.321892,-71.47823299999999,Route 106 N,Loudon,Merrimack,NH,51.0,51.0,83.0,29.46,10.0,8.0,0.0
2,42.274994,-71.140778,Washington St,West Roxbury,Suffolk,MA,60.0,60.0,90.0,29.74,2.0,5.0,0.0
2,42.36777,-71.2698,I-95 S,Waltham,Middlesex,MA,44.0,39.0,96.0,29.35,4.0,10.0,0.01
3,42.398216,-71.260857,I-95 N,Waltham,Middlesex,MA,33.0,33.0,56.0,29.81,10.0,0.0,0.0
3,42.31681,-71.22903000000001,Worcester St,Wellesley Hills,Norfolk,MA,76.0,76.0,26.0,30.21,10.0,16.0,0.0
2,42.203098,-71.11930100000001,I-93 N,Canton,Norfolk,MA,32.0,26.0,27.0,30.64,10.0,7.0,0.0
3,42.728588,-71.13887,I-495 N,Methuen,Essex,MA,72.0,72.0,53.0,30.02,10.0,8.0,0.0
3,43.597458,-72.166916,Old Route 10,Enfield,Grafton,NH,69.0,69.0,49.0,29.57,10.0,5.0,0.0
2,41.231871000000005,-73.15651,CT-8 N,Trumbull,Fairfield,CT,48.0,48.0,93.0,30.29,3.0,0.0,0.0
3,42.38511,-71.04735,US-1 N,Charlestown,Suffolk,MA,71.0,71.0,45.0,30.23,10.0,15.0,0.0
1,42.20936,-71.04887,I-93 S,Quincy,Norfolk,MA,35.0,35.0,72.0,30.05,10.0,0.0,0.0
2,42.333248,-71.109543,Huntington Ave,Boston,Suffolk,MA,66.0,66.0,93.0,29.96,10.0,12.0,0.0
2,41.508342,-72.80864100000001, S Broad St,Meriden,New Haven,CT,43.0,39.0,43.0,30.02,10.0,7.0,0.0
2,41.122959,-73.316486,Governor John Davis Lodge Tpke,Westport,Fairfield,CT,72.0,72.0,53.0,29.62,10.0,18.0,0.0
4,41.89778,-71.93101, Putnam Rd,Pomfret Center,Windham,CT,41.0,34.0,82.0,29.23,10.0,12.0,0.0
3,42.502354,-71.11895,I-95 S,Reading,Middlesex,MA,45.0,41.0,81.0,29.79,10.0,6.0,0.0
2,42.34898,-71.097137,Commonwealth Ave,Boston,Suffolk,MA,29.0,29.0,33.0,30.74,10.0,3.0,0.0
2,42.888851,-71.32688900000001,Crystal Ave,Derry,Rockingham,NH,46.0,46.0,89.0,29.68,1.0,0.0,0.0
3,42.594246000000005,-70.963104,I-95 S,Danvers,Essex,MA,38.0,38.0,89.0,29.92,9.0,3.0,0.0
4,41.368072,-72.155549,I-95 S,Waterford,New London,CT,45.0,37.0,52.0,29.72,10.0,20.0,0.0
3,42.33878,-71.26818,Park Rd,Weston,Middlesex,MA,69.0,69.0,81.0,29.87,10.0,0.0,0.0
3,41.289722,-72.923126,Governor John Davis Lodge Tpke S,New Haven,New Haven,CT,43.0,39.0,62.0,29.74,10.0,6.0,0.0
2,42.596149,-70.992393,Maple St,Middleton,Essex,MA,80.0,80.0,56.0,29.67,10.0,10.0,0.0
2,42.559792,-71.251312,Allen Rd,Billerica,Middlesex,MA,46.0,46.0,76.0,29.87,10.0,3.0,0.0
2,42.348782,-71.134201,Griggs St,Allston,Suffolk,MA,41.0,36.0,57.0,29.74,10.0,8.0,0.0
3,42.15419,-71.06818,MA-24 N,Stoughton,Norfolk,MA,72.0,72.0,37.0,29.55,10.0,5.0,0.0
2,42.580582,-71.00959,Fuller Pond Rd,Middleton,Essex,MA,55.0,55.0,96.0,29.41,1.0,7.0,0.0
1,42.89864,-71.03830699999999,New Boston Rd,Kingston,Rockingham,NH,68.0,68.0,48.0,30.27,10.0,5.0,0.0
2,41.753425,-72.701453,I-84 W,Hartford,Hartford,CT,39.0,39.0,73.0,30.05,10.0,0.0,0.0
2,41.231893,-73.2173,CT-15 N,Trumbull,Fairfield,CT,57.0,57.0,89.0,30.2,10.0,6.0,0.0
2,42.314578999999995,-71.07884200000001,Quincy St,Dorchester,Suffolk,MA,27.0,16.0,33.0,30.66,10.0,13.0,0.0
2,42.557732,-71.28514100000001,River St,Billerica,Middlesex,MA,87.0,87.0,53.0,29.85,10.0,6.0,0.0
2,42.092651000000004,-70.970177,Brockton Ave,Abington,Plymouth,MA,85.0,85.0,49.0,29.92,10.0,6.0,0.0
4,42.07343,-72.58610999999999,I-91 S,Longmeadow,Hampden,MA,45.0,39.0,86.0,30.03,9.0,12.0,0.0
3,42.80134,-71.27176,I-93 S,Windham,Rockingham,NH,59.0,59.0,46.0,30.2,10.0,10.0,0.0
2,41.177927000000004,-73.18446899999999,Governor John Davis Lodge Tpke,Bridgeport,Fairfield,CT,66.0,66.0,73.0,30.11,10.0,13.0,0.0
2,42.512459,-71.00670600000001,Broadway,Lynnfield,Essex,MA,50.0,50.0,96.0,30.14,9.0,3.0,0.0
2,41.10099,-73.576553,CT-15 N,Stamford,Fairfield,CT,61.0,61.0,93.0,29.47,10.0,0.0,0.01
2,42.32103,-71.172607,Boylston St,Chestnut Hill,Middlesex,MA,36.0,36.0,46.0,30.26,10.0,0.0,0.0
2,42.156849,-70.85054000000001,Washington St,Hanover,Plymouth,MA,39.0,32.0,36.0,30.21,10.0,12.0,0.0
2,42.766769000000004,-71.10128,Westford St,Haverhill,Essex,MA,50.0,50.0,63.0,29.75,10.0,3.0,0.0
2,41.734559999999995,-72.747355,I-84 W,West Hartford,Hartford,CT,36.0,31.0,57.0,30.09,10.0,6.0,0.0
4,41.49481,-73.16098000000001,I-84 W,Southbury,New Haven,CT,32.0,26.0,96.0,29.23,10.0,6.0,0.0
3,42.29902,-73.23165,I-90 W,Lee,Berkshire,MA,30.0,24.0,86.0,28.89,2.0,6.0,0.02
2,41.551313,-73.03944,I-84 W,Waterbury,New Haven,CT,31.0,25.0,92.0,28.96,10.0,6.0,0.0
3,42.607437,-71.32495899999999,I-495 S,Lowell,Middlesex,MA,43.0,38.0,89.0,29.82,2.0,8.0,0.0
3,41.37661,-72.87093,I-91 S,North Haven,New Haven,CT,40.0,40.0,63.0,29.87,10.0,0.0,0.0
2,41.288917,-72.81639799999999,Governor John Davis Lodge Tpke S,Branford,New Haven,CT,63.0,63.0,90.0,30.13,10.0,8.0,0.0
2,42.127167,-70.914978,W Water St,Rockland,Plymouth,MA,93.0,93.0,41.0,29.63,10.0,10.0,0.0
2,41.69035,-72.75705699999999,CT-9 N,Newington,Hartford,CT,42.0,35.0,82.0,30.11,10.0,13.0,0.01
2,42.66746,-71.19024,I-495 S,Andover,Essex,MA,38.0,38.0,62.0,29.96,10.0,0.0,0.0
3,42.21048,-71.78456899999999,Route 20 Connector,Worcester,Worcester,MA,65.0,65.0,97.0,28.82,1.0,8.0,0.01
3,41.34758,-72.86819,I-91 S,North Haven,New Haven,CT,84.0,84.0,58.0,29.6,10.0,10.0,0.0
3,42.371449,-71.066399,Leonard P Zakim Bunker Hill Memorial Brg,Charlestown,Suffolk,MA,70.0,70.0,87.0,29.99,10.0,7.0,0.01
2,41.783581,-71.460411,Park Ave,Cranston,Providence,RI,70.0,70.0,93.0,30.03,10.0,0.0,0.0
2,41.019484000000006,-73.62898299999999, Shore Rd,Greenwich,Fairfield,CT,29.0,17.0,67.0,29.2,10.0,16.0,0.0
2,41.483677,-73.05023,Ansonia Derby Expy S,Naugatuck,New Haven,CT,27.0,14.0,66.0,29.5,10.0,17.0,0.0
3,41.16766,-73.228218,Governor John Davis Lodge Tpke,Fairfield,Fairfield,CT,34.0,22.0,56.0,29.38,10.0,24.0,0.0
2,42.344311,-71.074463,Dartmouth St,Boston,Suffolk,MA,54.0,54.0,49.0,29.79,10.0,21.0,0.0
2,41.758722,-72.64328499999999,CT-15 N,East Hartford,Hartford,CT,52.0,52.0,86.0,30.17,10.0,5.0,0.0
3,43.528301,-70.451988,I-95 N,Saco,York,ME,56.0,56.0,32.0,29.98,10.0,5.0,0.0
2,42.458690999999995,-71.359032,Main St,Concord,Middlesex,MA,85.0,85.0,41.0,29.96,10.0,8.0,0.0
2,41.290751,-72.57417,Governor John Davis Lodge Tpke N,Madison,New Haven,CT,37.0,32.0,56.0,29.33,10.0,7.0,0.0
3,42.576225,-71.15151999999999,I-93 S,Wilmington,Middlesex,MA,39.0,39.0,62.0,29.7,10.0,3.0,0.0
2,42.341869,-71.262741,I-95 N,Weston,Middlesex,MA,26.0,19.0,32.0,30.54,10.0,6.0,0.0
2,42.367779999999996,-71.2698,I-95 S,Waltham,Middlesex,MA,60.0,60.0,90.0,29.33,6.0,17.0,0.09
3,42.51215,-71.00721999999999, Broadway,Lynnfield,Essex,MA,44.0,44.0,58.0,29.79,10.0,0.0,0.0
4,41.92089,-72.612148,I-91 S,East Windsor,Hartford,CT,57.0,57.0,93.0,29.91,10.0,7.0,0.0
2,41.584872,-72.053242,I-395 S,Norwich,New London,CT,65.0,65.0,75.0,30.16,10.0,9.0,0.0
3,41.767406,-72.669525,Columbus Blvd,Hartford,Hartford,CT,63.0,63.0,72.0,29.66,10.0,0.0,0.0
3,41.874062,-71.38114200000001,US-1 N,Pawtucket,Providence,RI,56.0,56.0,93.0,29.45,10.0,5.0,0.0
2,41.474385999999996,-73.214682,I-84 E,Southbury,New Haven,CT,47.0,45.0,97.0,29.37,10.0,5.0,0.0
3,41.69883,-72.75805, Ella Grasso Rd,New Britain,Hartford,CT,47.0,44.0,80.0,30.22,10.0,6.0,0.0
2,42.36424,-71.06991,Storrow Dr,Boston,Suffolk,MA,66.0,66.0,48.0,29.72,10.0,18.0,0.0
3,42.46376,-71.02493, Broadway,Saugus,Essex,MA,69.0,69.0,47.0,30.36,10.0,13.0,0.0
3,42.34024,-71.270844,Park Rd,Weston,Middlesex,MA,43.0,36.0,89.0,30.02,10.0,14.0,0.0
2,42.40229,-71.082779,Fellsway,Medford,Middlesex,MA,56.0,56.0,55.0,29.74,10.0,3.0,0.0
2,41.542106,-72.780357,I-691 E,Meriden,New Haven,CT,58.0,58.0,81.0,29.81,10.0,0.0,0.0
2,41.609033000000004,-72.70135,I-91 S,Cromwell,Middlesex,CT,62.0,62.0,84.0,30.03,10.0,6.0,0.0
2,42.037487,-71.306747,Washington St,Plainville,Norfolk,MA,35.0,35.0,70.0,29.45,10.0,3.0,0.0
1,41.81413,-71.3671,US-6 W,East Providence,Providence,RI,64.0,64.0,75.0,29.76,10.0,9.0,0.0
3,42.51215,-71.00721999999999, Broadway,Lynnfield,Essex,MA,42.0,42.0,73.0,29.77,10.0,0.0,0.0
2,41.106429999999996,-73.415526,Governor John Davis Lodge Tpke,Norwalk,Fairfield,CT,49.0,47.0,74.0,29.73,10.0,6.0,0.0
3,42.02414,-71.26135,I-95 S,Mansfield,Bristol,MA,57.0,57.0,69.0,29.82,10.0,0.0,0.0
2,42.421051,-71.08602900000001,Fellsway,Malden,Middlesex,MA,41.0,37.0,93.0,30.1,8.0,6.0,0.0
2,41.749481,-72.70966700000001,I-84 E,Hartford,Hartford,CT,22.0,22.0,82.0,30.28,8.0,0.0,0.0
2,42.41782,-71.11219,Mystic Valley Pkwy,Medford,Middlesex,MA,67.0,67.0,47.0,29.98,10.0,20.0,0.0
2,41.555131,-73.05538,CT-8 S,Waterbury,New Haven,CT,40.0,40.0,89.0,29.38,10.0,0.0,0.0
2,41.22906,-73.186229,CT-25 N,Trumbull,Fairfield,CT,63.0,63.0,72.0,30.29,10.0,10.0,0.0
2,41.86873,-71.05638,MA-24 N,Taunton,Bristol,MA,46.0,40.0,89.0,29.21,8.0,14.0,0.0
3,41.417629,-73.42031899999999,Federal Rd,Danbury,Fairfield,CT,60.0,60.0,31.0,30.02,10.0,13.0,0.0
2,45.247690000000006,-68.67913,I-95 S,Howland,Penobscot,ME,30.0,18.0,66.0,29.46,10.0,18.0,0.0
2,41.216679,-73.182259,CT-25 S,Bridgeport,Fairfield,CT,75.0,75.0,62.0,30.05,10.0,9.0,0.0
2,41.34729,-72.56289699999999,Stevens Rd,Killingworth,Middlesex,CT,34.0,30.0,93.0,29.48,5.0,5.0,0.0
2,42.549778,-70.93679,MA-128 S,Danvers,Essex,MA,61.0,61.0,75.0,29.74,10.0,6.0,0.0
2,41.759068,-72.647492,US-5 S,East Hartford,Hartford,CT,77.0,77.0,31.0,30.15,10.0,0.0,0.0
3,42.70224,-71.20997,I-93 N,Methuen,Essex,MA,62.0,62.0,18.0,29.48,10.0,10.0,0.0
2,41.183673999999996,-73.14002099999999,Governor John Davis Lodge Tpke,Stratford,Fairfield,CT,38.0,38.0,97.0,30.14,4.0,0.0,0.0
2,41.765457,-72.648842,I-84 W,East Hartford,Hartford,CT,62.0,62.0,38.0,30.38,10.0,9.0,0.0
2,42.447338,-71.360252,Concord Tpke,Concord,Middlesex,MA,62.0,62.0,75.0,30.02,10.0,7.0,0.0
2,41.640789,-71.20436099999999,RI-24 N,Tiverton,Newport,RI,48.0,42.0,54.0,29.82,10.0,14.0,0.0
4,43.291859,-71.573212,I-93 S,Canterbury,Merrimack,NH,49.0,47.0,93.0,29.56,3.0,6.0,0.01
2,41.139083,-73.287387,Governor John Davis Lodge Tpke,Southport,Fairfield,CT,39.0,32.0,57.0,30.15,10.0,12.0,0.0
2,42.025261,-70.697189,Chestnut St,Duxbury,Plymouth,MA,81.0,81.0,37.0,30.11,10.0,8.0,0.0
2,41.315556,-72.90800899999999,I-91 S,New Haven,New Haven,CT,39.0,35.0,55.0,30.18,10.0,6.0,0.0
2,42.549778,-70.93679,MA-128 S,Danvers,Essex,MA,80.0,80.0,54.0,29.84,10.0,10.0,0.0
2,42.394459000000005,-71.17063900000001,Concord Ave,Belmont,Middlesex,MA,70.0,70.0,61.0,29.88,10.0,8.0,0.0
3,41.171875,-73.191666,Warren St,Bridgeport,Fairfield,CT,83.0,83.0,32.0,30.01,10.0,15.0,0.0
2,42.323181,-71.115669,Parkwood Ter,Jamaica Plain,Suffolk,MA,41.0,33.0,25.0,30.16,10.0,16.0,0.0
3,42.52353,-71.57857,MA-2 W,Harvard,Worcester,MA,66.0,66.0,56.0,29.71,10.0,5.0,0.0
3,42.549988,-71.480637,Great Rd,Littleton,Middlesex,MA,57.0,57.0,96.0,29.64,2.0,7.0,0.2
2,42.15159,-71.194399,I-95 S,East Walpole,Norfolk,MA,51.0,51.0,80.0,30.17,10.0,0.0,0.0
2,41.29209,-72.92079,Governor John Davis Lodge Tpke S,New Haven,New Haven,CT,44.0,39.0,60.0,30.23,10.0,9.0,0.0
3,42.52541,-71.06482700000001,I-95 N,Lynnfield,Essex,MA,32.0,24.0,56.0,29.87,10.0,9.0,0.0
2,41.681152000000004,-72.81814399999999,I-84 W,New Britain,Hartford,CT,59.0,59.0,78.0,30.31,10.0,8.0,0.0
2,42.60512,-71.34458000000001,I-495 N,Chelmsford,Middlesex,MA,46.0,40.0,93.0,29.43,1.0,15.0,0.06
3,41.281898,-72.862465,Governor John Davis Lodge Tpke N,East Haven,New Haven,CT,49.0,44.0,74.0,29.78,10.0,12.0,0.0
2,41.742796000000006,-72.7348,I-84 E,West Hartford,Hartford,CT,45.0,42.0,90.0,29.95,10.0,6.0,0.0
2,41.840019,-71.411263,I-95 S,Providence,Providence,RI,77.0,77.0,56.0,29.62,10.0,5.0,0.0
3,41.177113,-73.172874,Governor John Davis Lodge Tpke,Bridgeport,Fairfield,CT,70.0,70.0,55.0,30.36,10.0,8.0,0.0
2,41.292159999999996,-72.92071999999999,Governor John Davis Lodge Tpke S,New Haven,New Haven,CT,34.0,34.0,75.0,30.34,8.0,0.0,0.0
4,41.6171,-72.69575999999999,I-91 N,Cromwell,Middlesex,CT,57.0,57.0,45.0,30.24,10.0,9.0,0.0
2,42.479592,-71.209784,I-95 S,Burlington,Middlesex,MA,31.0,31.0,82.0,29.58,10.0,0.0,0.0
3,42.874481,-70.885017,Lena Maes Way,Salisbury,Essex,MA,37.0,30.0,73.0,29.9,10.0,10.0,0.0
2,42.33897,-71.262741,Riverside Rd,Weston,Middlesex,MA,36.0,36.0,70.0,29.6,10.0,3.0,0.0
2,42.87405,-72.332489,W Swanzey Rd,Swanzey,Cheshire,NH,68.0,68.0,78.0,29.64,10.0,6.0,0.0
2,41.846827000000005,-71.87939200000001,I-395 N,Dayville,Windham,CT,35.0,31.0,61.0,29.89,10.0,5.0,0.0
3,41.280174,-72.959282,Governor John Davis Lodge Tpke S,West Haven,New Haven,CT,36.0,36.0,86.0,29.88,10.0,0.0,0.0
2,41.67654,-71.448479,Post Rd,East Greenwich,Kent,RI,75.0,75.0,87.0,29.96,10.0,3.0,0.0
2,43.665611,-71.490273,NH Route 25,Meredith,Belknap,NH,66.0,66.0,60.0,29.02,10.0,0.0,0.03
2,42.311409000000005,-71.052902,I-93 S,Dorchester,Suffolk,MA,63.0,63.0,67.0,30.06,10.0,13.0,0.0
2,42.761742,-71.23028599999999,Macfarland Rd,Salem,Rockingham,NH,19.0,19.0,100.0,30.32,10.0,3.0,0.0
2,42.329525,-71.06055500000001,I-93 S,Dorchester,Suffolk,MA,41.0,33.0,25.0,30.16,10.0,16.0,0.0
2,41.368181,-72.15154100000001,I-95 S,Waterford,New London,CT,44.0,35.0,49.0,29.7,10.0,22.0,0.0
2,41.563115,-72.789484, Hidden Valley Dr,Meriden,New Haven,CT,29.0,20.0,61.0,29.58,10.0,10.0,0.0
2,42.345852,-71.14116700000001,Commonwealth Ave,Brighton,Suffolk,MA,91.0,91.0,36.0,29.92,10.0,15.0,0.0
2,41.163433000000005,-73.383463,CT-15 S,Westport,Fairfield,CT,56.0,56.0,84.0,29.98,10.0,0.0,0.07
2,41.78893,-72.56396,Wilbur Cross Hwy N,Manchester,Hartford,CT,41.0,36.0,79.0,29.69,10.0,7.0,0.0
2,41.834019,-70.742989,Wareham St,Carver,Plymouth,MA,45.0,41.0,68.0,29.66,10.0,7.0,0.0
2,42.338295,-71.064751,I-93 S,Boston,Suffolk,MA,44.0,37.0,93.0,29.74,2.0,14.0,0.14
2,41.88094,-71.37705,US-1 N,Pawtucket,Providence,RI,42.0,33.0,34.0,29.25,10.0,22.0,0.0
2,41.318249,-73.004115,CT-15 S,Woodbridge,New Haven,CT,65.0,65.0,40.0,29.85,10.0,6.0,0.0
2,41.893009,-71.37745699999999,Roosevelt Ave,Pawtucket,Providence,RI,53.0,53.0,100.0,29.54,2.0,13.0,0.04
2,44.90798,-73.0992,I-89 S,Swanton,Franklin,VT,22.0,13.0,86.0,29.91,0.75,8.0,0.0
2,42.374451,-71.23625899999999,Carter St,Waltham,Middlesex,MA,78.0,78.0,54.0,29.71,10.0,8.0,0.0
3,41.2012,-73.27181999999999,CT-15 S,Fairfield,Fairfield,CT,40.0,34.0,77.0,30.05,10.0,9.0,0.0
3,41.762474,-72.634445,I-84 E,East Hartford,Hartford,CT,66.0,66.0,90.0,29.89,8.0,0.0,0.0
4,41.78705,-72.71343, Albany Ave,Hartford,Hartford,CT,48.0,42.0,42.0,29.25,10.0,16.0,0.0
2,42.026084999999995,-70.890755,Elm St,Halifax,Plymouth,MA,65.0,65.0,100.0,30.02,0.5,3.0,0.0
2,41.028238,-73.60199300000001,I-95 N,Greenwich,Fairfield,CT,52.0,52.0,97.0,29.81,9.0,0.0,0.0
3,41.712709999999994,-71.47126,I-95 N,Warwick,Kent,RI,72.0,72.0,78.0,29.97,10.0,22.0,0.0
2,42.304218,-71.059189,Kimball St,Dorchester,Suffolk,MA,56.0,56.0,64.0,29.91,10.0,10.0,0.0
2,41.55553,-72.74377,I-91 S,Middletown,Middlesex,CT,47.0,44.0,37.0,30.21,10.0,6.0,0.0
2,42.347683,-71.231789,Washington St,West Newton,Middlesex,MA,36.0,30.0,48.0,29.94,10.0,8.0,0.0
2,42.336861,-71.065613,I-93 S,Boston,Suffolk,MA,44.0,37.0,93.0,29.74,2.0,14.0,0.14
3,42.356853,-71.1847,I-90 W,Newton,Middlesex,MA,57.0,57.0,89.0,30.03,4.0,14.0,0.1
2,42.468311,-70.95446,Washington St,Lynn,Essex,MA,34.0,27.0,82.0,29.88,2.0,9.0,0.0
2,42.563671,-71.271103,Good St,Billerica,Middlesex,MA,24.0,18.0,91.0,29.49,5.0,5.0,0.0
4,43.43828,-72.05076,I-89 S,New London,Merrimack,NH,31.0,31.0,96.0,29.36,1.0,0.0,0.01
2,42.646252000000004,-71.27224,Andover St,Lowell,Middlesex,MA,34.0,30.0,75.0,29.74,10.0,5.0,0.0
3,42.805851000000004,-71.27239200000001,I-93 S,Windham,Rockingham,NH,88.0,88.0,45.0,29.8,10.0,14.0,0.0
2,42.411559999999994,-71.079178,Middlesex Ave,Medford,Middlesex,MA,91.0,91.0,50.0,29.72,10.0,8.0,0.0
3,41.823475,-71.419296,Aborn St,Providence,Providence,RI,75.0,75.0,66.0,29.92,10.0,8.0,0.0
3,42.34786,-71.0508,Ted Williams Tunnel,Boston,Suffolk,MA,87.0,87.0,28.0,29.78,10.0,13.0,0.0
3,42.226028,-71.181343,US-1 N,Westwood,Norfolk,MA,45.0,43.0,82.0,29.98,10.0,5.0,0.0
2,42.839443,-70.935516,I-495 N,Amesbury,Essex,MA,33.0,33.0,96.0,29.59,3.0,0.0,0.0
2,42.203213,-71.096954,I-93 S,Milton,Norfolk,MA,55.0,55.0,83.0,29.79,10.0,0.0,0.0
2,42.333103,-71.255859,I-95 S,Newton Lower Falls,Middlesex,MA,73.0,73.0,57.0,29.92,10.0,10.0,0.0
4,41.357828000000005,-73.092588,CT-8 S,Ansonia,New Haven,CT,52.0,52.0,93.0,29.26,10.0,12.0,0.0
2,42.852759999999996,-71.27606999999999,Windham Depot Rd,Derry,Rockingham,NH,34.0,27.0,31.0,29.77,10.0,9.0,0.0
2,42.478035,-71.21453100000001,I-95 N,Burlington,Middlesex,MA,60.0,60.0,33.0,29.72,10.0,15.0,0.0
2,44.294041,-72.39829300000001,US Route 2,Plainfield,Washington,VT,73.0,73.0,66.0,28.83,10.0,5.0,0.0
3,41.168484,-73.199768,Governor John Davis Lodge Tpke,Bridgeport,Fairfield,CT,47.0,43.0,74.0,30.17,10.0,8.0,0.0
2,42.463692,-71.06298100000001,Melrose St,Melrose,Middlesex,MA,80.0,80.0,76.0,29.95,10.0,9.0,0.0
2,41.170932,-73.192752,Governor John Davis Lodge Tpke,Bridgeport,Fairfield,CT,58.0,58.0,70.0,30.1,10.0,8.0,0.0
2,42.262859000000006,-71.01213800000001,Hancock St,Quincy,Norfolk,MA,80.0,80.0,39.0,29.83,10.0,6.0,0.0
2,41.920899,-72.61212900000001,I-91 S,East Windsor,Hartford,CT,61.0,61.0,83.0,29.92,10.0,10.0,0.0
2,41.12271,-73.34916,Governor John Davis Lodge Tpke,Westport,Fairfield,CT,38.0,31.0,93.0,29.53,4.0,9.0,0.01
2,41.302109,-73.02642800000001,Derby Ave,Orange,New Haven,CT,38.0,38.0,70.0,30.45,10.0,3.0,0.0
2,42.3073,-71.80856,I-190 S,Worcester,Worcester,MA,30.0,21.0,92.0,29.15,0.5,12.0,0.05
3,42.29286,-71.48479,I-90 W,Framingham,Middlesex,MA,46.0,42.0,86.0,30.26,1.0,8.0,0.0
2,42.811588,-71.01258100000001,Amesbury Line Rd,Haverhill,Essex,MA,29.0,29.0,96.0,29.76,4.0,0.0,0.0
2,42.34111,-71.26517,MA-128 S,Weston,Middlesex,MA,77.0,77.0,74.0,29.6,10.0,13.0,0.0
3,42.762203,-71.122849,I-495 S,Haverhill,Essex,MA,10.0,10.0,64.0,30.3,10.0,3.0,0.0
2,42.203151,-71.09638100000001,Ponkapoag Trl,Milton,Norfolk,MA,74.0,74.0,46.0,29.86,10.0,16.0,0.0
2,42.12635,-72.600998,Caseland St,Springfield,Hampden,MA,38.0,38.0,93.0,29.41,1.0,0.0,0.0
3,41.10099,-73.576553,CT-15 N,Stamford,Fairfield,CT,78.0,78.0,64.0,29.42,10.0,8.0,0.0
2,41.724153,-71.480537,I-295 N,Warwick,Kent,RI,50.0,50.0,52.0,30.29,10.0,5.0,0.0
3,41.108776,-73.405991,Governor John Davis Lodge Tpke,Norwalk,Fairfield,CT,58.0,58.0,90.0,29.79,10.0,13.0,0.0
2,41.940231,-72.002243,Rocky Hill Rd,Woodstock,Windham,CT,31.0,23.0,38.0,30.09,10.0,8.0,0.0
2,42.347012,-71.07972,Huntington Ave,Boston,Suffolk,MA,67.0,67.0,79.0,29.8,10.0,6.0,0.0
2,42.35696,-71.13574200000001,I-90 E,Allston,Suffolk,MA,47.0,44.0,37.0,30.03,10.0,7.0,0.0
3,42.664112,-71.194603,I-495 S,Andover,Essex,MA,35.0,35.0,76.0,29.81,10.0,0.0,0.0
2,42.357189,-71.072998,Storrow Dr,Boston,Suffolk,MA,73.0,73.0,84.0,29.47,10.0,21.0,0.0
2,41.730160999999995,-72.660623,I-91 S,Hartford,Hartford,CT,73.0,73.0,46.0,29.92,10.0,15.0,0.0
2,42.624882,-71.31980899999999,Lowell Connector N,Lowell,Middlesex,MA,48.0,45.0,96.0,29.63,2.0,6.0,0.11
3,42.487021999999996,-71.545029,I-495 S,Boxborough,Middlesex,MA,30.0,21.0,41.0,30.26,10.0,12.0,0.0
3,42.274883,-71.05029300000001,I-93 S,Milton,Norfolk,MA,74.0,74.0,76.0,30.0,10.0,8.0,0.0
2,41.76594,-72.68802,I-84 E,Hartford,Hartford,CT,43.0,38.0,47.0,30.14,10.0,9.0,0.0
2,41.79733,-71.40356,I-95 N,Providence,Providence,RI,57.0,57.0,30.0,30.01,10.0,3.0,0.0
3,41.930092,-72.608627,I-91 N,East Windsor,Hartford,CT,77.0,77.0,33.0,29.52,10.0,16.0,0.0
2,41.545807,-73.044762,Bank St,Waterbury,New Haven,CT,75.0,75.0,69.0,28.86,10.0,3.0,0.0
2,42.401749,-71.041527,Revere Beach Pkwy,Everett,Middlesex,MA,52.0,52.0,93.0,29.97,10.0,7.0,0.0
4,41.68248,-72.41521, Gilead St,Hebron,Tolland,CT,35.0,29.0,61.0,29.57,10.0,8.0,0.0
2,42.572047999999995,-71.427551,Boston Rd,Westford,Middlesex,MA,39.0,32.0,76.0,29.92,10.0,12.0,0.0
3,42.17112,-71.17085300000001,I-95 N,Norwood,Norfolk,MA,60.0,60.0,86.0,29.74,1.0,8.0,0.14
2,41.706343,-72.802695,I-84 W,Farmington,Hartford,CT,51.0,51.0,89.0,29.97,10.0,0.0,0.0
2,42.648861,-71.29055799999999,Bradley St,Lowell,Middlesex,MA,74.0,74.0,50.0,29.97,10.0,5.0,0.0
3,42.374142,-71.070961,Leonard P Zakim Bunker Hill Memorial Brg,Charlestown,Suffolk,MA,33.0,23.0,85.0,30.0,10.0,15.0,0.0
4,42.47749,-71.11332,I-93 S,Woburn,Middlesex,MA,50.0,50.0,35.0,29.45,10.0,8.0,0.0
3,41.970290999999996,-71.295868,I-95 S,Attleboro Falls,Bristol,MA,68.0,68.0,90.0,29.59,10.0,0.0,0.0
2,42.60281,-71.25515,Whipple Rd,Tewksbury,Middlesex,MA,85.0,85.0,46.0,29.84,10.0,5.0,0.0
2,41.55595,-72.642647,CT-17,Middletown,Middlesex,CT,27.0,16.0,56.0,30.05,10.0,14.0,0.0
2,43.546532,-71.485077,N Main St,Laconia,Belknap,NH,39.0,39.0,82.0,29.52,10.0,0.0,0.0
2,42.359451,-71.194778,Jackson Rd,Newton,Middlesex,MA,70.0,70.0,76.0,30.07,10.0,0.0,0.02
2,42.956559999999996,-70.85731,I-95 N,Hampton,Rockingham,NH,15.0,15.0,48.0,30.28,10.0,3.0,0.0
2,42.309689,-71.115463,South St,Jamaica Plain,Suffolk,MA,56.0,56.0,80.0,30.23,10.0,13.0,0.0
2,41.522729999999996,-72.81151, Old Colony Rd,Meriden,New Haven,CT,63.0,63.0,93.0,29.84,5.0,5.0,0.03
2,43.387859999999996,-71.97221,I-89 S,New London,Merrimack,NH,36.0,30.0,86.0,29.3,10.0,7.0,0.0
2,41.918925,-72.614983,I-91 N,East Windsor,Hartford,CT,61.0,61.0,83.0,29.92,10.0,10.0,0.0
4,42.285140000000006,-71.5671,I-495 S,Westborough,Worcester,MA,35.0,27.0,82.0,28.74,10.0,12.0,0.0
2,41.8331,-72.66565,I-91 S,Windsor,Hartford,CT,66.0,66.0,84.0,30.03,6.0,6.0,0.0
2,41.504749,-73.14560999999999,I-84 E,Middlebury,New Haven,CT,68.0,68.0,96.0,29.34,10.0,8.0,0.0
3,42.42622,-71.10334,I-93 S,Medford,Middlesex,MA,36.0,27.0,62.0,30.57,10.0,14.0,0.0
2,41.00707,-73.647661,I-95 S,Greenwich,Fairfield,CT,33.0,33.0,72.0,29.87,10.0,0.0,0.0
3,42.027027000000004,-71.257225,I-95 S,Foxboro,Norfolk,MA,55.0,55.0,86.0,30.04,10.0,3.0,0.0
2,42.30101,-71.114594,Washington St,Jamaica Plain,Suffolk,MA,46.0,41.0,44.0,30.05,10.0,12.0,0.0
3,41.659909999999996,-71.48977,RI-4 N,East Greenwich,Kent,RI,80.0,80.0,67.0,30.02,10.0,16.0,0.0
2,41.60085,-72.67173000000001,CT-9 N,Cromwell,Middlesex,CT,52.0,52.0,31.0,30.05,10.0,0.0,0.0
4,41.97121,-72.4437, Jamestown Rd,Somers,Tolland,CT,45.0,41.0,76.0,29.56,10.0,7.0,0.0
2,41.76995,-70.733232, Cranberry Hwy,Wareham,Plymouth,MA,39.0,34.0,96.0,29.75,10.0,7.0,0.0
2,42.310188000000004,-71.072327,Hamilton St,Dorchester,Suffolk,MA,70.0,70.0,29.0,29.79,10.0,12.0,0.0
2,42.499466,-71.157074,I-95 N,Woburn,Middlesex,MA,79.0,79.0,47.0,29.74,10.0,13.0,0.0
3,42.33878,-71.26818,Park Rd,Weston,Middlesex,MA,87.0,87.0,46.0,29.92,10.0,13.0,0.0
2,41.9538,-70.814453,Main St,Plympton,Plymouth,MA,50.0,50.0,32.0,29.51,10.0,15.0,0.0
3,41.289932,-72.66561899999999,Governor John Davis Lodge Tpke S,Guilford,New Haven,CT,36.0,36.0,65.0,29.47,10.0,0.0,0.0
3,42.802624,-71.051575,I-495 S,Haverhill,Essex,MA,14.0,2.0,59.0,30.0,10.0,9.0,0.0
4,41.41767,-73.29077,I-84 E,Newtown,Fairfield,CT,45.0,40.0,53.0,29.26,10.0,9.0,0.0
2,42.624393,-71.176514,I-93 N,Andover,Essex,MA,33.0,23.0,52.0,29.7,10.0,15.0,0.0
4,41.1101,-73.55104,Merritt Pkwy N,Stamford,Fairfield,CT,49.0,46.0,77.0,29.72,10.0,7.0,0.0
2,42.288685,-71.04298399999999,I-93 N,Dorchester,Suffolk,MA,54.0,54.0,47.0,30.26,10.0,21.0,0.0
2,41.019489,-73.628876,I-95 S,Greenwich,Fairfield,CT,47.0,44.0,61.0,29.53,10.0,7.0,0.0
2,42.338905,-71.262665,Riverside Rd,Weston,Middlesex,MA,34.0,34.0,96.0,30.25,10.0,0.0,0.0
3,42.20303,-71.097557,I-93 N,Milton,Norfolk,MA,36.0,36.0,39.0,30.52,10.0,3.0,0.0
3,41.61193,-71.49436,RI-4 S,East Greenwich,Kent,RI,80.0,80.0,56.0,29.49,10.0,14.0,0.0
2,42.28764,-71.093925,Morton St,Mattapan,Suffolk,MA,37.0,30.0,26.0,29.69,10.0,10.0,0.0
2,42.626892,-71.38988499999999,US-3 S,North Chelmsford,Middlesex,MA,42.0,42.0,49.0,30.02,10.0,0.0,0.0
2,41.902769,-72.457678, Somers Rd,Ellington,Tolland,CT,44.0,39.0,71.0,29.91,10.0,9.0,0.0
3,41.8045,-71.07592,MA-24 N,Assonet,Bristol,MA,58.0,58.0,42.0,29.99,10.0,5.0,0.0
2,42.32352,-71.05479,I-93 N,Dorchester,Suffolk,MA,51.0,51.0,66.0,30.25,10.0,18.0,0.0
2,42.33559,-71.039497,E Broadway,Boston,Suffolk,MA,57.0,57.0,100.0,30.3,0.5,8.0,0.0
2,42.456879,-71.067886,Essex St,Melrose,Middlesex,MA,41.0,37.0,82.0,30.05,4.0,6.0,0.05
2,41.754049,-72.652803,CT-15 S,East Hartford,Hartford,CT,48.0,46.0,89.0,29.79,2.0,5.0,0.09
3,41.676491,-72.818031,I-84 E,New Britain,Hartford,CT,93.0,93.0,38.0,29.77,10.0,7.0,0.0
2,41.001201,-73.652397,I-95 S,Greenwich,Fairfield,CT,46.0,43.0,76.0,29.59,10.0,6.0,0.0
2,43.613667,-71.642746,I-93 S,New Hampton,Belknap,NH,76.0,76.0,37.0,29.36,10.0,12.0,0.0
3,42.480083,-71.115051,I-93 S,Woburn,Middlesex,MA,20.0,7.0,44.0,30.3,10.0,14.0,0.0
2,41.164945,-73.354371,CT-15 N,Westport,Fairfield,CT,66.0,66.0,65.0,29.89,10.0,0.0,0.0
3,41.50966,-71.69418,I-95 N,Wyoming,Washington,RI,66.0,66.0,20.0,29.69,10.0,15.0,0.0
3,41.96997,-71.29531999999999,I-95 N,Attleboro Falls,Bristol,MA,60.0,60.0,78.0,29.34,10.0,13.0,0.0
3,42.288788000000004,-71.567619,Turnpike Rd,Westborough,Worcester,MA,34.0,29.0,89.0,29.24,10.0,6.0,0.0
3,41.540981,-72.9515,Waterbury Rd,Cheshire,New Haven,CT,49.0,49.0,93.0,29.9,0.75,0.0,0.0
2,44.15325,-70.61389, Norway Rd,Harrison,Cumberland,ME,36.0,32.0,64.0,29.11,10.0,5.0,0.0
2,43.68522,-71.64224,I-93 N,New Hampton,Belknap,NH,63.0,63.0,58.0,29.28,10.0,9.0,0.0
2,41.120399,-73.374048,Governor John Davis Lodge Tpke,Westport,Fairfield,CT,39.0,29.0,67.0,29.89,10.0,21.0,0.0
2,42.780701,-71.114151,Casablanca Ct,Haverhill,Essex,MA,66.0,66.0,93.0,29.73,3.0,6.0,0.02
3,42.480083,-71.115051,I-93 S,Woburn,Middlesex,MA,66.0,66.0,90.0,29.71,10.0,0.0,0.0
2,41.744820000000004,-72.64023,CT-2 E,East Hartford,Hartford,CT,60.0,60.0,90.0,29.53,1.0,23.0,0.23
2,41.960231,-71.87561600000001,I-395 N,Thompson,Windham,CT,24.0,17.0,81.0,29.3,10.0,6.0,0.0
2,41.235369,-73.045424,I-95 S,Milford,New Haven,CT,69.0,69.0,93.0,29.45,1.0,17.0,0.03
3,42.499309999999994,-71.47324,MA-2 W,Littleton,Middlesex,MA,44.0,39.0,96.0,29.35,4.0,10.0,0.01
2,44.02836,-69.91298,I-295 N,Bowdoinham,Sagadahoc,ME,55.0,55.0,45.0,29.81,10.0,6.0,0.0
3,42.34582,-71.05958000000001,MA-3 N,Boston,Suffolk,MA,39.0,30.0,96.0,29.99,1.0,18.0,0.02
4,41.65133,-73.07956,James H Darcey Memorial Hwy N,Thomaston,Litchfield,CT,33.0,27.0,92.0,29.21,10.0,7.0,0.0
2,41.227043,-73.425203, Danbury Rd,Wilton,Fairfield,CT,45.0,42.0,42.0,29.64,10.0,6.0,0.0
3,42.15416,-71.06848000000001,MA-24 S,Stoughton,Norfolk,MA,42.0,34.0,79.0,29.82,5.0,18.0,0.02
2,42.299969,-71.058823,Lincoln St,Dorchester,Suffolk,MA,30.0,20.0,38.0,30.02,10.0,14.0,0.0
2,42.316944,-71.22776800000001,Boylston St,Waban,Middlesex,MA,71.0,71.0,73.0,30.12,10.0,7.0,0.0
2,41.765695,-72.688797,I-84 E,Hartford,Hartford,CT,36.0,36.0,93.0,30.01,0.5,0.0,0.0
3,42.356297,-71.050804,Atlantic Ave,Boston,Suffolk,MA,63.0,63.0,52.0,30.12,10.0,13.0,0.0
3,41.818333,-71.382172,US-44 E,East Providence,Providence,RI,38.0,33.0,51.0,29.63,10.0,7.0,0.0
2,41.015403000000006,-73.638237,I-95 S,Greenwich,Fairfield,CT,72.0,72.0,61.0,29.7,10.0,14.0,0.0
3,41.284034999999996,-72.93499,Governor John Davis Lodge Tpke S,New Haven,New Haven,CT,66.0,66.0,60.0,30.24,10.0,14.0,0.0
4,41.411808,-73.267899,Berkshire Rd,Sandy Hook,Fairfield,CT,45.0,41.0,93.0,29.12,10.0,6.0,0.0
2,44.260948,-69.459846,Hewett Rd,Somerville,Lincoln,ME,85.0,85.0,63.0,29.36,10.0,7.0,0.0
4,41.994679999999995,-73.2041, Greenwoods Rd W,Norfolk,Litchfield,CT,47.0,41.0,83.0,29.69,10.0,15.0,0.0
2,42.535099,-71.236412,Boston Rd,Billerica,Middlesex,MA,24.0,17.0,77.0,29.59,10.0,6.0,0.0
3,41.163909999999994,-73.237785,Governor John Davis Lodge Tpke,Fairfield,Fairfield,CT,69.0,69.0,93.0,30.0,10.0,6.0,0.0
3,42.208725,-71.78379100000001,I-90 E,Millbury,Worcester,MA,34.0,27.0,50.0,29.12,10.0,9.0,0.0
2,43.118190000000006,-70.82557,General Sullivan Brg W,Portsmouth,Rockingham,NH,26.0,26.0,53.0,30.2,10.0,0.0,0.0
2,41.771023,-72.67975899999999,I-84 E,Hartford,Hartford,CT,42.0,42.0,96.0,29.9,0.25,0.0,0.0
2,41.178334,-73.175865,I-95 S,Bridgeport,Fairfield,CT,60.0,60.0,86.0,29.92,10.0,7.0,0.0
2,42.73307,-71.47015400000001,Everett Tpke N,Nashua,Hillsborough,NH,8.0,0.0,70.0,30.12,10.0,5.0,0.0
3,42.257839000000004,-71.793289,I-290 E,Worcester,Worcester,MA,67.0,67.0,90.0,28.92,4.0,16.0,0.0
2,42.343021,-71.062599,W 4th St,Boston,Suffolk,MA,74.0,74.0,68.0,29.84,10.0,12.0,0.0
4,41.198712,-73.118414,Governor John Davis Lodge Tpke,Stratford,Fairfield,CT,70.0,70.0,47.0,29.7,10.0,16.0,0.0
2,41.372162,-71.968377,I-95 N,Mystic,New London,CT,60.0,60.0,57.0,30.1,10.0,3.0,0.0
4,42.36083,-71.05368,Surface Rd,Boston,Suffolk,MA,85.0,85.0,30.0,29.91,10.0,13.0,0.0
2,41.680525,-72.653485,I-91 N,Wethersfield,Hartford,CT,37.0,29.0,33.0,30.21,10.0,12.0,0.0
2,41.025684999999996,-73.609696,I-95 S,Greenwich,Fairfield,CT,55.0,55.0,40.0,29.8,10.0,14.0,0.0
2,42.22765,-71.01508299999999,MA-3 N,Braintree,Norfolk,MA,53.0,53.0,83.0,29.8,10.0,5.0,0.0
3,41.800743,-71.402214,Thurbers Ave,Providence,Providence,RI,71.0,71.0,59.0,29.91,10.0,8.0,0.0
2,41.680525,-72.653485,I-91 N,Wethersfield,Hartford,CT,54.0,54.0,83.0,30.2,10.0,0.0,0.0
2,41.117542,-73.38335500000001,Governor John Davis Lodge Tpke,Norwalk,Fairfield,CT,63.0,63.0,100.0,29.87,1.0,5.0,0.0
2,41.539807,-73.082726,I-84 W,Middlebury,New Haven,CT,56.0,56.0,93.0,29.13,9.0,13.0,0.0
2,42.429974,-71.102974,I-93 N,Medford,Middlesex,MA,44.0,39.0,53.0,29.82,10.0,9.0,0.0
3,44.324558,-71.80695300000001,I-93 S,Littleton,Grafton,NH,15.0,0.0,74.0,28.87,1.0,15.0,0.0
4,41.577453000000006,-72.131664, Route 32,North Franklin,New London,CT,30.0,22.0,61.0,29.46,10.0,8.0,0.0
2,42.418812,-70.986992,Revere Beach Blvd,Revere,Suffolk,MA,72.0,72.0,81.0,29.82,10.0,9.0,0.0
2,41.757477,-72.652491,CT-2 E,East Hartford,Hartford,CT,53.0,53.0,89.0,29.81,10.0,0.0,0.0
2,42.331059,-71.08270999999999,Ruggles St,Roxbury,Suffolk,MA,38.0,29.0,65.0,30.5,10.0,15.0,0.0
2,42.414947999999995,-71.257591,I-95 S,Waltham,Middlesex,MA,73.0,73.0,57.0,29.92,10.0,10.0,0.0
2,42.71022,-71.162437,Lawrence St,Lawrence,Essex,MA,70.0,70.0,57.0,29.95,10.0,7.0,0.0
2,41.544222999999995,-72.79535600000001, State St,Meriden,New Haven,CT,44.0,44.0,93.0,29.9,0.5,0.0,0.0
2,41.822033000000005,-71.420151,I-95 N,Providence,Providence,RI,63.0,63.0,78.0,30.06,10.0,9.0,0.0
2,42.314053,-71.27269,Worcester St,Wellesley Hills,Norfolk,MA,41.0,36.0,76.0,29.9,9.0,8.0,0.0
2,41.734336,-72.748457,I-84 W,West Hartford,Hartford,CT,30.0,25.0,69.0,30.36,10.0,5.0,0.0
2,42.187168,-70.97123,Summer St,Weymouth,Norfolk,MA,64.0,64.0,65.0,30.41,10.0,7.0,0.0
3,41.389992,-73.476875,I-84 W,Danbury,Fairfield,CT,56.0,56.0,53.0,29.48,10.0,7.0,0.0
3,41.835392,-71.416016,I-95 S,Providence,Providence,RI,38.0,33.0,55.0,29.93,10.0,7.0,0.0
2,42.385090000000005,-71.07518,Main St,Charlestown,Suffolk,MA,62.0,62.0,96.0,30.08,2.0,7.0,0.0
2,42.698848999999996,-71.141502,I-495 N,North Andover,Essex,MA,65.0,65.0,54.0,29.59,10.0,9.0,0.0
3,42.203236,-71.119324,I-93 S,Canton,Norfolk,MA,36.0,30.0,50.0,29.67,10.0,8.0,0.0
2,42.270466,-71.10067,Cummins Hwy,Mattapan,Suffolk,MA,39.0,39.0,57.0,30.17,10.0,0.0,0.0
3,42.29902,-73.23165,I-90 W,Lee,Berkshire,MA,31.0,23.0,79.0,28.83,2.0,9.0,0.02
2,42.347179,-71.545731,Main St,Marlborough,Middlesex,MA,38.0,38.0,43.0,30.13,10.0,0.0,0.0
2,42.19723,-71.07865,MA-24 S,Randolph,Norfolk,MA,65.0,65.0,87.0,29.76,9.0,8.0,0.23
4,41.692240000000005,-72.31482, Hennequin Rd,Columbia,Tolland,CT,64.0,64.0,24.0,29.93,10.0,10.0,0.0
2,42.240318,-71.025414,I-93 S,Quincy,Norfolk,MA,44.0,44.0,68.0,30.3,10.0,3.0,0.0
2,41.666818,-72.791537,CT-72 E,New Britain,Hartford,CT,60.0,60.0,93.0,30.27,2.0,0.0,0.0
3,42.144951,-72.734749,I-90 W,Westfield,Hampden,MA,67.0,67.0,70.0,29.93,10.0,13.0,0.0
3,42.33863,-71.28141,I-90 W,Weston,Middlesex,MA,60.0,60.0,25.0,29.71,10.0,18.0,0.0
2,42.157753,-71.06893199999999,MA-24 N,Stoughton,Norfolk,MA,65.0,65.0,87.0,30.12,5.0,6.0,0.0
2,41.528576,-72.823095, Prospect Ave,Meriden,New Haven,CT,31.0,31.0,92.0,29.9,3.0,0.0,0.0
2,41.771854,-72.599662,I-84 W,East Hartford,Hartford,CT,63.0,63.0,81.0,29.46,7.0,9.0,0.0
3,41.288559,-72.530609,Governor John Davis Lodge Tpke S,Clinton,Middlesex,CT,9.0,9.0,62.0,30.16,10.0,0.0,0.0
3,42.205631,-71.065086,N Main St,Randolph,Norfolk,MA,37.0,26.0,29.0,30.2,10.0,21.0,0.0
2,41.67463,-72.85125,CT-72 E,Plainville,Hartford,CT,40.0,36.0,97.0,29.91,4.0,6.0,0.02
2,41.954287,-71.311923,I-295 N,Attleboro,Bristol,MA,30.0,18.0,100.0,29.32,1.0,20.0,0.0
3,40.994801,-73.659233,I-95 S,Greenwich,Fairfield,CT,41.0,38.0,93.0,29.78,1.0,5.0,0.01
3,41.234272,-73.04171,I-95 S,Milford,New Haven,CT,24.0,12.0,22.0,30.63,10.0,14.0,0.0
2,43.08148,-71.97674599999999, Keene Rd,Antrim,Hillsborough,NH,21.0,13.0,80.0,28.94,10.0,7.0,0.0
2,41.834596000000005,-72.66558,I-91 S,Windsor,Hartford,CT,27.0,27.0,89.0,29.99,10.0,0.0,0.0
1,42.36424,-71.06991,Storrow Dr,Boston,Suffolk,MA,43.0,33.0,93.0,29.85,2.0,29.0,0.0
2,42.241917,-71.026649,I-93 S,Quincy,Norfolk,MA,51.0,51.0,63.0,30.2,10.0,0.0,0.0
2,42.560989,-71.321503,Rangeway Rd,North Billerica,Middlesex,MA,42.0,33.0,45.0,29.45,10.0,21.0,0.0
3,41.767406,-72.669525,Columbus Blvd,Hartford,Hartford,CT,70.0,70.0,90.0,30.07,10.0,10.0,0.0
2,41.752542,-72.644058,CT-2 W,East Hartford,Hartford,CT,65.0,65.0,40.0,30.11,10.0,8.0,0.0
2,42.5737,-71.798859,South St,Fitchburg,Worcester,MA,38.0,38.0,76.0,29.84,10.0,3.0,0.0
2,42.313881,-71.094398,Walnut Ave,Roxbury,Suffolk,MA,46.0,40.0,71.0,30.02,10.0,13.0,0.0
2,41.133379999999995,-73.45746,CT-15 S,Norwalk,Fairfield,CT,47.0,42.0,32.0,29.74,10.0,10.0,0.0
3,42.430195,-71.10301199999999,I-93 N,Medford,Middlesex,MA,74.0,74.0,55.0,29.92,10.0,12.0,0.0
2,41.90095,-73.15522800000001, Ashley Rd,Torrington,Litchfield,CT,65.0,65.0,97.0,29.15,9.0,7.0,0.0
2,41.18812,-73.13573000000001,I-95 N,Stratford,Fairfield,CT,42.0,35.0,62.0,30.28,3.0,13.0,0.01
3,42.33848,-71.28116999999999,I-90 E,Weston,Middlesex,MA,50.0,50.0,83.0,29.56,10.0,9.0,0.0
3,42.53733,-71.13524,I-93 S,Wilmington,Middlesex,MA,58.0,58.0,78.0,29.55,10.0,0.0,0.0
2,41.81382,-71.44129000000001,US-6 E,Providence,Providence,RI,43.0,34.0,86.0,29.76,5.0,21.0,0.01
2,42.205875,-71.14053299999999,I-95 N,Canton,Norfolk,MA,36.0,30.0,64.0,30.17,10.0,8.0,0.0
3,42.416509999999995,-71.10410999999999,I-93 S,Medford,Middlesex,MA,48.0,45.0,83.0,30.29,10.0,6.0,0.0
3,41.440109,-71.800026,I-95 S,North Stonington,New London,CT,30.0,25.0,30.0,30.32,10.0,5.0,0.0
3,41.604813,-72.703194,I-91 N,Cromwell,Middlesex,CT,42.0,39.0,58.0,30.08,10.0,5.0,0.0
2,41.663994,-72.80555,CT-72 W,New Britain,Hartford,CT,45.0,40.0,71.0,30.06,10.0,9.0,0.0
3,41.605804,-72.70324699999999,I-91 S,Cromwell,Middlesex,CT,73.0,73.0,57.0,29.58,10.0,0.0,0.0
2,42.301105,-71.048355,Point Rd,Dorchester,Suffolk,MA,72.0,72.0,78.0,29.78,10.0,7.0,0.0
2,43.31855,-70.99549,Spaulding Tpke N,Rochester,Strafford,NH,38.0,34.0,68.0,29.89,10.0,5.0,0.0
4,41.75012,-72.71866,I-84 W,West Hartford,Hartford,CT,44.0,39.0,63.0,29.78,10.0,10.0,0.0
2,42.814838,-72.023453,River St,Jaffrey,Cheshire,NH,25.0,25.0,80.0,29.25,2.0,0.0,0.0
2,42.030689,-73.327873,Bragg St,Canaan,Litchfield,CT,43.0,36.0,35.0,28.82,10.0,13.0,0.0
2,41.616791,-70.509171,Old Barnstable Rd,Mashpee,Barnstable,MA,36.0,27.0,60.0,29.8,10.0,13.0,0.0
2,42.256027,-71.121758,River St,Hyde Park,Suffolk,MA,35.0,30.0,70.0,29.86,10.0,6.0,0.0
2,41.300537,-72.906463,Governor John Davis Lodge Tpke S,East Haven,New Haven,CT,64.0,64.0,56.0,30.25,10.0,3.0,0.0
2,42.27219,-71.068031,Adams St,Dorchester Center,Suffolk,MA,34.0,34.0,89.0,30.25,0.5,3.0,0.02
3,41.87339,-71.383209,US-1 N,Pawtucket,Providence,RI,31.0,31.0,69.0,29.23,10.0,3.0,0.0
3,41.734859,-72.744217,I-84 E,West Hartford,Hartford,CT,80.0,80.0,40.0,29.91,10.0,12.0,0.0
3,41.709045,-72.646126,I-91 S,Wethersfield,Hartford,CT,27.0,18.0,66.0,29.97,10.0,9.0,0.0
2,42.358978,-71.157013,Soldiers Field Rd,Brighton,Suffolk,MA,59.0,59.0,35.0,29.87,10.0,16.0,0.0
2,41.749718,-71.441788,I-95 N,Warwick,Kent,RI,15.0,1.0,45.0,30.5,10.0,13.0,0.0
2,41.51258,-73.04815,Ansonia Derby Expy N,Naugatuck,New Haven,CT,32.0,21.0,96.0,29.45,2.0,16.0,0.08
2,42.405922,-71.027939,Saipan Rd,Chelsea,Suffolk,MA,44.0,37.0,37.0,30.11,10.0,15.0,0.0
2,41.88658,-71.37885,I-95 S,Pawtucket,Providence,RI,55.0,55.0,100.0,29.25,2.0,14.0,0.15
3,42.469378999999996,-71.108498,Fallon Rd,Stoneham,Middlesex,MA,82.0,82.0,76.0,29.51,10.0,0.0,0.06
2,42.338902000000004,-71.107224,Brookline Ave,Boston,Suffolk,MA,42.0,37.0,76.0,30.07,10.0,8.0,0.0
2,42.34016,-71.068573,Malden St,Boston,Suffolk,MA,68.0,68.0,61.0,30.08,10.0,15.0,0.0
2,41.683663,-72.651675,I-91 N,Wethersfield,Hartford,CT,27.0,15.0,64.0,30.01,10.0,15.0,0.0
3,41.766781,-72.653862,I-84 W,East Hartford,Hartford,CT,48.0,46.0,71.0,30.26,10.0,5.0,0.0
3,42.330158000000004,-71.061134,I-93 N,Boston,Suffolk,MA,55.0,55.0,96.0,30.02,1.0,17.0,0.05
2,42.268139,-71.171066,VFW Pkwy,West Roxbury,Suffolk,MA,36.0,32.0,64.0,29.85,10.0,5.0,0.0
2,42.802624,-71.051575,I-495 S,Haverhill,Essex,MA,55.0,55.0,25.0,30.09,10.0,10.0,0.0
3,42.19104,-71.153122,I-95 S,Canton,Norfolk,MA,71.0,71.0,61.0,29.89,10.0,0.0,0.0
3,42.35053,-71.09515999999999, Raleigh St,Boston,Suffolk,MA,39.0,31.0,86.0,30.01,10.0,13.0,0.0
2,42.324638,-71.071648,George St,Roxbury,Suffolk,MA,64.0,64.0,41.0,30.17,10.0,15.0,0.0
2,42.99253,-71.47074,Everett Tpke N,Manchester,Hillsborough,NH,41.0,35.0,93.0,29.43,1.0,9.0,0.0
3,41.322762,-72.25779,Governor John Davis Lodge Tpke N,East Lyme,New London,CT,75.0,75.0,87.0,29.73,10.0,10.0,0.0
3,41.717090999999996,-71.47333499999999,I-295 N,Warwick,Kent,RI,68.0,68.0,42.0,30.24,10.0,9.0,0.0
2,42.536201,-71.137268,West St,Wilmington,Middlesex,MA,83.0,83.0,47.0,29.68,10.0,12.0,0.0
2,41.67214,-72.82058,I-84 E,New Britain,Hartford,CT,31.0,31.0,72.0,29.91,10.0,3.0,0.0
2,41.508342,-72.80864100000001, S Broad St,Meriden,New Haven,CT,43.0,39.0,43.0,30.02,10.0,7.0,0.0
2,42.39138,-71.013176,William F McClellan Hwy,East Boston,Suffolk,MA,70.0,70.0,55.0,30.14,10.0,5.0,0.0
2,41.765202,-72.62674200000001,I-84 E,East Hartford,Hartford,CT,49.0,49.0,93.0,29.95,0.5,3.0,0.0
2,42.285759000000006,-71.10991700000001,American Legion Hwy,Roslindale,Suffolk,MA,85.0,85.0,38.0,30.09,10.0,7.0,0.0
2,42.09017,-71.59776, Mendon St,Uxbridge,Worcester,MA,34.0,27.0,70.0,29.56,10.0,9.0,0.0
3,41.178515999999995,-73.18283100000001,Kossuth St,Bridgeport,Fairfield,CT,33.0,26.0,96.0,29.98,1.0,8.0,0.05
3,42.253986,-71.03877299999999,I-93 S,Quincy,Norfolk,MA,75.0,75.0,82.0,29.39,7.0,26.0,0.02
3,42.222485,-71.032249,I-93 S,Braintree,Norfolk,MA,36.0,32.0,79.0,29.86,4.0,5.0,0.05
2,41.279937,-72.959958,Governor John Davis Lodge Tpke S,West Haven,New Haven,CT,32.0,26.0,54.0,29.95,10.0,7.0,0.0
2,43.08148,-71.97674599999999, Keene Rd,Antrim,Hillsborough,NH,21.0,13.0,80.0,28.94,10.0,7.0,0.0
2,41.120644,-73.372326,Governor John Davis Lodge Tpke,Westport,Fairfield,CT,54.0,54.0,80.0,30.18,10.0,10.0,0.0
3,42.664112,-71.194603,I-495 S,Andover,Essex,MA,88.0,88.0,43.0,29.85,10.0,6.0,0.0
2,41.629776,-71.486877,RI-4 S,East Greenwich,Kent,RI,64.0,64.0,29.0,29.8,10.0,18.0,0.0
3,42.705452,-71.21079300000001,I-93 S,Methuen,Essex,MA,59.0,59.0,90.0,29.8,10.0,7.0,0.0
2,42.584301,-71.231949,Robert Cir,Tewksbury,Middlesex,MA,61.0,61.0,81.0,29.82,10.0,6.0,0.0
2,42.362038,-71.071365,MA-3,Boston,Suffolk,MA,45.0,37.0,80.0,29.86,10.0,22.0,0.0
2,41.671077000000004,-72.821026,I-84 E,New Britain,Hartford,CT,43.0,43.0,53.0,30.21,10.0,0.0,0.0
2,41.044911,-73.563777,I-95 N,Stamford,Fairfield,CT,42.0,42.0,79.0,29.54,10.0,3.0,0.0
3,42.430195,-71.10301199999999,I-93 N,Medford,Middlesex,MA,60.0,60.0,60.0,29.86,10.0,15.0,0.0
2,41.255775,-72.99600699999999,Governor John Davis Lodge Tpke N,Orange,New Haven,CT,60.0,60.0,62.0,30.23,10.0,9.0,0.0
2,41.736236,-72.74165500000001,I-84 W,West Hartford,Hartford,CT,45.0,38.0,60.0,30.07,10.0,15.0,0.0
2,42.314370000000004,-71.36058,N Main St,Natick,Middlesex,MA,83.0,83.0,51.0,30.14,10.0,10.0,0.0
3,41.77412,-72.66821,I-91 N,Hartford,Hartford,CT,57.0,57.0,36.0,30.04,10.0,8.0,0.0
2,42.454319,-71.077003,W Wyoming Ave,Melrose,Middlesex,MA,40.0,33.0,53.0,30.17,10.0,12.0,0.0
2,41.870059999999995,-71.40038299999999,I-95 S,Pawtucket,Providence,RI,57.0,57.0,100.0,29.05,8.0,3.0,0.0
3,42.245201,-71.802475,I-290 E,Worcester,Worcester,MA,21.0,11.0,44.0,29.49,10.0,8.0,0.0
4,41.897420000000004,-71.36976999999999, Washington St,Attleboro,Bristol,MA,45.0,45.0,76.0,29.33,10.0,0.0,0.01
2,42.637778999999995,-71.344788,Duren Ave,Lowell,Middlesex,MA,56.0,56.0,84.0,30.13,10.0,0.0,0.0
3,41.5491,-73.04706, Riverside St,Waterbury,New Haven,CT,50.0,50.0,61.0,29.48,10.0,12.0,0.0
2,41.133379999999995,-73.45746,CT-15 S,Norwalk,Fairfield,CT,35.0,27.0,92.0,29.15,0.0,12.0,0.0
3,42.236633000000005,-71.023399,I-93 N,Quincy,Norfolk,MA,41.0,41.0,60.0,29.81,10.0,3.0,0.0
2,41.614731,-70.599648,Thomas B Landers Rd,East Falmouth,Barnstable,MA,46.0,38.0,62.0,29.46,10.0,26.0,0.0
2,41.90524,-71.51505,I-295 N,Smithfield,Providence,RI,64.0,64.0,100.0,29.37,10.0,5.0,0.0
2,42.338039,-71.042412,E 1st St,Boston,Suffolk,MA,73.0,73.0,84.0,29.78,10.0,8.0,0.0
2,42.543147999999995,-71.897324,MA-140 S,Westminster,Worcester,MA,32.0,27.0,92.0,29.84,0.75,5.0,0.08
3,42.026104,-71.258514,I-95 S,Foxboro,Norfolk,MA,68.0,68.0,90.0,29.97,2.0,0.0,0.0
3,42.15428,-71.96710999999999,I-90 W,Charlton,Worcester,MA,45.0,37.0,44.0,28.73,10.0,18.0,0.0
2,41.541458,-72.786507,Yale Acres Rd,Meriden,New Haven,CT,34.0,34.0,67.0,30.24,10.0,0.0,0.0
3,42.34839,-71.05756,I-93 N,Boston,Suffolk,MA,79.0,79.0,35.0,30.04,10.0,16.0,0.0
3,42.52037,-71.13359,I-93 S,Woburn,Middlesex,MA,62.0,62.0,39.0,30.23,10.0,13.0,0.0
2,42.378921999999996,-71.067032,Walker St,Charlestown,Suffolk,MA,41.0,33.0,53.0,29.84,10.0,14.0,0.0
2,42.37846,-71.07584399999999,I-93 N,Somerville,Middlesex,MA,28.0,20.0,51.0,30.23,10.0,8.0,0.0
2,41.962540000000004,-72.710289,S Grand St,West Suffield,Hartford,CT,31.0,23.0,59.0,29.78,10.0,8.0,0.0
2,41.542063,-72.94628900000001,I-84 E,Cheshire,New Haven,CT,58.0,58.0,90.0,30.0,6.0,0.0,0.0
3,41.717090999999996,-71.47333499999999,I-295 N,Warwick,Kent,RI,45.0,41.0,82.0,30.37,10.0,8.0,0.0
2,41.816652000000005,-71.41494,I-95 N,Providence,Providence,RI,66.0,66.0,96.0,30.18,10.0,6.0,0.0
3,41.41406,-73.41418,I-84 E,Danbury,Fairfield,CT,55.0,55.0,27.0,29.47,10.0,14.0,0.0
3,42.29971,-71.048,I-93 N,Dorchester,Suffolk,MA,60.0,60.0,86.0,29.5,2.0,40.0,0.0
2,41.765698,-72.688815,I-84 E,Hartford,Hartford,CT,36.0,36.0,93.0,30.01,0.5,0.0,0.0
3,42.31534,-71.24986, Worcester St,Wellesley Hills,Norfolk,MA,45.0,40.0,27.0,29.98,10.0,9.0,0.0
2,41.584778,-72.05282700000001,Governor John Davis Lodge Tpke N,Norwich,New London,CT,61.0,61.0,90.0,29.6,2.0,37.0,0.04
2,42.228519,-71.18175500000001,Providence Hwy,Dedham,Norfolk,MA,77.0,77.0,84.0,29.92,5.0,6.0,0.0
2,41.803249,-71.440697,Cranston St,Cranston,Providence,RI,48.0,45.0,80.0,29.72,10.0,7.0,0.0
2,41.757305,-71.434167,I-95 N,Warwick,Kent,RI,62.0,62.0,84.0,30.19,10.0,5.0,0.0
2,41.55904,-72.90626,I-691 W,Cheshire,New Haven,CT,53.0,53.0,86.0,29.72,7.0,7.0,0.0
3,42.3641,-71.05819,I-93 N,Boston,Suffolk,MA,42.0,35.0,67.0,30.43,10.0,13.0,0.0
2,41.874596000000004,-72.662315,I-91 N,Windsor,Hartford,CT,38.0,30.0,62.0,29.81,10.0,13.0,0.0
2,41.0975,-73.603302,CT-15 S,Greenwich,Fairfield,CT,39.0,33.0,62.0,29.2,10.0,9.0,0.0
2,41.539837,-72.817166, W Main St,Meriden,New Haven,CT,44.0,41.0,51.0,29.57,10.0,6.0,0.0
2,41.67934,-70.908958,S Main St,Acushnet,Bristol,MA,67.0,67.0,52.0,29.88,10.0,8.0,0.0
3,42.628529,-71.26864599999999,I-495 N,Tewksbury,Middlesex,MA,27.0,22.0,85.0,29.9,10.0,5.0,0.0
2,41.10967,-73.40308,Governor John Davis Lodge Tpke,Norwalk,Fairfield,CT,73.0,73.0,87.0,29.81,10.0,6.0,0.0
2,41.402359999999994,-73.4645,I-84 E,Danbury,Fairfield,CT,46.0,42.0,37.0,29.75,10.0,7.0,0.0
2,41.54613,-72.78359499999999, Broad St,Meriden,New Haven,CT,53.0,53.0,89.0,30.2,10.0,0.0,0.0
2,42.73645,-71.663628,Milford St,Brookline,Hillsborough,NH,67.0,67.0,97.0,29.71,10.0,0.0,0.0
2,42.167797,-72.032225,MA-49,Sturbridge,Worcester,MA,21.0,12.0,57.0,29.24,10.0,7.0,0.0
2,41.541958,-72.78621899999999,Broad St,Meriden,New Haven,CT,57.0,57.0,89.0,29.95,6.0,10.0,0.03
3,42.30064,-71.04916, Freeport St,Dorchester,Suffolk,MA,56.0,56.0,87.0,29.62,10.0,7.0,0.0
3,41.321789,-72.886261,I-91 N,New Haven,New Haven,CT,58.0,58.0,100.0,30.05,0.5,5.0,0.18
2,41.666453999999995,-71.501823,I-95 N,West Warwick,Kent,RI,43.0,35.0,60.0,29.59,10.0,16.0,0.0
2,41.749345,-72.732228,I-84 W,West Hartford,Hartford,CT,68.0,68.0,52.0,29.95,10.0,13.0,0.0
2,41.306042,-72.900543,Wolcott St,New Haven,New Haven,CT,39.0,36.0,82.0,30.56,10.0,5.0,0.0
2,41.934810999999996,-71.46637700000001,Eddie Dowling Hwy N,Lincoln,Providence,RI,37.0,33.0,93.0,29.32,10.0,6.0,0.0
3,43.332584000000004,-71.607079,I-93 N,Canterbury,Merrimack,NH,52.0,52.0,93.0,29.24,7.0,6.0,0.12
2,41.68568,-70.422523,Race Ln,Marstons Mills,Barnstable,MA,84.0,84.0,48.0,29.83,10.0,7.0,0.0
2,42.287399,-71.042358,Redfield St,Dorchester,Suffolk,MA,82.0,82.0,58.0,29.73,10.0,7.0,0.0
3,41.767406,-72.669525,Columbus Blvd,Hartford,Hartford,CT,33.0,33.0,23.0,30.37,10.0,3.0,0.0
2,43.300509999999996,-71.84118000000001,I-89 S,Warner,Merrimack,NH,40.0,40.0,60.0,29.37,10.0,0.0,0.0
1,42.26308,-71.56357,I-495 S,Hopkinton,Middlesex,MA,58.0,58.0,49.0,29.79,10.0,0.0,0.0
2,42.115970000000004,-72.588611,I-291 E,Springfield,Hampden,MA,42.0,42.0,85.0,30.01,10.0,0.0,0.0
3,42.40424,-71.08254000000001, Fellsway,Medford,Middlesex,MA,48.0,44.0,32.0,30.03,10.0,9.0,0.0
3,42.264645,-71.206482,West St,Dedham,Norfolk,MA,36.0,36.0,82.0,29.76,2.0,0.0,0.1
3,42.31389,-71.23204,I-95 S,Needham Heights,Norfolk,MA,47.0,43.0,71.0,30.26,10.0,9.0,0.0
2,42.664112,-71.194603,I-495 S,Andover,Essex,MA,70.0,70.0,16.0,29.96,10.0,13.0,0.0
2,41.046959,-73.543915,I-95 N,Stamford,Fairfield,CT,48.0,46.0,96.0,29.58,5.0,5.0,0.02
3,41.295155,-72.76715899999999,Governor John Davis Lodge Tpke S,Branford,New Haven,CT,43.0,37.0,76.0,30.56,10.0,12.0,0.0
2,41.109026,-73.405192,Governor John Davis Lodge Tpke,Norwalk,Fairfield,CT,71.0,71.0,66.0,29.97,10.0,14.0,0.0
2,42.361961,-71.071274,MA-3,Boston,Suffolk,MA,64.0,64.0,75.0,30.31,10.0,6.0,0.0
2,41.71154,-71.40203100000001,Sandy Ln,Warwick,Kent,RI,68.0,68.0,47.0,29.84,10.0,8.0,0.0
3,41.87318,-71.387466,George St,Pawtucket,Providence,RI,77.0,77.0,94.0,29.48,10.0,5.0,0.0
2,41.75759,-72.700558,I-84 E,Hartford,Hartford,CT,64.0,64.0,60.0,30.29,10.0,5.0,0.0
2,42.440715999999995,-71.298798,Cambridge Tpke,Lincoln,Middlesex,MA,24.0,17.0,77.0,29.59,10.0,6.0,0.0
3,42.27865,-71.01454, Channing St,Quincy,Norfolk,MA,57.0,57.0,72.0,29.75,10.0,12.0,0.01
3,42.0242,-71.86044,I-395 N,Webster,Worcester,MA,32.0,26.0,92.0,28.77,0.25,6.0,0.11
2,41.819408,-72.609383,John Fitch Blvd,South Windsor,Hartford,CT,47.0,45.0,93.0,29.18,10.0,5.0,0.06
2,42.39138,-71.04338100000001,Mulberry St,Chelsea,Suffolk,MA,45.0,41.0,74.0,29.97,10.0,7.0,0.0
2,42.536221000000005,-71.288498,Ranlett Ln,Billerica,Middlesex,MA,73.0,73.0,71.0,29.74,10.0,6.0,0.0
2,42.558044,-70.928986,MA-128 N,Danvers,Essex,MA,92.0,92.0,41.0,29.55,10.0,14.0,0.0
3,41.875713,-71.382683,Main St,Pawtucket,Providence,RI,43.0,40.0,68.0,29.26,10.0,5.0,0.0
2,42.349159,-71.219643,I-90 W,West Newton,Middlesex,MA,71.0,71.0,73.0,29.79,10.0,12.0,0.0
4,42.572547,-70.970252,I-95 S,Danvers,Essex,MA,43.0,43.0,65.0,30.37,10.0,3.0,0.0
2,42.59045,-70.791733,MA-128 N,Manchester,Essex,MA,25.0,19.0,78.0,29.66,10.0,5.0,0.0
2,41.510583000000004,-72.807434, S Broad St,Meriden,New Haven,CT,21.0,21.0,74.0,30.06,10.0,0.0,0.0
2,42.69126,-71.20656,I-93 N,Andover,Essex,MA,80.0,80.0,62.0,29.79,10.0,9.0,0.0
2,41.738615,-72.738827, Webster Hill Blvd,West Hartford,Hartford,CT,31.0,26.0,92.0,30.11,10.0,5.0,0.0
3,42.21998,-71.03589000000001,I-93 N,Braintree,Norfolk,MA,70.0,70.0,46.0,30.11,10.0,6.0,0.0
2,41.00707,-73.647661,I-95 S,Greenwich,Fairfield,CT,63.0,63.0,48.0,29.7,10.0,0.0,0.0
2,42.555149,-71.26580799999999,Charnstaffe Ln,Billerica,Middlesex,MA,65.0,65.0,87.0,29.78,10.0,3.0,0.01
4,41.23551,-73.04581,I-95 S,Milford,New Haven,CT,37.0,33.0,48.0,30.03,10.0,5.0,0.0
2,42.459381,-70.947731,Broad St,Lynn,Essex,MA,88.0,88.0,55.0,29.87,10.0,17.0,0.0
3,42.627781,-71.271034,I-495 N,Tewksbury,Middlesex,MA,38.0,38.0,89.0,30.3,3.0,0.0,0.07
2,43.608948,-71.13825200000001,Governor Wentworth Hwy,Wolfeboro,Carroll,NH,70.0,70.0,78.0,29.17,10.0,0.0,0.0
2,41.23568,-73.19390899999999,CT-15 S,Trumbull,Fairfield,CT,33.0,22.0,64.0,29.96,10.0,17.0,0.0
3,41.81337,-71.408691,Crary St,Providence,Providence,RI,70.0,70.0,84.0,30.04,10.0,7.0,0.0
2,41.142114,-73.275257,Governor John Davis Lodge Tpke,Southport,Fairfield,CT,27.0,12.0,85.0,29.91,0.5,24.0,0.15
2,41.77412,-72.66821,I-91 N,Hartford,Hartford,CT,59.0,59.0,60.0,29.79,10.0,5.0,0.0
3,43.639477,-72.338394,I-91 S,White River Junction,Windsor,VT,54.0,54.0,83.0,29.45,10.0,0.0,0.0
3,41.873184,-71.387505,George St,Pawtucket,Providence,RI,35.0,35.0,96.0,29.47,10.0,0.0,0.0
3,41.28537,-73.0435,CT-15 S,Orange,New Haven,CT,69.0,69.0,58.0,30.36,10.0,8.0,0.0
2,42.242306,-71.027573,I-93 S,Quincy,Norfolk,MA,71.0,71.0,78.0,29.76,10.0,0.0,0.0
2,42.652088,-71.221817,Holmes Rd,Andover,Essex,MA,30.0,21.0,59.0,29.68,10.0,10.0,0.0
2,42.401749,-71.041527,Revere Beach Pkwy,Everett,Middlesex,MA,74.0,74.0,71.0,30.13,10.0,17.0,0.0
3,42.697990000000004,-71.14204000000001,I-495 S,North Andover,Essex,MA,45.0,41.0,97.0,28.94,2.0,8.0,0.17
2,41.65133,-73.07956,James H Darcey Memorial Hwy N,Thomaston,Litchfield,CT,44.0,44.0,89.0,29.23,10.0,3.0,0.0
2,42.805240000000005,-71.49906999999999,Everett Tpke N,Merrimack,Hillsborough,NH,63.0,63.0,84.0,29.48,10.0,7.0,0.0
2,42.194699,-71.822451, Washington St,Auburn,Worcester,MA,42.0,33.0,58.0,29.17,10.0,22.0,0.0
2,42.454916,-71.753007,I-190 N,Sterling,Worcester,MA,58.0,58.0,72.0,29.95,10.0,6.0,0.0
2,42.240239,-71.024429, West St,Quincy,Norfolk,MA,59.0,59.0,90.0,30.03,10.0,6.0,0.0
2,42.617278999999996,-71.197449,East St,Tewksbury,Middlesex,MA,72.0,72.0,43.0,30.27,10.0,7.0,0.0
3,41.850978999999995,-71.40862299999999,I-95 N,Providence,Providence,RI,42.0,36.0,22.0,29.93,10.0,10.0,0.0
2,42.332901,-71.071915,Mass Avenue Connector,Boston,Suffolk,MA,79.0,79.0,74.0,29.67,10.0,13.0,0.0
3,42.502083,-71.118492,I-93 N,Reading,Middlesex,MA,42.0,36.0,53.0,29.74,10.0,10.0,0.0
2,42.211220000000004,-70.995972,Union St,Braintree,Norfolk,MA,53.0,53.0,86.0,29.87,10.0,0.0,0.0
2,41.324719,-72.251983,Governor John Davis Lodge Tpke N,East Lyme,New London,CT,42.0,38.0,92.0,29.95,10.0,6.0,0.0
2,41.417061,-73.419414,Route 6,Danbury,Fairfield,CT,29.0,29.0,78.0,29.63,10.0,0.0,0.0
2,41.185439,-73.138086,Governor John Davis Lodge Tpke,Stratford,Fairfield,CT,46.0,46.0,96.0,29.95,1.0,3.0,0.0
2,42.316002000000005,-71.062737,Sumner St,Dorchester,Suffolk,MA,63.0,63.0,81.0,30.14,10.0,14.0,0.0
2,41.364308,-72.099913,Gold Star Memorial Bridge,New London,New London,CT,41.0,38.0,65.0,30.48,10.0,5.0,0.0
2,42.640701,-71.231239,Ames Pond Dr,Tewksbury,Middlesex,MA,53.0,53.0,66.0,29.59,10.0,6.0,0.0
3,43.39036,-71.97618,I-89 N,New London,Merrimack,NH,31.0,31.0,96.0,29.36,1.0,0.0,0.01
2,41.732935,-72.75198,I-84 E,West Hartford,Hartford,CT,41.0,33.0,67.0,29.6,10.0,14.0,0.0
2,42.34422,-71.6298,I-290 E,Northborough,Worcester,MA,74.0,74.0,73.0,28.82,10.0,13.0,0.0
2,41.05673,-73.51513,I-95 S,Stamford,Fairfield,CT,36.0,26.0,93.0,29.69,1.0,18.0,0.11
3,42.222538,-71.032257,I-93 S,Braintree,Norfolk,MA,70.0,70.0,42.0,29.95,10.0,12.0,0.0
2,41.75952,-72.64124,CT-15 S,East Hartford,Hartford,CT,36.0,31.0,89.0,30.11,2.0,6.0,0.0
2,41.818529999999996,-71.39428000000001,I-195 E,Providence,Providence,RI,45.0,37.0,76.0,29.45,10.0,18.0,0.0
2,41.545715,-73.368538,Second Hill Rd,Bridgewater,Litchfield,CT,24.0,13.0,34.0,29.44,10.0,12.0,0.0
2,42.865261,-72.778648,VT Route 9,Brattleboro,Windham,VT,35.0,31.0,76.0,29.0,10.0,5.0,0.0
2,42.393509,-71.011398,Waldemar Ave,East Boston,Suffolk,MA,36.0,30.0,86.0,29.35,8.0,7.0,0.03
2,42.361736,-71.055374,I-93 S,Boston,Suffolk,MA,54.0,54.0,93.0,30.17,10.0,3.0,0.0
2,41.978722,-70.806511,Main St,Plympton,Plymouth,MA,54.0,54.0,93.0,29.99,1.0,5.0,0.0
2,42.231209,-71.023338,US-1 S,Quincy,Norfolk,MA,69.0,69.0,84.0,30.07,10.0,5.0,0.0
2,41.562290000000004,-72.650948,Main St,Middletown,Middlesex,CT,46.0,41.0,83.0,29.63,10.0,12.0,0.0
4,42.33361,-71.07335, Albany St,Boston,Suffolk,MA,39.0,29.0,38.0,29.66,10.0,21.0,0.0
2,41.75267,-72.64495,CT-2 E,East Hartford,Hartford,CT,47.0,47.0,34.0,30.32,10.0,3.0,0.0
2,41.04723,-73.54299,I-95 N,Stamford,Fairfield,CT,28.0,28.0,61.0,29.84,10.0,3.0,0.0
2,42.728615000000005,-71.13877099999999,I-495 N,Methuen,Essex,MA,36.0,32.0,100.0,29.64,1.0,5.0,0.03
2,41.401624,-73.46649599999999,I-84 E,Danbury,Fairfield,CT,42.0,35.0,62.0,29.49,10.0,14.0,0.0
2,43.0601,-72.46583000000001, Greenwood Rd,Westminster,Windham,VT,54.0,54.0,41.0,29.23,10.0,5.0,0.0
2,42.369839,-71.122612,Memorial Dr,Cambridge,Middlesex,MA,57.0,57.0,100.0,30.29,0.5,8.0,0.01
2,41.244145,-73.106449,CT-15 S,Stratford,Fairfield,CT,49.0,49.0,77.0,29.94,10.0,0.0,0.0
3,41.769562,-72.67063900000001,I-84 E,Hartford,Hartford,CT,72.0,72.0,84.0,29.8,10.0,0.0,0.0
2,41.374779,-72.141068,Hartford Tpke,Waterford,New London,CT,37.0,31.0,52.0,30.63,10.0,8.0,0.0
2,42.282299,-71.09964000000001,Walk Hill St,Mattapan,Suffolk,MA,51.0,51.0,89.0,29.88,9.0,8.0,0.01
2,41.56129,-73.05748299999999,CT-8 S,Waterbury,New Haven,CT,61.0,61.0,78.0,29.5,10.0,7.0,0.0
2,41.690208,-70.205528,Whites Path,South Yarmouth,Barnstable,MA,78.0,78.0,64.0,29.73,10.0,0.0,0.0
2,42.427994,-71.258606,I-95 S,Lexington,Middlesex,MA,71.0,71.0,84.0,29.35,10.0,10.0,0.0
2,42.334953000000006,-71.07511099999999,Massachusetts Ave,Boston,Suffolk,MA,61.0,61.0,83.0,29.67,10.0,7.0,0.0
2,41.815781,-72.665939,I-91 S,Windsor,Hartford,CT,34.0,28.0,89.0,29.82,10.0,7.0,0.0
2,41.285638,-72.876453,Governor John Davis Lodge Tpke S,East Haven,New Haven,CT,65.0,65.0,87.0,29.92,10.0,8.0,0.0
2,42.364281,-71.116058,Western Ave,Cambridge,Middlesex,MA,61.0,61.0,93.0,30.19,10.0,13.0,0.0
2,42.443878000000005,-71.025948,Linehurst Rd,Revere,Middlesex,MA,47.0,41.0,36.0,30.42,10.0,15.0,0.0
2,41.790341999999995,-72.656191,I-91 S,Hartford,Hartford,CT,61.0,61.0,78.0,30.18,5.0,7.0,0.0
3,41.749596000000004,-72.715508,I-84 E,West Hartford,Hartford,CT,37.0,33.0,73.0,29.83,10.0,5.0,0.0
2,42.503632,-71.102692,Main St,Reading,Middlesex,MA,26.0,17.0,43.0,30.3,10.0,9.0,0.0
3,42.502384,-71.11895,I-95 S,Reading,Middlesex,MA,75.0,75.0,69.0,30.03,10.0,7.0,0.0
2,41.850978999999995,-71.40862299999999,I-95 N,Providence,Providence,RI,59.0,59.0,41.0,29.71,10.0,5.0,0.0
3,41.834911,-71.416199,I-95 S,Providence,Providence,RI,52.0,52.0,97.0,29.78,10.0,0.0,0.0
3,41.44454,-72.79106999999999,I-91 S,Wallingford,New Haven,CT,82.0,82.0,56.0,29.89,10.0,12.0,0.0
3,42.4187,-70.98706, Revere Beach Blvd,Revere,Suffolk,MA,75.0,75.0,76.0,29.81,10.0,9.0,0.0
3,42.321537,-71.053772,Columbia Rd,Dorchester,Suffolk,MA,76.0,76.0,46.0,29.94,10.0,13.0,0.0
2,41.737504,-72.739825,I-84 W,West Hartford,Hartford,CT,31.0,26.0,92.0,30.11,10.0,5.0,0.0
3,41.108776,-73.405991,Governor John Davis Lodge Tpke,Norwalk,Fairfield,CT,42.0,38.0,60.0,29.97,10.0,7.0,0.0
3,42.202164,-71.079132,I-93 N,Randolph,Norfolk,MA,80.0,80.0,56.0,30.23,10.0,0.0,0.0
2,42.502495,-71.243813,US-3 S,Bedford,Middlesex,MA,30.0,24.0,88.0,29.69,2.0,6.0,0.02
3,41.765285,-72.626373,I-84 E,East Hartford,Hartford,CT,36.0,28.0,76.0,30.03,10.0,10.0,0.0
2,42.37635,-71.05541,US-1 N,Charlestown,Suffolk,MA,53.0,53.0,96.0,29.95,3.0,13.0,0.02
4,41.00029,-73.65337,I-95 S,Greenwich,Fairfield,CT,70.0,70.0,46.0,29.89,10.0,9.0,0.0
2,41.389992,-73.476875,I-84 W,Danbury,Fairfield,CT,32.0,26.0,66.0,29.47,10.0,6.0,0.0
4,41.49481,-73.16098000000001,I-84 W,Southbury,New Haven,CT,44.0,38.0,93.0,28.94,10.0,12.0,0.02
4,41.44121,-71.80056, Clarks Falls Rd,North Stonington,New London,CT,36.0,36.0,82.0,29.8,10.0,3.0,0.0
2,42.560871,-70.977264,Newbury St,Danvers,Essex,MA,68.0,68.0,68.0,29.72,10.0,13.0,0.0
2,41.757563,-72.663327,I-91 S,Hartford,Hartford,CT,31.0,31.0,76.0,30.41,10.0,0.0,0.0
2,42.555149,-71.26580799999999,Charnstaffe Ln,Billerica,Middlesex,MA,87.0,87.0,44.0,29.85,10.0,5.0,0.0
2,41.581773999999996,-72.648892,CT-9 S,Cromwell,Middlesex,CT,43.0,38.0,51.0,29.84,10.0,8.0,0.0
2,41.244145,-73.106449,CT-15 S,Stratford,Fairfield,CT,71.0,71.0,61.0,29.96,10.0,17.0,0.0
2,42.343990000000005,-71.06096600000001,Frontage Rd,South Boston,Suffolk,MA,37.0,26.0,41.0,29.94,10.0,22.0,0.0
2,42.500141,-71.1558,I-95 S,Woburn,Middlesex,MA,39.0,35.0,60.0,29.87,10.0,6.0,0.0
2,41.302789000000004,-72.91281500000001, Wallace St,New Haven,New Haven,CT,45.0,45.0,56.0,29.96,10.0,3.0,0.0
2,41.757585999999996,-72.647754,US-5 S,East Hartford,Hartford,CT,60.0,60.0,25.0,30.24,10.0,10.0,0.0
3,41.749432,-72.735291,Trout Brook Dr,West Hartford,Hartford,CT,83.0,83.0,34.0,29.78,10.0,8.0,0.0
2,41.44251,-71.79664,I-95 S,North Stonington,New London,CT,33.0,33.0,82.0,29.68,10.0,0.0,0.0
2,42.562241,-72.037697,Patriots Rd,Templeton,Worcester,MA,26.0,26.0,75.0,29.32,2.0,0.0,0.0
2,41.656921000000004,-70.350021,Old Stage Rd,Centerville,Barnstable,MA,53.0,53.0,26.0,30.12,10.0,10.0,0.0
2,41.872479999999996,-71.39454,Main St,Pawtucket,Providence,RI,38.0,32.0,100.0,29.89,6.0,8.0,0.11
2,41.749481,-72.70966700000001,I-84 E,Hartford,Hartford,CT,38.0,33.0,53.0,30.31,10.0,6.0,0.0
2,41.769424,-72.66857900000001,I-84 E,Hartford,Hartford,CT,72.0,72.0,93.0,30.24,3.0,0.0,0.01
2,41.479128,-73.203867,I-84 E,Southbury,New Haven,CT,50.0,50.0,59.0,29.45,10.0,5.0,0.0
2,41.083778,-73.665199,Round Hill Rd,Greenwich,Fairfield,CT,65.0,65.0,84.0,29.68,10.0,8.0,0.0
2,42.829075,-71.493866,Everett Tpke N,Merrimack,Hillsborough,NH,41.0,34.0,55.0,29.32,10.0,12.0,0.0
2,42.305664,-71.085571,Seaver St,Dorchester,Suffolk,MA,35.0,29.0,61.0,29.69,10.0,8.0,0.0
2,41.276340000000005,-72.868172,Hemingway Ave,East Haven,New Haven,CT,50.0,50.0,31.0,29.91,10.0,13.0,0.0
3,42.538536,-71.49324,I-495 N,Littleton,Middlesex,MA,78.0,78.0,37.0,29.91,10.0,13.0,0.0
3,41.088776,-73.455826,Governor John Davis Lodge Tpke,Darien,Fairfield,CT,58.0,58.0,93.0,29.61,6.0,5.0,0.0
2,42.299782,-71.06031,Dorchester Ave,Dorchester,Suffolk,MA,36.0,30.0,31.0,30.06,10.0,7.0,0.0
2,42.9634,-71.41469000000001,NH-101 W,Manchester,Hillsborough,NH,27.0,15.0,58.0,29.54,10.0,15.0,0.0
2,41.130869,-73.297614,Governor John Davis Lodge Tpke,Westport,Fairfield,CT,71.0,71.0,66.0,29.97,10.0,14.0,0.0
2,42.455940000000005,-71.379211,Main St,Concord,Middlesex,MA,27.0,27.0,92.0,29.74,3.0,0.0,0.0
2,41.095277,-73.444441,Governor John Davis Lodge Tpke,Norwalk,Fairfield,CT,49.0,47.0,56.0,29.91,10.0,5.0,0.0
3,41.540653000000006,-72.975288,I-84 W,Waterbury,New Haven,CT,83.0,83.0,54.0,29.26,10.0,3.0,0.0
2,42.060177,-71.859421,I-395 N,Webster,Worcester,MA,27.0,15.0,41.0,28.98,10.0,15.0,0.0
3,42.45795,-71.10191999999999,I-93 N,Stoneham,Middlesex,MA,37.0,32.0,26.0,30.55,10.0,7.0,0.0
2,42.548786,-71.474983,Great Rd,Westford,Middlesex,MA,57.0,57.0,81.0,29.8,10.0,6.0,0.0
3,41.82172,-71.42016,I-95 N,Providence,Providence,RI,78.0,78.0,50.0,30.18,10.0,9.0,0.0
2,41.740099,-72.66365,I-91 N,Hartford,Hartford,CT,70.0,70.0,76.0,30.05,10.0,5.0,0.0
2,42.270538,-71.105499,Ridlon Rd,Mattapan,Suffolk,MA,37.0,28.0,30.0,30.1,10.0,16.0,0.0
2,42.34174,-71.26299,I-95 S,Weston,Middlesex,MA,57.0,57.0,96.0,29.64,2.0,7.0,0.2
2,43.897141,-71.656471,Sunrise Hill Rd,Thornton,Grafton,NH,27.0,27.0,83.0,29.52,10.0,0.0,0.0
3,41.83242,-71.41703000000001,I-95 N,Providence,Providence,RI,74.0,74.0,79.0,29.68,10.0,6.0,0.0
2,42.624882,-71.31980899999999,Lowell Connector N,Lowell,Middlesex,MA,39.0,31.0,82.0,29.78,7.0,15.0,0.01
2,41.181553,-73.19429699999999,CT-25 S,Bridgeport,Fairfield,CT,70.0,70.0,87.0,29.96,10.0,0.0,0.0
2,41.79749,-71.40377,I-95 S,Providence,Providence,RI,46.0,43.0,50.0,29.95,10.0,6.0,0.0
2,41.792041999999995,-71.959518,Costello Rd,Brooklyn,Windham,CT,46.0,41.0,58.0,29.85,10.0,10.0,0.0
2,41.665989,-70.27172900000001,Yarmouth Rd,Hyannis,Barnstable,MA,60.0,60.0,38.0,30.42,10.0,13.0,0.0
3,41.872177,-71.396721,I-95 S,Pawtucket,Providence,RI,63.0,63.0,87.0,29.64,10.0,8.0,0.0
2,42.196351,-70.955811,Main St,Weymouth,Norfolk,MA,24.0,14.0,40.0,30.36,10.0,10.0,0.0
2,41.707562,-72.645138,I-91 N,Wethersfield,Hartford,CT,63.0,63.0,67.0,30.26,10.0,3.0,0.0
3,41.314816,-72.90969799999999,I-91 S,New Haven,New Haven,CT,40.0,34.0,53.0,30.34,10.0,9.0,0.0
3,41.417984000000004,-73.29044300000001,Church Hill Rd,Sandy Hook,Fairfield,CT,35.0,27.0,92.0,29.2,10.0,12.0,0.0
2,42.326141,-71.10405,Heath St,Jamaica Plain,Suffolk,MA,58.0,58.0,78.0,30.45,10.0,9.0,0.0
2,42.474892,-71.453751,Main St,Acton,Middlesex,MA,30.0,20.0,51.0,29.92,10.0,13.0,0.0
2,41.016157,-73.637377,I-95 S,Greenwich,Fairfield,CT,47.0,43.0,54.0,29.58,10.0,9.0,0.0
2,41.814743,-71.43991899999999,RI-10 S,Providence,Providence,RI,54.0,54.0,90.0,29.74,6.0,8.0,0.0
2,42.013087,-71.856973,I-395 S,North Grosvenordale,Windham,CT,25.0,17.0,72.0,28.61,10.0,7.0,0.0
4,42.651096,-70.977226,I-95 S,Boxford,Essex,MA,62.0,62.0,53.0,30.01,10.0,7.0,0.0
2,42.893269000000004,-71.136269,Page Rd,East Hampstead,Rockingham,NH,51.0,51.0,38.0,30.06,10.0,7.0,0.0
3,42.31909,-71.72282,I-290 E,Shrewsbury,Worcester,MA,58.0,58.0,70.0,28.88,10.0,14.0,0.0
3,41.92985,-71.3223,I-95 N,Attleboro,Bristol,MA,50.0,50.0,48.0,29.49,10.0,8.0,0.0
2,41.22854,-73.24421,Merritt Pkwy N,Trumbull,Fairfield,CT,56.0,56.0,39.0,29.54,10.0,22.0,0.0
2,42.503395000000005,-71.13046999999999,I-95 S,Woburn,Middlesex,MA,50.0,50.0,52.0,29.43,10.0,15.0,0.0
2,41.789293,-72.656653,I-91 S,Hartford,Hartford,CT,46.0,42.0,71.0,30.08,10.0,7.0,0.0
3,42.51321,-71.043716,I-95 N,Wakefield,Middlesex,MA,90.0,90.0,38.0,29.81,10.0,21.0,0.0
2,42.355675,-71.051537,Purchase St,Boston,Suffolk,MA,48.0,48.0,80.0,29.91,10.0,0.0,0.0
2,41.875839,-71.39370699999999,Star St,Pawtucket,Providence,RI,65.0,65.0,81.0,29.89,10.0,6.0,0.0
2,42.23818,-71.02391,Southeast Expy N,Quincy,Norfolk,MA,45.0,40.0,86.0,30.22,2.0,9.0,0.0
3,41.288399,-72.887268,Governor John Davis Lodge Tpke S,East Haven,New Haven,CT,61.0,61.0,35.0,30.04,10.0,10.0,0.0
2,42.298271,-71.071083,Greenbrier St,Dorchester Center,Suffolk,MA,28.0,28.0,72.0,30.41,10.0,0.0,0.0
2,41.767990000000005,-72.65711999999999,I-84 W,East Hartford,Hartford,CT,36.0,31.0,89.0,30.1,2.0,6.0,0.0
2,42.137122999999995,-70.90080999999999,Hingham St,Rockland,Plymouth,MA,53.0,53.0,93.0,30.03,6.0,0.0,0.0
2,41.312938,-72.912687,I-91 S,New Haven,New Haven,CT,36.0,36.0,97.0,30.29,10.0,0.0,0.0
2,41.806917,-72.661006,I-91 S,Hartford,Hartford,CT,51.0,51.0,48.0,30.37,10.0,6.0,0.0
4,41.648891,-72.767842,CT-9 N,New Britain,Hartford,CT,55.0,55.0,86.0,30.28,10.0,6.0,0.0
2,41.782944,-70.732063,MA-25 E,Wareham,Plymouth,MA,44.0,38.0,35.0,30.17,10.0,13.0,0.0
2,42.435719,-70.969589,Carey Cir,Revere,Suffolk,MA,82.0,82.0,41.0,29.9,10.0,9.0,0.0
3,42.19177,-71.85766,I-90 W,Auburn,Worcester,MA,37.0,31.0,93.0,28.88,4.0,8.0,0.1
3,42.15416,-71.06848000000001,MA-24 S,Stoughton,Norfolk,MA,79.0,79.0,29.0,29.84,10.0,8.0,0.0
3,41.428181,-72.082199,Hurlbutt Rd,Gales Ferry,New London,CT,40.0,32.0,55.0,30.01,10.0,15.0,0.0
2,42.350536,-71.082565,Commonwealth Ave,Boston,Suffolk,MA,30.0,21.0,45.0,30.65,10.0,12.0,0.0
2,42.577090999999996,-70.958458,Forest St,Danvers,Essex,MA,59.0,59.0,75.0,30.11,10.0,10.0,0.0
4,41.7864,-73.14509, New Litchfield St,Torrington,Litchfield,CT,46.0,42.0,33.0,29.5,10.0,8.0,0.0
2,42.470131,-72.010406,Barre Rd,Hubbardston,Worcester,MA,73.0,73.0,64.0,29.72,10.0,5.0,0.0
2,41.936906,-71.31670799999999,I-95 N,Attleboro,Bristol,MA,44.0,41.0,71.0,29.58,10.0,6.0,0.0
3,42.75915,-71.12274000000001,I-495 N,Haverhill,Essex,MA,40.0,34.0,70.0,29.97,10.0,9.0,0.0
3,41.512570000000004,-73.04815,Ansonia Derby Expy N,Naugatuck,New Haven,CT,68.0,68.0,94.0,28.96,7.0,10.0,0.02
2,41.1697,-73.195934,Governor John Davis Lodge Tpke,Bridgeport,Fairfield,CT,42.0,39.0,67.0,30.09,10.0,5.0,0.0
2,41.29307,-73.24401, Spring Hill Rd,Trumbull,Fairfield,CT,80.0,80.0,39.0,29.99,10.0,10.0,0.0
2,41.324375,-72.882839,I-91 S,New Haven,New Haven,CT,50.0,50.0,93.0,29.74,1.0,9.0,0.17
2,41.321339,-72.997969,CT-15 N,Woodbridge,New Haven,CT,75.0,75.0,66.0,30.04,10.0,12.0,0.0
2,42.32098,-71.194191,Parker St,Newton Center,Middlesex,MA,43.0,34.0,43.0,29.7,10.0,21.0,0.0
4,41.545799,-72.7491,I-91 N,Middletown,Middlesex,CT,67.0,67.0,73.0,30.12,10.0,5.0,0.0
3,42.39459,-71.08771999999999, Grant St,Somerville,Middlesex,MA,44.0,36.0,76.0,29.47,10.0,20.0,0.0
2,41.0474,-73.54231899999999,I-95 N,Stamford,Fairfield,CT,49.0,45.0,77.0,29.59,10.0,8.0,0.0
2,42.350429999999996,-71.503601,Boston Post Rd E,Marlborough,Middlesex,MA,29.0,16.0,45.0,30.2,10.0,20.0,0.0
3,42.356316,-71.051369,I-93 S,Boston,Suffolk,MA,86.0,86.0,41.0,29.59,10.0,18.0,0.0
2,42.665661,-71.434196,US-3 S,Tyngsboro,Middlesex,MA,34.0,26.0,56.0,29.86,10.0,10.0,0.0
2,42.314578999999995,-71.07884200000001,Quincy St,Dorchester,Suffolk,MA,60.0,60.0,86.0,29.5,2.0,40.0,0.0
3,41.551575,-73.03566,I-84 W,Waterbury,New Haven,CT,43.0,39.0,65.0,29.25,10.0,7.0,0.01
4,41.471470000000004,-72.25914, New London Rd,Salem,New London,CT,46.0,42.0,66.0,29.35,5.0,8.0,0.0
3,42.222485,-71.032249,I-93 S,Braintree,Norfolk,MA,45.0,45.0,76.0,29.85,10.0,0.0,0.0
2,43.36303,-71.93037,I-89 S,Warner,Merrimack,NH,41.0,38.0,89.0,29.94,3.0,5.0,0.0
3,41.180855,-73.145348,Governor John Davis Lodge Tpke,Stratford,Fairfield,CT,74.0,74.0,76.0,30.07,10.0,9.0,0.0
2,42.223186,-71.17083000000001,I-95 N,Westwood,Norfolk,MA,36.0,36.0,82.0,29.74,3.0,0.0,0.09
2,42.351925,-71.089134,Storrow Dr,Boston,Suffolk,MA,28.0,23.0,38.0,30.46,10.0,5.0,0.0
2,41.538158,-73.04424399999999,Ansonia Derby Expy S,Waterbury,New Haven,CT,47.0,42.0,93.0,29.48,10.0,12.0,0.01
3,41.898563,-72.63958000000001,I-91 N,Windsor,Hartford,CT,87.0,87.0,33.0,29.5,10.0,14.0,0.0
2,42.29554,-71.157639,Independence Dr,West Roxbury,Suffolk,MA,41.0,37.0,82.0,29.7,2.0,6.0,0.0
3,42.690746000000004,-71.206329,River Rd,Andover,Essex,MA,83.0,83.0,27.0,29.69,10.0,14.0,0.0
4,41.1101,-73.55104,Merritt Pkwy N,Stamford,Fairfield,CT,49.0,46.0,77.0,29.72,10.0,7.0,0.0
2,42.17112,-71.17085300000001,I-95 N,Norwood,Norfolk,MA,34.0,34.0,61.0,30.44,10.0,0.0,0.0
3,41.717090999999996,-71.47333499999999,I-295 N,Warwick,Kent,RI,80.0,80.0,48.0,30.09,10.0,7.0,0.0
2,41.104434000000005,-73.563047,CT-15 N,Stamford,Fairfield,CT,43.0,34.0,51.0,29.52,10.0,23.0,0.0
2,41.129022,-73.299289,Governor John Davis Lodge Tpke,Westport,Fairfield,CT,45.0,41.0,63.0,29.89,10.0,7.0,0.0
2,41.175652,-73.168113,Governor John Davis Lodge Tpke,Bridgeport,Fairfield,CT,65.0,65.0,81.0,29.91,10.0,9.0,0.0
2,41.9536,-72.27470699999999, Buckley Hwy,Stafford Springs,Tolland,CT,57.0,57.0,87.0,29.26,10.0,5.0,0.0
2,42.093994,-70.904587,Beech St,Rockland,Plymouth,MA,84.0,84.0,46.0,29.6,10.0,13.0,0.0
2,41.755649,-72.700561,I-84 E,Hartford,Hartford,CT,53.0,53.0,89.0,29.81,10.0,0.0,0.0
2,42.165901,-70.89031999999999,MA-3 N,Rockland,Plymouth,MA,61.0,61.0,78.0,29.93,10.0,0.0,0.0
2,42.88395,-71.48042,Everett Tpke S,Merrimack,Hillsborough,NH,51.0,51.0,74.0,30.01,10.0,3.0,0.0
2,41.424647,-73.355981,I-84 W,Newtown,Fairfield,CT,44.0,42.0,100.0,29.58,10.0,5.0,0.0
2,42.15382,-72.63549,I-90 E,West Springfield,Hampden,MA,32.0,27.0,92.0,30.0,0.25,5.0,0.06
3,42.706612,-71.138962,I-495 S,Lawrence,Essex,MA,57.0,57.0,81.0,29.79,10.0,0.0,0.0
2,42.39135,-71.013161,William F McClellan Hwy,East Boston,Suffolk,MA,55.0,55.0,74.0,30.38,10.0,6.0,0.0
2,41.752456,-72.644509,CT-2 E,East Hartford,Hartford,CT,32.0,32.0,92.0,29.99,0.75,3.0,0.0
3,41.540649,-73.08091,I-84 W,Waterbury,New Haven,CT,34.0,25.0,96.0,28.36,0.75,13.0,0.01
2,43.51997,-71.240883,Fort Point Rd,Alton Bay,Belknap,NH,34.0,29.0,70.0,29.74,10.0,6.0,0.0
2,41.901844,-72.284384,I-84 E,Willington,Tolland,CT,74.0,74.0,93.0,29.87,10.0,0.0,0.0
2,41.40893,-73.06999,CT-8 N,Seymour,New Haven,CT,40.0,40.0,100.0,29.21,0.25,0.0,0.0
2,42.56007,-71.269386,Boston Rd,Billerica,Middlesex,MA,71.0,71.0,73.0,29.79,10.0,12.0,0.0
2,41.764832,-72.629764,CT-15 S,East Hartford,Hartford,CT,84.0,84.0,65.0,30.13,10.0,12.0,0.0
2,41.120644,-73.372326,Governor John Davis Lodge Tpke,Westport,Fairfield,CT,39.0,33.0,76.0,29.84,10.0,8.0,0.0
3,41.70718,-71.47219100000001,I-295 N,Warwick,Kent,RI,67.0,67.0,18.0,30.2,10.0,13.0,0.0
2,41.244534,-73.103554,CT-15 N,Stratford,Fairfield,CT,86.0,86.0,41.0,29.92,10.0,10.0,0.0
2,41.81414,-71.439796,RI-10 N,Providence,Providence,RI,73.0,73.0,51.0,30.05,10.0,10.0,0.0
2,41.054331,-73.525539,I-95 N,Stamford,Fairfield,CT,54.0,54.0,93.0,29.56,10.0,0.0,0.0
2,42.35532,-71.07505,Berkeley St,Boston,Suffolk,MA,34.0,23.0,92.0,30.29,1.0,17.0,0.06
2,41.873081,-71.41922,Power Rd,Pawtucket,Providence,RI,72.0,72.0,97.0,29.55,10.0,3.0,0.0
3,42.129063,-71.224556,I-95 N,Sharon,Norfolk,MA,55.0,55.0,28.0,29.85,10.0,9.0,0.0
2,42.415508,-71.257347,I-95 S,Waltham,Middlesex,MA,42.0,42.0,51.0,29.75,10.0,3.0,0.0
3,42.363895,-71.589401,State Highway 85 Connector,Marlborough,Middlesex,MA,84.0,84.0,61.0,29.83,10.0,6.0,0.0
2,41.241746,-73.07968000000001,Milford Pkwy N,Milford,New Haven,CT,68.0,68.0,84.0,30.23,7.0,0.0,0.0
2,41.814743,-71.43991899999999,RI-10 S,Providence,Providence,RI,91.0,91.0,55.0,29.89,10.0,15.0,0.0
2,41.808699,-71.404752,I-95 N,Providence,Providence,RI,30.0,21.0,72.0,29.65,10.0,12.0,0.0
2,41.185297999999996,-73.193226,CT-25 S,Bridgeport,Fairfield,CT,56.0,56.0,90.0,30.2,9.0,3.0,0.0
2,42.870022,-72.75836899999999,Augur Hole Rd,Brattleboro,Windham,VT,48.0,46.0,66.0,29.81,10.0,5.0,0.0
2,42.946529,-71.349693,Londonderry Tpke,Auburn,Rockingham,NH,50.0,50.0,48.0,29.51,10.0,9.0,0.0
4,42.30345,-71.08521999999999, Blue Hill Ave,Dorchester,Suffolk,MA,41.0,30.0,93.0,29.76,1.0,28.0,0.0
3,42.762203,-71.122849,I-495 S,Haverhill,Essex,MA,50.0,50.0,86.0,30.14,8.0,6.0,0.0
3,42.51239,-71.00643199999999,Lynnfield Cmns,Lynnfield,Essex,MA,72.0,72.0,87.0,29.82,10.0,9.0,0.0
2,42.502384,-71.11895,I-95 S,Reading,Middlesex,MA,66.0,66.0,70.0,30.2,10.0,12.0,0.0
3,41.680671999999994,-72.653412,I-91 N,Wethersfield,Hartford,CT,51.0,51.0,66.0,30.41,10.0,9.0,0.0
3,41.07131,-73.48294,Governor John Davis Lodge Tpke,Darien,Fairfield,CT,37.0,29.0,33.0,29.79,10.0,13.0,0.0
3,42.355515000000004,-71.027328,Boston - Hingham,Boston,Suffolk,MA,64.0,64.0,80.0,29.54,4.0,20.0,0.04
2,41.141711,-73.282956,Governor John Davis Lodge Tpke,Southport,Fairfield,CT,65.0,65.0,42.0,30.21,10.0,9.0,0.0
3,42.0585,-71.0606,MA-24 N,Brockton,Plymouth,MA,42.0,38.0,85.0,29.93,10.0,7.0,0.0
2,42.52541,-71.06482700000001,I-95 N,Lynnfield,Essex,MA,69.0,69.0,53.0,29.84,10.0,17.0,0.0
2,41.244549,-73.103546,CT-15 N,Stratford,Fairfield,CT,62.0,62.0,84.0,30.02,10.0,10.0,0.0
2,42.28034,-71.04635, Hallet St,Dorchester Center,Suffolk,MA,54.0,54.0,62.0,30.24,10.0,14.0,0.0
2,41.40092,-73.46924,I-84 E,Danbury,Fairfield,CT,28.0,28.0,61.0,29.84,10.0,3.0,0.0
2,41.287,-72.92533,Governor John Davis Lodge Tpke S,New Haven,New Haven,CT,43.0,38.0,93.0,30.09,5.0,8.0,0.01
4,41.72493,-73.22269, Bantam Rd,Bantam,Litchfield,CT,26.0,17.0,37.0,29.58,10.0,9.0,0.0
2,42.273312,-71.093498,Blue Hill Ave,Mattapan,Suffolk,MA,51.0,51.0,28.0,29.74,10.0,20.0,0.0
2,41.276373,-72.967625,Governor John Davis Lodge Tpke N,West Haven,New Haven,CT,60.0,60.0,62.0,30.23,10.0,9.0,0.0
2,41.455314,-73.237554,I-84 E,Southbury,New Haven,CT,35.0,31.0,59.0,29.27,10.0,5.0,0.0
2,41.233018,-73.03738,I-95 N,Milford,New Haven,CT,35.0,35.0,54.0,29.71,10.0,3.0,0.0
3,41.764922999999996,-72.692139,I-84 W,Hartford,Hartford,CT,44.0,37.0,89.0,29.67,4.0,14.0,0.03
1,42.51967,-71.69105,MA-2 W,Lancaster,Worcester,MA,52.0,52.0,74.0,29.9,10.0,0.0,0.0
2,42.689228,-73.11192, Curran Hwy,North Adams,Berkshire,MA,25.0,25.0,88.0,29.56,10.0,0.0,0.0
2,42.296902,-71.478813,Worcester Rd,Framingham,Middlesex,MA,34.0,29.0,67.0,29.72,5.0,6.0,0.0
2,42.488995,-71.191399,I-95 S,Burlington,Middlesex,MA,22.0,11.0,82.0,29.88,7.0,10.0,0.0
2,42.330341,-71.08399200000001,Washington St,Roxbury,Suffolk,MA,45.0,45.0,65.0,29.72,10.0,0.0,0.0
2,41.318146,-72.90347299999999,I-91 S,New Haven,New Haven,CT,90.0,90.0,57.0,30.0,10.0,7.0,0.0
3,42.761108,-71.232857,I-93 N,Salem,Rockingham,NH,45.0,38.0,60.0,29.78,10.0,16.0,0.0
3,42.242306,-71.027573,I-93 S,Quincy,Norfolk,MA,19.0,10.0,30.0,30.56,10.0,7.0,0.0
2,41.150375,-73.248499,Governor John Davis Lodge Tpke,Fairfield,Fairfield,CT,38.0,34.0,76.0,30.02,10.0,5.0,0.0
2,42.431808000000004,-71.016998,Northeast Expy N,Revere,Suffolk,MA,41.0,37.0,93.0,30.1,8.0,6.0,0.0
3,41.23039,-73.07275,I-95 N,Milford,New Haven,CT,69.0,69.0,93.0,30.0,9.0,8.0,0.0
2,41.541413,-72.777383,N Wall St,Meriden,New Haven,CT,62.0,62.0,86.0,30.0,10.0,0.0,0.0
2,41.84223,-72.66525,I-91 S,Windsor,Hartford,CT,33.0,28.0,96.0,29.39,1.0,6.0,0.0
2,42.038959999999996,-71.308327,I-495 N,Plainville,Norfolk,MA,64.0,64.0,100.0,29.44,10.0,5.0,0.0
2,42.32336,-71.109581,Bynner St,Jamaica Plain,Suffolk,MA,52.0,52.0,86.0,29.83,10.0,13.0,0.0
2,42.305206,-71.084976,Blue Hill Ave,Dorchester,Suffolk,MA,59.0,59.0,16.0,29.83,10.0,15.0,0.0
3,42.4747,-71.22629,MA-128 N,Lexington,Middlesex,MA,82.0,82.0,62.0,29.76,10.0,22.0,0.0
4,41.89778,-71.93101, Putnam Rd,Pomfret Center,Windham,CT,40.0,31.0,83.0,29.27,10.0,16.0,0.0
2,42.310623,-71.062225,Bowdoin St,Dorchester,Suffolk,MA,43.0,37.0,60.0,29.98,10.0,12.0,0.0
2,41.869751,-71.425797,Charles St,North Providence,Providence,RI,74.0,74.0,71.0,29.5,10.0,0.0,0.0
3,42.203285,-71.11975100000001,I-93 S,Canton,Norfolk,MA,34.0,29.0,75.0,29.77,10.0,6.0,0.0
2,41.817064,-71.415565,I-95 N,Providence,Providence,RI,47.0,41.0,77.0,30.32,10.0,13.0,0.0
2,42.29723,-71.076332,Thane St,Dorchester Center,Suffolk,MA,31.0,31.0,67.0,30.42,10.0,0.0,0.0
3,42.399440000000006,-71.03834,US-1 N,Chelsea,Suffolk,MA,59.0,59.0,23.0,29.77,10.0,21.0,0.0
3,41.290417,-72.897369,Governor John Davis Lodge Tpke N,East Haven,New Haven,CT,34.0,26.0,92.0,29.97,2.0,10.0,0.07
2,41.174601,-73.19500500000001,CT-25 S,Bridgeport,Fairfield,CT,55.0,55.0,89.0,30.21,10.0,3.0,0.0
2,41.163994,-73.37664000000001,CT-15 S,Westport,Fairfield,CT,46.0,44.0,71.0,29.97,10.0,5.0,0.0
3,42.985718,-71.416115,I-93 S,Manchester,Hillsborough,NH,37.0,30.0,50.0,29.8,10.0,10.0,0.0
2,42.607361,-71.321922,I-495 N,Chelmsford,Middlesex,MA,82.0,82.0,33.0,29.87,10.0,13.0,0.0
2,41.23553,-73.04589,I-95 S,Milford,New Haven,CT,59.0,59.0,22.0,30.22,10.0,9.0,0.0
2,42.3489,-71.088516,Massachusetts Ave,Boston,Suffolk,MA,45.0,43.0,80.0,30.42,10.0,5.0,0.0
3,41.301048,-72.91423,Governor John Davis Lodge Tpke S,New Haven,New Haven,CT,56.0,56.0,40.0,29.53,10.0,21.0,0.0
3,42.77088,-71.11962,I-495 N,Haverhill,Essex,MA,40.0,33.0,93.0,29.76,4.0,13.0,0.03
2,42.52129,-71.723877,I-190 N,Leominster,Worcester,MA,51.0,51.0,54.0,29.47,10.0,14.0,0.0
2,42.788467,-71.496117,Everett Tpke S,Nashua,Hillsborough,NH,55.0,55.0,47.0,29.42,10.0,5.0,0.0
2,42.262611,-71.10842099999999,Wood Ave,Hyde Park,Suffolk,MA,53.0,53.0,80.0,30.08,10.0,9.0,0.0
2,42.526711,-70.96344,Crestwood Ln,Peabody,Essex,MA,65.0,65.0,52.0,30.17,10.0,3.0,0.0
2,41.988281,-70.807587,Main St,Plympton,Plymouth,MA,70.0,70.0,59.0,30.18,10.0,8.0,0.0
4,41.897420000000004,-71.36976999999999, Washington St,Attleboro,Bristol,MA,45.0,45.0,76.0,29.33,10.0,0.0,0.01
3,41.81337,-71.408691,Crary St,Providence,Providence,RI,38.0,31.0,53.0,29.95,10.0,9.0,0.0
2,42.605461,-71.34465,I-495 S,Chelmsford,Middlesex,MA,33.0,29.0,89.0,30.01,10.0,5.0,0.0
3,43.403362,-72.414314,I-91 N,Windsor,Windsor,VT,67.0,67.0,40.0,29.22,10.0,6.0,0.0
2,42.30835,-71.122612,Hillcroft Rd,Jamaica Plain,Suffolk,MA,75.0,75.0,73.0,29.74,10.0,10.0,0.0
2,42.540271999999995,-71.759979,N Main St,Leominster,Worcester,MA,47.0,47.0,52.0,29.7,9.0,0.0,0.0
3,41.881572999999996,-71.37690699999999,US-1 N,Pawtucket,Providence,RI,36.0,28.0,55.0,29.19,10.0,12.0,0.0
2,42.37627,-71.24176800000001,Grant St,Waltham,Middlesex,MA,61.0,61.0,62.0,29.73,10.0,9.0,0.0
2,41.771854,-72.599662,I-84 W,East Hartford,Hartford,CT,53.0,53.0,86.0,29.82,10.0,5.0,0.0
3,42.726639,-71.13913000000001,I-495 S,Methuen,Essex,MA,67.0,67.0,59.0,29.96,10.0,5.0,0.0
2,41.763271,-72.654036,CT-2 W,East Hartford,Hartford,CT,66.0,66.0,52.0,29.94,10.0,8.0,0.0
2,42.755299,-71.472961,W Hollis St,Nashua,Hillsborough,NH,39.0,36.0,76.0,29.98,10.0,5.0,0.0
2,42.222538,-71.032257,I-93 S,Braintree,Norfolk,MA,26.0,26.0,81.0,30.19,10.0,0.0,0.0
4,43.944653,-72.621658,VT Route 66,Randolph Center,Orange,VT,80.0,80.0,48.0,28.59,10.0,8.0,0.0
2,41.37516,-72.19332800000001,Governor John Davis Lodge Tpke N,East Lyme,New London,CT,34.0,30.0,85.0,30.45,10.0,5.0,0.0
3,41.222282,-73.078796,I-95 S,Milford,New Haven,CT,86.0,86.0,48.0,30.01,10.0,12.0,0.0
2,41.761161,-72.69834200000001,I-84 E,Hartford,Hartford,CT,53.0,53.0,57.0,30.23,10.0,13.0,0.0
2,42.267368,-71.10186800000001,Greenfield Rd,Mattapan,Suffolk,MA,86.0,86.0,46.0,29.93,10.0,6.0,0.0
3,42.66109,-71.19785999999999,I-495 N,Andover,Essex,MA,88.0,88.0,42.0,29.8,10.0,13.0,0.0
2,43.518421000000004,-71.463989,S Main St,Laconia,Belknap,NH,24.0,16.0,57.0,29.38,10.0,7.0,0.0
3,42.371390000000005,-71.06708,US-1 S,Charlestown,Suffolk,MA,69.0,69.0,54.0,29.88,10.0,8.0,0.0
2,44.100304,-70.08683,I-95 N,Sabattus,Androscoggin,ME,21.0,11.0,60.0,30.17,10.0,8.0,0.0
2,41.93645,-71.4683,Eddie Dowling Hwy S,Lincoln,Providence,RI,41.0,38.0,96.0,29.62,7.0,5.0,0.01
2,42.381382,-71.05069,Tobin Memorial Brg N,Charlestown,Suffolk,MA,68.0,68.0,90.0,30.03,10.0,8.0,0.0
2,41.745467,-71.485625,I-295 N,Cranston,Providence,RI,50.0,50.0,52.0,30.29,10.0,5.0,0.0
2,41.757563,-72.663327,I-91 S,Hartford,Hartford,CT,36.0,36.0,57.0,30.42,10.0,0.0,0.0
3,41.819247999999995,-71.389572,I-195 W,Providence,Providence,RI,38.0,32.0,79.0,29.79,10.0,8.0,0.0
2,41.75009,-72.71555,I-84 W,West Hartford,Hartford,CT,38.0,34.0,93.0,28.76,4.0,5.0,0.0
2,42.359359999999995,-71.053337,State St,Boston,Suffolk,MA,31.0,26.0,47.0,30.31,10.0,5.0,0.0
3,41.840019,-71.411263,I-95 S,Providence,Providence,RI,63.0,63.0,87.0,29.4,10.0,7.0,0.0
3,41.287884000000005,-72.60140200000001,Governor John Davis Lodge Tpke S,Madison,New Haven,CT,75.0,75.0,65.0,29.73,10.0,5.0,0.0
3,41.402640999999996,-73.463623,I-84 E,Danbury,Fairfield,CT,34.0,30.0,52.0,29.68,10.0,5.0,0.0
3,42.42537,-70.98602, Oak Island St,Revere,Suffolk,MA,44.0,36.0,85.0,29.41,4.0,17.0,0.03
3,41.765285,-72.626373,I-84 E,East Hartford,Hartford,CT,79.0,79.0,69.0,29.84,10.0,5.0,0.0
3,42.287659999999995,-71.17143, Baker St,West Roxbury,Suffolk,MA,62.0,62.0,19.0,29.83,10.0,13.0,0.0
3,42.20639,-70.9936,MA-3 N,Braintree,Norfolk,MA,70.0,70.0,84.0,29.65,0.75,18.0,0.42
3,41.17483,-73.16234,I-95 N,Bridgeport,Fairfield,CT,83.0,83.0,47.0,29.69,10.0,14.0,0.0
2,41.8216,-71.42035,I-95 S,Providence,Providence,RI,44.0,36.0,71.0,30.01,10.0,18.0,0.0
2,42.837528000000006,-72.355659,Keene Rd,Winchester,Cheshire,NH,48.0,48.0,41.0,29.28,10.0,3.0,0.0
2,42.361031,-71.199211,Watertown St,Newton,Middlesex,MA,38.0,30.0,27.0,30.01,10.0,13.0,0.0
2,42.33952,-71.108261,Longwood Ave,Boston,Suffolk,MA,44.0,36.0,68.0,29.84,10.0,17.0,0.0
2,41.040254,-73.581973,I-95 S,Riverside,Fairfield,CT,45.0,39.0,93.0,29.12,2.0,13.0,0.01
2,41.518975,-73.102222,I-84 W,Middlebury,New Haven,CT,55.0,55.0,94.0,29.12,7.0,14.0,0.0
2,41.763356,-72.695363,I-84 W,Hartford,Hartford,CT,29.0,29.0,92.0,29.67,4.0,0.0,0.0
3,41.716128999999995,-71.47087900000001,East Ave,Warwick,Kent,RI,38.0,32.0,60.0,30.04,10.0,8.0,0.0
2,41.750137,-72.721936,I-84 W,West Hartford,Hartford,CT,31.0,31.0,89.0,30.24,10.0,0.0,0.0
3,42.624393,-71.176514,I-93 N,Andover,Essex,MA,61.0,61.0,87.0,29.34,4.0,16.0,0.07
2,42.528564,-70.99363699999999,Newbury St,Peabody,Essex,MA,34.0,29.0,67.0,30.05,10.0,6.0,0.0
2,41.530476,-72.768856,CT-15 N,Meriden,New Haven,CT,52.0,52.0,93.0,29.74,10.0,0.0,0.05
2,41.402714,-72.898026,Whitney Ave,Hamden,New Haven,CT,47.0,44.0,68.0,30.01,10.0,6.0,0.0
3,42.148914000000005,-71.198723,I-95 N,East Walpole,Norfolk,MA,87.0,87.0,53.0,30.02,10.0,9.0,0.0
3,42.29272,-71.48461999999999,I-90 E,Framingham,Middlesex,MA,46.0,41.0,51.0,29.84,10.0,12.0,0.0
2,42.129661999999996,-70.88018000000001,Whiting St,Hanover,Plymouth,MA,27.0,19.0,74.0,30.38,10.0,7.0,0.0
2,41.27276,-73.11884,CT-8 N,Shelton,Fairfield,CT,44.0,39.0,43.0,30.31,10.0,9.0,0.0
2,44.17517,-70.51271, Main St,Oxford,Oxford,ME,21.0,21.0,93.0,29.6,8.0,0.0,0.0
3,42.690746000000004,-71.206329,River Rd,Andover,Essex,MA,25.0,18.0,37.0,30.55,10.0,6.0,0.0
3,41.990341,-72.587654,Hazard Ave,Enfield,Hartford,CT,55.0,55.0,42.0,30.1,10.0,14.0,0.0
3,41.649544,-72.672073,I-91 N,Rocky Hill,Hartford,CT,47.0,47.0,86.0,29.89,10.0,3.0,0.0
2,41.75683,-72.65153000000001,CT-2 W,East Hartford,Hartford,CT,25.0,25.0,75.0,30.37,10.0,0.0,0.0
3,43.090610999999996,-72.456535,I-91 N,Putney,Windham,VT,87.0,87.0,37.0,29.36,10.0,7.0,0.0
2,41.92799,-71.88295,I-395 S,Putnam,Windham,CT,40.0,40.0,97.0,30.08,8.0,0.0,0.0
4,41.757563,-72.663327,I-91 S,Hartford,Hartford,CT,36.0,36.0,57.0,30.42,10.0,0.0,0.0
2,42.658611,-71.425598,Westeck Dr,Tyngsboro,Middlesex,MA,83.0,83.0,69.0,29.6,10.0,6.0,0.0
2,42.524719,-71.20826,Cutting Ln,Burlington,Middlesex,MA,74.0,74.0,76.0,29.83,10.0,17.0,0.0
2,42.369099,-71.073235,Charlestown Ave,Cambridge,Middlesex,MA,61.0,61.0,97.0,30.01,10.0,5.0,0.0
3,42.35103,-71.09295,Storrow Dr,Boston,Suffolk,MA,44.0,38.0,73.0,29.75,10.0,12.0,0.0
3,41.84964,-71.511513,I-295 S,Johnston,Providence,RI,75.0,75.0,55.0,29.67,10.0,8.0,0.0
2,43.21713,-71.53135,I-393 E,Concord,Merrimack,NH,39.0,33.0,62.0,29.2,10.0,9.0,0.0
2,41.754,-72.65255,Wilbur Cross Hwy N,East Hartford,Hartford,CT,75.0,75.0,76.0,30.12,10.0,12.0,0.0
2,41.81414,-71.439796,RI-10 N,Providence,Providence,RI,77.0,77.0,66.0,29.93,10.0,12.0,0.0
3,41.803745,-72.658737,I-91 S,Windsor,Hartford,CT,47.0,44.0,44.0,29.92,10.0,6.0,0.0
3,41.86603,-71.40269,I-95 S,Pawtucket,Providence,RI,51.0,51.0,54.0,29.13,10.0,3.0,0.0
2,42.245201,-71.802475,I-290 E,Worcester,Worcester,MA,49.0,46.0,86.0,29.03,10.0,7.0,0.0
2,41.276340999999995,-73.11514,CT-8 N,Shelton,Fairfield,CT,34.0,34.0,82.0,30.28,10.0,3.0,0.0
2,42.270531,-71.414864,Alexander St,Framingham,Middlesex,MA,76.0,76.0,74.0,29.74,10.0,6.0,0.0
2,42.061821,-71.061485,MA-24 N,Brockton,Plymouth,MA,54.0,54.0,86.0,30.08,2.0,0.0,0.0
2,41.736129999999996,-72.66319,CT-15 S,Hartford,Hartford,CT,84.0,84.0,61.0,29.84,10.0,10.0,0.0
3,42.32785,-71.05878,I-93 N,Boston,Suffolk,MA,41.0,30.0,93.0,29.78,3.0,30.0,0.01
2,43.023478999999995,-71.366096,NH-101 E,Auburn,Rockingham,NH,37.0,30.0,59.0,29.45,10.0,9.0,0.0
2,41.72383,-70.94634,MA-140 S,New Bedford,Bristol,MA,46.0,42.0,68.0,30.01,10.0,7.0,0.0
2,42.34433,-71.067001,E Berkeley St,Boston,Suffolk,MA,36.0,28.0,70.0,29.9,10.0,12.0,0.0
2,42.35577,-71.186142,Centre St,Newton,Middlesex,MA,74.0,74.0,76.0,30.03,10.0,16.0,0.0
2,42.615849,-71.005989,Peabody St,Middleton,Essex,MA,32.0,23.0,56.0,29.87,10.0,12.0,0.0
4,42.42051,-71.14206999999999,High St,Medford,Middlesex,MA,44.0,40.0,71.0,29.75,10.0,7.0,0.0
2,41.782025,-72.569407,I-84 W,Manchester,Hartford,CT,59.0,59.0,51.0,30.13,10.0,0.0,0.0
2,41.310748,-72.914237,I-91 N,New Haven,New Haven,CT,56.0,56.0,93.0,30.28,4.0,3.0,0.0
2,41.584415,-73.054451,CT-8 S,Waterbury,New Haven,CT,17.0,17.0,88.0,29.59,10.0,0.0,0.0
2,42.438068,-70.97028399999999,N Shore Rd,Revere,Suffolk,MA,57.0,57.0,96.0,29.86,1.0,16.0,0.04
2,42.574749,-71.24115,Gray St,Billerica,Middlesex,MA,78.0,78.0,56.0,29.65,10.0,13.0,0.0
2,41.81414,-71.439796,RI-10 N,Providence,Providence,RI,62.0,62.0,96.0,30.08,5.0,3.0,0.0
2,43.558102000000005,-71.18139599999999,S Main St,Wolfeboro,Carroll,NH,67.0,67.0,39.0,29.36,10.0,12.0,0.0
2,41.019616,-73.62709699999999,I-95 S,Greenwich,Fairfield,CT,48.0,45.0,58.0,29.85,10.0,6.0,0.0
2,41.07014,-73.485851,Governor John Davis Lodge Tpke,Darien,Fairfield,CT,63.0,63.0,100.0,29.43,0.5,0.0,0.01
3,41.823475,-71.419296,Aborn St,Providence,Providence,RI,27.0,15.0,41.0,29.85,10.0,16.0,0.0
2,42.774421999999994,-71.986008,Cathedral Rd,Rindge,Cheshire,NH,36.0,36.0,93.0,29.25,10.0,3.0,0.0
2,41.323554,-72.255753,Governor John Davis Lodge Tpke S,East Lyme,New London,CT,37.0,37.0,96.0,30.21,10.0,3.0,0.0
3,42.23818,-71.02391,Southeast Expy N,Quincy,Norfolk,MA,70.0,70.0,26.0,29.78,10.0,9.0,0.0
2,41.319161,-72.89386800000001,I-91 N,New Haven,New Haven,CT,81.0,81.0,82.0,30.14,10.0,6.0,0.0
2,41.75649,-72.649229,US-5 S,East Hartford,Hartford,CT,53.0,53.0,89.0,29.81,6.0,9.0,0.0
2,43.03025,-71.35481,NH-101 E,Auburn,Rockingham,NH,81.0,81.0,49.0,29.91,10.0,5.0,0.0
2,42.28392,-71.352402,Summer St,Natick,Middlesex,MA,81.0,81.0,35.0,29.74,10.0,8.0,0.0
2,41.123197999999995,-73.345955,Hillspoint Rd,Westport,Fairfield,CT,48.0,48.0,74.0,30.38,10.0,0.0,0.0
3,42.538536,-71.49324,I-495 N,Littleton,Middlesex,MA,17.0,17.0,50.0,30.25,10.0,0.0,0.0
2,42.26363,-71.045311,I-93 S,Milton,Norfolk,MA,36.0,36.0,82.0,29.74,3.0,0.0,0.09
2,42.343959999999996,-71.065933,Washington St,Boston,Suffolk,MA,57.0,57.0,96.0,30.3,0.5,10.0,0.02
2,42.210365,-70.996086,MA-3 N,Braintree,Norfolk,MA,58.0,58.0,42.0,30.01,10.0,7.0,0.0
3,41.76663,-72.65724,US-6 E,East Hartford,Hartford,CT,42.0,39.0,47.0,30.04,10.0,5.0,0.0
2,41.424647,-73.355981,I-84 W,Newtown,Fairfield,CT,39.0,34.0,73.0,29.2,10.0,7.0,0.0
2,41.304484,-73.034223,CT-15 S,Orange,New Haven,CT,51.0,51.0,44.0,30.15,10.0,8.0,0.0
2,41.05415,-73.52708,I-95 S,Stamford,Fairfield,CT,37.0,33.0,96.0,29.04,1.0,5.0,0.01
2,41.25351,-73.072731,CT-15 S,Milford,New Haven,CT,75.0,75.0,82.0,30.04,10.0,7.0,0.0
3,41.737751,-72.662849,CT-15 N,Hartford,Hartford,CT,77.0,77.0,52.0,30.02,10.0,10.0,0.0
3,41.825728999999995,-71.419891,US-6 E,Providence,Providence,RI,97.0,97.0,35.0,29.67,10.0,13.0,0.0
2,42.436958000000004,-70.96929899999999,Lynnway,Revere,Suffolk,MA,70.0,70.0,55.0,30.14,10.0,5.0,0.0
2,42.205875,-71.14053299999999,I-95 N,Canton,Norfolk,MA,62.0,62.0,56.0,30.1,10.0,6.0,0.0
2,41.754859,-72.651289,CT-15 N,East Hartford,Hartford,CT,52.0,52.0,86.0,30.17,10.0,5.0,0.0
2,41.767326000000004,-72.61936,I-84 W,East Hartford,Hartford,CT,24.0,17.0,65.0,30.13,10.0,6.0,0.0
2,41.668664,-72.846254, Woodford Ave,Plainville,Hartford,CT,66.0,66.0,73.0,29.77,10.0,0.0,0.0
2,40.995208,-73.658772,I-95 S,Greenwich,Fairfield,CT,75.0,75.0,24.0,29.79,10.0,5.0,0.0
3,42.916847,-71.371803,I-93 N,Londonderry,Rockingham,NH,53.0,53.0,80.0,29.58,10.0,5.0,0.0
3,42.352928000000006,-71.05497,I-93 N,Boston,Suffolk,MA,84.0,84.0,53.0,29.88,10.0,12.0,0.0
3,41.723228000000006,-72.790207,I-84 W,Farmington,Hartford,CT,48.0,44.0,89.0,29.36,4.0,8.0,0.02
2,41.44194,-72.11747,Governor John Davis Lodge Tpke S,Uncasville,New London,CT,68.0,68.0,68.0,30.06,10.0,12.0,0.0
2,41.77217,-72.59765,I-84 W,East Hartford,Hartford,CT,71.0,71.0,90.0,29.97,10.0,8.0,0.01
2,41.68412,-71.1209,MA-24 N,Fall River,Bristol,MA,46.0,40.0,71.0,29.43,10.0,13.0,0.0
2,41.526629,-72.768152,Bee St,Meriden,New Haven,CT,41.0,37.0,49.0,29.89,10.0,6.0,0.0
2,43.038920000000005,-71.43351, Hooksett Rd,Hooksett,Merrimack,NH,41.0,37.0,73.0,29.61,10.0,6.0,0.0
3,41.815113000000004,-71.370491,Freeborn Ave,East Providence,Providence,RI,63.0,63.0,37.0,30.07,10.0,12.0,0.0
2,42.561531,-71.99041,W Broadway,Gardner,Worcester,MA,88.0,88.0,37.0,29.74,10.0,8.0,0.0
2,41.001201,-73.652397,I-95 S,Greenwich,Fairfield,CT,31.0,23.0,46.0,29.86,10.0,9.0,0.0
2,40.998999,-73.654747,I-95 S,Greenwich,Fairfield,CT,36.0,27.0,46.0,29.75,10.0,15.0,0.0
4,41.64626,-72.67403,I-91 N,Rocky Hill,Hartford,CT,85.0,85.0,28.0,29.98,10.0,9.0,0.0
2,42.22299,-71.1183, Brush Hill Rd,Milton,Norfolk,MA,60.0,60.0,75.0,30.22,10.0,8.0,0.0
2,42.363281,-71.12943299999999,Western Ave,Allston,Suffolk,MA,45.0,36.0,37.0,30.05,10.0,24.0,0.0
2,42.343361,-71.085709,Massachusetts Ave,Boston,Suffolk,MA,64.0,64.0,96.0,30.14,10.0,7.0,0.0
2,41.02029,-73.62441,I-95 S,Greenwich,Fairfield,CT,20.0,20.0,38.0,30.12,10.0,0.0,0.0
3,42.54899,-71.84344,MA-2 W,Fitchburg,Worcester,MA,83.0,83.0,29.0,29.61,10.0,10.0,0.0
2,42.062119,-71.06178299999999,MA-24 S,Brockton,Plymouth,MA,37.0,33.0,48.0,30.14,10.0,5.0,0.0
3,41.10552,-73.42583,I-95 N,Norwalk,Fairfield,CT,79.0,79.0,60.0,29.52,10.0,12.0,0.0
2,41.719475,-72.250236, Willimantic Rd,Columbia,Tolland,CT,28.0,20.0,69.0,29.43,10.0,8.0,0.0
2,42.476978,-71.217331,I-95 N,Burlington,Middlesex,MA,28.0,28.0,85.0,29.71,10.0,0.0,0.0
4,42.081981,-72.57987800000001,S End Brg E,Springfield,Hampden,MA,37.0,33.0,51.0,29.75,10.0,6.0,0.0
2,41.749914000000004,-72.728316,I-84 E,West Hartford,Hartford,CT,54.0,54.0,75.0,30.14,10.0,8.0,0.0
2,41.293841,-72.901078,Governor John Davis Lodge Tpke S,East Haven,New Haven,CT,64.0,64.0,56.0,30.25,10.0,3.0,0.0
2,41.162841,-73.385965,CT-15 N,Westport,Fairfield,CT,56.0,56.0,77.0,30.26,10.0,5.0,0.0
2,41.054331,-73.525539,I-95 N,Stamford,Fairfield,CT,56.0,56.0,90.0,29.46,10.0,0.0,0.0
2,41.297398,-72.722555,Governor John Davis Lodge Tpke N,Guilford,New Haven,CT,39.0,34.0,75.0,29.19,10.0,8.0,0.0
2,42.298031,-71.049133,William T Morrissey Blvd,Dorchester,Suffolk,MA,72.0,72.0,51.0,30.09,10.0,7.0,0.0
3,43.003151,-71.475594,Everett Tpke S,Manchester,Hillsborough,NH,29.0,29.0,58.0,30.37,10.0,3.0,0.0
2,41.763292,-72.667168,I-91 S,Hartford,Hartford,CT,75.0,75.0,60.0,30.02,10.0,13.0,0.0
2,41.530474,-72.768854,CT-15 N,Meriden,New Haven,CT,47.0,41.0,46.0,29.94,10.0,15.0,0.0
3,41.30433,-73.13016, Shelton Ave,Shelton,Fairfield,CT,46.0,46.0,86.0,29.81,10.0,0.0,0.0
2,44.80473,-69.37521,I-95 N,Pittsfield,Somerset,ME,35.0,29.0,96.0,28.8,5.0,7.0,0.09
2,42.306076000000004,-71.078377,Columbia Rd,Dorchester,Suffolk,MA,53.0,53.0,100.0,30.22,0.5,5.0,0.0
3,42.157532,-72.639923,Bonnie Brae Dr,West Springfield,Hampden,MA,41.0,36.0,60.0,29.4,10.0,7.0,0.0
2,41.025612,-73.609934,I-95 S,Greenwich,Fairfield,CT,52.0,52.0,59.0,29.53,10.0,8.0,0.0
2,41.75683,-72.65153000000001,CT-2 W,East Hartford,Hartford,CT,40.0,40.0,49.0,30.33,10.0,0.0,0.0
3,41.696976,-71.47575400000001,I-95 S,Warwick,Kent,RI,74.0,74.0,68.0,30.15,10.0,8.0,0.0
3,41.088776,-73.455826,Governor John Davis Lodge Tpke,Darien,Fairfield,CT,46.0,40.0,93.0,29.73,1.0,14.0,0.0
2,42.374179999999996,-71.438751,Peakham Rd,Sudbury,Middlesex,MA,30.0,24.0,88.0,29.69,2.0,6.0,0.02
3,42.496002000000004,-71.1782,Winn St,Burlington,Middlesex,MA,51.0,51.0,96.0,29.66,10.0,10.0,0.0
3,41.174397,-73.160492,Governor John Davis Lodge Tpke,Bridgeport,Fairfield,CT,71.0,71.0,84.0,29.96,10.0,6.0,0.0
2,42.430195,-71.10301199999999,I-93 N,Medford,Middlesex,MA,67.0,67.0,52.0,30.08,10.0,3.0,0.0
3,41.32365,-72.32751999999999,Lyme St,Old Lyme,New London,CT,81.0,81.0,37.0,29.51,10.0,7.0,0.0
3,41.818333,-71.382172,US-44 E,East Providence,Providence,RI,33.0,25.0,56.0,30.3,10.0,10.0,0.0
2,41.737751,-72.662849,CT-15 N,Hartford,Hartford,CT,72.0,72.0,43.0,30.31,10.0,0.0,0.0
2,42.343269,-71.102592,Park Dr,Boston,Suffolk,MA,56.0,56.0,90.0,30.16,10.0,6.0,0.0
3,42.188992,-71.854179,Midstate Dr,Auburn,Worcester,MA,59.0,59.0,36.0,29.1,10.0,16.0,0.0
2,41.7166,-72.649251,I-91 N,Wethersfield,Hartford,CT,63.0,63.0,90.0,30.03,8.0,9.0,0.0
2,42.13006,-72.06761,I-90 W,Sturbridge,Worcester,MA,40.0,32.0,89.0,28.44,4.0,15.0,0.01
2,42.366669,-71.06815300000001,Charles River Dam Rd,Boston,Suffolk,MA,77.0,77.0,82.0,29.96,10.0,10.0,0.0
2,41.729095,-72.65864300000001,I-91 N,Wethersfield,Hartford,CT,54.0,54.0,72.0,30.16,10.0,9.0,0.0
2,42.523827000000004,-71.581688,Ayer Rd,Harvard,Worcester,MA,66.0,66.0,56.0,29.71,10.0,5.0,0.0
2,41.548943,-73.027838,I-84 W,Waterbury,New Haven,CT,48.0,44.0,93.0,29.46,10.0,8.0,0.0
2,41.513162,-73.124737,I-84 W,Middlebury,New Haven,CT,43.0,39.0,89.0,29.23,10.0,6.0,0.0
2,42.467712,-71.39670600000001,Barretts Mill Rd,Concord,Middlesex,MA,40.0,40.0,73.0,30.03,10.0,3.0,0.0
3,41.737751,-72.662849,CT-15 N,Hartford,Hartford,CT,53.0,53.0,22.0,30.04,10.0,7.0,0.0
2,42.789726,-71.495773,Everett Tpke S,Nashua,Hillsborough,NH,21.0,21.0,100.0,29.82,10.0,0.0,0.0
2,41.6437,-70.90094,Huttleston Ave,Fairhaven,Bristol,MA,66.0,66.0,68.0,30.14,10.0,7.0,0.0
2,41.650918,-72.671996,I-91 N,Rocky Hill,Hartford,CT,51.0,51.0,89.0,30.03,1.0,8.0,0.1
2,43.8047,-70.16976,I-295 N,Yarmouth,Cumberland,ME,38.0,30.0,41.0,29.94,10.0,12.0,0.0
2,42.094143,-71.058815,MA-24 N,Brockton,Plymouth,MA,77.0,77.0,39.0,29.84,10.0,6.0,0.0
2,41.740415000000006,-72.66376,I-91 S,Hartford,Hartford,CT,30.0,30.0,88.0,30.2,10.0,0.0,0.0
2,41.109932,-73.41884399999999, Connecticut Ave,Norwalk,Fairfield,CT,56.0,56.0,42.0,29.75,10.0,5.0,0.0
3,43.597458,-72.166916,Old Route 10,Enfield,Grafton,NH,34.0,28.0,89.0,28.49,1.0,7.0,0.02
2,41.054331,-73.525539,I-95 N,Stamford,Fairfield,CT,54.0,54.0,93.0,29.56,10.0,0.0,0.0
2,41.539279,-73.010814,I-84 W,Waterbury,New Haven,CT,47.0,43.0,97.0,29.35,10.0,8.0,0.02
2,42.31109,-71.05281,I-93 N,Dorchester,Suffolk,MA,68.0,68.0,100.0,30.06,10.0,6.0,0.0
2,41.788657,-71.419252,I-95 N,Providence,Providence,RI,53.0,53.0,89.0,30.29,10.0,3.0,0.0
2,41.19225,-73.19478000000001,Route 8 S,Bridgeport,Fairfield,CT,35.0,35.0,72.0,30.34,9.0,0.0,0.0
2,41.629490000000004,-71.48677099999999,RI-4 N,East Greenwich,Kent,RI,74.0,74.0,40.0,30.01,10.0,13.0,0.0
2,42.31797,-71.082047,Warren St,Roxbury,Suffolk,MA,46.0,40.0,34.0,29.68,10.0,14.0,0.0
2,41.297253999999995,-72.739419,Governor John Davis Lodge Tpke S,Guilford,New Haven,CT,57.0,57.0,100.0,29.89,10.0,3.0,0.0
3,41.875828000000006,-71.37982199999999,I-95 S,Pawtucket,Providence,RI,61.0,61.0,78.0,29.18,10.0,0.0,0.0
2,42.467239,-71.397263,Concord Rotary,Concord,Middlesex,MA,30.0,25.0,82.0,29.58,10.0,5.0,0.0
3,42.354794,-71.05252800000001,I-93 S,Boston,Suffolk,MA,34.0,23.0,92.0,30.29,1.0,17.0,0.06
2,42.86779,-71.176277,Larson Dr,Hampstead,Rockingham,NH,14.0,0.0,37.0,30.45,10.0,13.0,0.0
2,41.968047999999996,-70.849571,Hayward St,Halifax,Plymouth,MA,34.0,22.0,100.0,29.65,2.0,21.0,0.07
2,41.766781,-72.653862,I-84 W,East Hartford,Hartford,CT,80.0,80.0,32.0,29.91,10.0,6.0,0.0
4,41.78288,-71.97388000000001, Hartford Rd,Brooklyn,Windham,CT,66.0,66.0,81.0,29.78,10.0,6.0,0.0
2,41.758722,-72.64328499999999,CT-15 N,East Hartford,Hartford,CT,52.0,52.0,86.0,30.17,10.0,5.0,0.0
2,41.769535999999995,-72.666975,I-84 W,Hartford,Hartford,CT,42.0,42.0,96.0,29.9,0.25,0.0,0.0
2,41.235369,-73.045424,I-95 S,Milford,New Haven,CT,52.0,52.0,89.0,30.01,10.0,0.0,0.0
4,42.36083,-71.05368,Surface Rd,Boston,Suffolk,MA,68.0,68.0,81.0,29.94,10.0,7.0,0.0
2,43.45375,-71.57096,I-93 N,Tilton,Belknap,NH,41.0,41.0,100.0,29.1,8.0,0.0,0.0
2,42.364670000000004,-71.118095,Soldiers Field Rd,Allston,Suffolk,MA,38.0,29.0,65.0,29.48,10.0,17.0,0.0
2,41.38443,-71.830383,Industrial Dr,Westerly,Washington,RI,53.0,53.0,69.0,29.7,10.0,8.0,0.0
3,42.43654,-71.25941,MA-128 N,Lexington,Middlesex,MA,48.0,44.0,86.0,29.57,4.0,8.0,0.0
2,41.58222,-73.05256,James H Darcey Memorial Hwy N,Waterbury,New Haven,CT,40.0,37.0,53.0,29.35,10.0,5.0,0.0
2,41.960499,-71.493835,Eddie Dowling Hwy,North Smithfield,Providence,RI,23.0,12.0,55.0,30.13,10.0,10.0,0.0
2,42.294025,-71.04727199999999,William T Morrissey Blvd,Dorchester,Suffolk,MA,71.0,71.0,35.0,30.17,10.0,14.0,0.0
2,41.428127,-72.814356,I-91 N,Wallingford,New Haven,CT,57.0,57.0,93.0,29.95,3.0,14.0,0.18
3,41.800743,-71.402214,Thurbers Ave,Providence,Providence,RI,44.0,36.0,47.0,29.76,10.0,20.0,0.0
2,41.749189,-72.73288199999999,I-84 W,West Hartford,Hartford,CT,51.0,51.0,66.0,30.2,10.0,6.0,0.0
3,42.242199,-71.027603,Furnace Brook Pkwy,Quincy,Norfolk,MA,50.0,50.0,89.0,29.93,10.0,0.0,0.0
3,41.82172,-71.42016,I-95 N,Providence,Providence,RI,63.0,63.0,23.0,29.61,10.0,14.0,0.0
3,41.222282,-73.078796,I-95 S,Milford,New Haven,CT,57.0,57.0,87.0,29.81,10.0,9.0,0.0
