Severity,Start_Lat,Start_Lng,Street,City,County,State,Temperature(F),Wind_Chill(F),Humidity(%),Pressure(in),Visibility(mi),Wind_Speed(mph),Precipitation(in)
2,39.827228999999996,-104.92688000000001,E 72nd Ave,Commerce City,Adams,CO,73.0,73.0,48.0,24.39,10.0,0.0,0.0
2,40.38747,-111.91635, W Crossroads Blvd,Saratoga Springs,Utah,UT,59.0,59.0,39.0,25.34,10.0,13.0,0.0
2,47.354221,-114.77879399999999, MT Highway 200,Plains,Sanders,MT,44.0,40.0,49.0,23.66,10.0,7.0,0.0
2,40.878056,-115.71965,I-80 W,Elko,Elko,NV,36.0,27.0,48.0,24.8,10.0,14.0,0.0
2,33.3857,-111.93489,Superstition Fwy W,Tempe,Maricopa,AZ,79.0,79.0,20.0,28.82,10.0,10.0,0.0
2,40.30171,-111.72601,I-15 S,Orem,Utah,UT,62.0,62.0,28.0,25.38,10.0,6.0,0.0
3,39.76331,-105.10967, Kipling St,Wheat Ridge,Jefferson,CO,64.0,64.0,30.0,24.4,30.0,9.0,0.0
3,34.138222,-112.14616399999998,Arizona Veterans Highway,Black Canyon City,Yavapai,AZ,63.0,63.0,45.0,28.23,10.0,0.0,0.0
2,32.206936999999996,-110.910683, E 22nd St,Tucson,Pima,AZ,73.0,73.0,21.0,27.36,10.0,6.0,0.0
1,33.415459999999996,-111.7537,E Main St,Mesa,Maricopa,AZ,80.0,80.0,9.0,28.75,10.0,8.0,0.0
2,33.422108,-111.63620800000001,AZ-202 Loop S,Mesa,Maricopa,AZ,90.0,90.0,13.0,28.75,10.0,6.0,0.0
3,40.231651,-111.683594,W Center St,Provo,Utah,UT,36.0,28.0,44.0,25.85,10.0,12.0,0.0
2,39.64085,-105.13583,US-285 S,Denver,Jefferson,CO,59.0,59.0,42.0,24.24,10.0,8.0,0.0
3,33.428238,-112.068954,I-17 S,Phoenix,Maricopa,AZ,60.0,60.0,57.0,28.73,10.0,6.0,0.0
2,33.386669,-111.957825,Superstition Fwy W,Tempe,Maricopa,AZ,110.0,110.0,11.0,28.49,10.0,13.0,0.0
3,40.414333,-111.87008700000001,I-15 N,Lehi,Utah,UT,87.0,87.0,30.0,25.51,10.0,0.0,0.0
2,33.49361,-112.392448,W Indian School Rd,Goodyear,Maricopa,AZ,88.0,88.0,19.0,28.59,10.0,10.0,0.0
3,38.54448,-106.89759, E Tomichi Ave,Gunnison,Gunnison,CO,30.0,22.0,64.0,22.35,10.0,9.0,0.0
2,39.711342,-105.053261,W Alameda Ave,Denver,Denver,CO,44.0,44.0,60.0,24.25,10.0,3.0,0.0
2,38.89672,-104.8315,W Garden of the Gods Rd,Colorado Springs,El Paso,CO,58.0,58.0,59.0,23.6,10.0,7.0,0.0
2,32.184235,-110.95810700000001,I-10 E,Tucson,Pima,AZ,63.0,63.0,20.0,27.24,10.0,3.0,0.0
2,33.396195,-111.96771000000001,I-10 E,Tempe,Maricopa,AZ,61.0,61.0,24.0,28.95,10.0,5.0,0.0
2,43.632047,-116.354289, N Eagle Rd,Meridian,Ada,ID,41.0,37.0,87.0,27.42,10.0,6.0,0.0
3,40.45028,-104.9919,I-25 N,Loveland,Larimer,CO,65.0,65.0,27.0,24.97,10.0,24.0,0.09
2,33.29195,-111.99706299999998,S 40th St,Phoenix,Maricopa,AZ,101.0,101.0,9.0,28.72,10.0,0.0,0.0
2,33.918818,-112.144392,Black Canyon Fwy N,New River,Maricopa,AZ,62.0,62.0,18.0,28.39,10.0,3.0,0.0
2,33.065220000000004,-112.04779099999999,N John Wayne Pkwy,Maricopa,Pinal,AZ,58.0,58.0,31.0,28.51,10.0,7.0,0.0
2,33.392139,-112.622817, W Southern Ave,Buckeye,Maricopa,AZ,55.0,55.0,23.0,28.85,10.0,0.0,0.0
2,33.538006,-112.041458,Piestewa Fwy N,Phoenix,Maricopa,AZ,88.0,88.0,17.0,28.63,10.0,6.0,0.0
3,33.552971,-112.11248799999998,Black Canyon Fwy S,Phoenix,Maricopa,AZ,88.0,88.0,18.0,28.39,10.0,7.0,0.0
2,33.377569,-112.626632, W Baseline Rd,Buckeye,Maricopa,AZ,52.0,52.0,28.0,28.95,10.0,10.0,0.0
2,38.95021,-110.04655,I-70 W,Thompson,Grand,UT,71.0,71.0,14.0,25.35,10.0,20.0,0.0
1,33.47835,-112.30665, N Avondale Blvd,Avondale,Maricopa,AZ,86.0,86.0,22.0,28.54,10.0,3.0,0.0
2,40.66299,-111.83805, Highland Dr,Salt Lake City,Salt Lake,UT,26.0,21.0,78.0,25.83,10.0,5.0,0.0
2,32.206841,-110.966949,E 22nd St,Tucson,Pima,AZ,66.0,66.0,22.0,27.17,10.0,9.0,0.0
2,33.670102,-112.03759699999999,AZ-101 Loop E,Phoenix,Maricopa,AZ,68.0,68.0,18.0,28.36,10.0,5.0,0.0
4,39.760384,-105.6511,I-70 E,Dumont,Clear Creek,CO,13.0,-3.0,54.0,20.71,9.0,15.0,0.0
1,33.65504,-112.0309, N Cave Creek Rd,Phoenix,Maricopa,AZ,65.0,65.0,48.0,28.34,10.0,3.0,0.0
3,33.444805,-112.55628999999999,I-10 W,Buckeye,Maricopa,AZ,61.0,61.0,36.0,28.93,10.0,5.0,0.0
2,40.72592,-111.99293,UT-201 W,West Valley City,Salt Lake,UT,55.0,55.0,45.0,25.58,10.0,15.0,0.0
2,34.336816999999996,-110.73803600000001,Payson Heber Hwy,Forest Lakes,Navajo,AZ,54.0,54.0,54.0,24.82,10.0,5.0,0.0
1,32.3231,-111.0121, N La Cholla Blvd,Tucson,Pima,AZ,83.0,83.0,21.0,27.21,10.0,10.0,0.0
3,32.206707,-110.979698,I-10 E,Tucson,Pima,AZ,57.0,57.0,43.0,26.97,10.0,8.0,0.0
3,38.87143,-104.71993, N Powers Blvd,Colorado Springs,El Paso,CO,75.0,75.0,20.0,23.92,10.0,0.0,0.0
2,33.45483,-112.060501,E Fillmore St,Phoenix,Maricopa,AZ,78.0,78.0,40.0,28.67,10.0,9.0,0.0
3,39.848122,-104.98530600000001,I-25 N,Denver,Adams,CO,81.0,81.0,15.0,24.51,10.0,3.0,0.0
2,40.276001,-105.102531,S US Highway 287,Berthoud,Larimer,CO,27.0,17.0,93.0,24.82,0.5,9.0,0.0
2,33.445316,-112.03791799999999,Frontage Rd,Phoenix,Maricopa,AZ,64.0,64.0,14.0,28.97,10.0,7.0,0.0
2,39.931938,-104.97802,Washington St,Thornton,Adams,CO,10.0,10.0,83.0,25.12,10.0,3.0,0.0
4,33.508842,-113.001907,I-10 E,Tonopah,Maricopa,AZ,36.0,28.0,30.0,28.97,10.0,10.0,0.0
2,40.63743,-111.90425,I-15 N,Salt Lake City,Salt Lake,UT,61.0,61.0,44.0,25.88,10.0,9.0,0.0
2,43.088089000000004,-112.397228,I-15 N,Firth,Bingham,ID,23.0,12.0,88.0,25.33,10.0,12.0,0.0
2,47.62455,-116.87133999999999, S Highway 95,Coeur D Alene,Kootenai,ID,37.0,37.0,100.0,27.54,4.0,0.0,0.0
2,42.943690000000004,-115.09161999999999,I-84 E,King Hill,Elmore,ID,65.0,65.0,50.0,26.92,10.0,9.0,0.0
3,40.429829,-111.89045700000001,N Thanksgiving Way,Lehi,Utah,UT,48.0,48.0,54.0,25.84,10.0,3.0,0.0
2,43.599447999999995,-116.51414299999999,I-84 W,Nampa,Canyon,ID,30.0,25.0,100.0,27.45,6.0,5.0,0.0
2,35.072781,-106.577454,Zuni Rd SE,Albuquerque,Bernalillo,NM,28.0,19.0,41.0,24.57,10.0,10.0,0.0
3,39.536484,-104.86833200000001,I-25 N,Englewood,Douglas,CO,69.0,69.0,29.0,24.28,10.0,3.0,0.0
2,41.119846,-112.019325,I-15 S,Clearfield,Davis,UT,22.0,10.0,52.0,25.53,10.0,13.0,0.0
1,33.50892,-112.22865, W Camelback Rd,Glendale,Maricopa,AZ,89.0,89.0,16.0,28.6,10.0,15.0,0.0
2,33.386522,-111.595029,Superstition Fwy E,Mesa,Maricopa,AZ,73.0,73.0,19.0,28.56,10.0,7.0,0.0
2,32.250690000000006,-110.875359,E Grant Rd,Tucson,Pima,AZ,83.0,83.0,11.0,27.09,10.0,9.0,0.0
3,41.228660999999995,-112.012253,W 2100 S,Ogden,Weber,UT,78.0,78.0,11.0,25.59,10.0,3.0,0.0
2,37.113415,-113.44378300000001,Southern Pkwy,Washington,Washington,UT,59.0,59.0,18.0,27.17,10.0,3.0,0.0
2,45.607591,-109.025273,I-90 W,Park City,Stillwater,MT,14.0,0.0,80.0,26.62,4.0,12.0,0.0
2,39.696384,-104.897682,S Parker Rd,Denver,Denver,CO,36.0,28.0,48.0,24.01,10.0,12.0,0.0
1,32.25062,-110.8754,E Grant Rd,Tucson,Pima,AZ,94.0,94.0,9.0,27.15,10.0,3.0,0.0
2,37.42014,-113.63146, S Highway 18,Central,Washington,UT,48.0,44.0,24.0,27.22,10.0,8.0,0.0
2,39.556381,-119.74041000000001,Probasco Way,Sparks,Washoe,NV,72.0,72.0,16.0,25.48,10.0,22.0,0.0
3,39.8993,-104.98796000000002,I-25 N,Denver,Adams,CO,43.0,43.0,31.0,24.48,30.0,0.0,0.0
2,47.004676,-112.065514,I-15 S,Wolf Creek,Lewis and Clark,MT,33.0,26.0,59.0,25.89,10.0,8.0,0.0
2,32.163239000000004,-110.98261299999999,S 17th Ave,Tucson,Pima,AZ,46.0,43.0,87.0,27.03,10.0,7.0,0.0
2,33.52048,-112.11222,I-17 N,Phoenix,Maricopa,AZ,65.0,65.0,22.0,29.05,10.0,6.0,0.0
2,43.57715,-116.33433799999999, W Peconic Dr,Boise,Ada,ID,36.0,36.0,59.0,27.48,10.0,3.0,0.0
2,39.636983,-105.16604,CO-470 W,Morrison,Jefferson,CO,28.0,22.0,74.0,24.59,10.0,6.0,0.0
3,40.745846,-112.65246599999999,I-80 E,Grantsville,Tooele,UT,50.0,50.0,39.0,25.26,10.0,21.0,0.0
2,41.21024,-111.9707, Washington Blvd,Ogden,Weber,UT,69.0,69.0,39.0,25.62,10.0,0.0,0.0
2,45.670991,-111.16411799999999, Huffine Ln,Bozeman,Gallatin,MT,20.0,20.0,89.0,25.42,8.0,0.0,0.0
2,33.55604,-112.26191999999999,AZ-101 Loop S,Peoria,Maricopa,AZ,103.0,103.0,6.0,28.53,10.0,16.0,0.0
1,32.32265,-110.9749,N Oracle Rd,Tucson,Pima,AZ,76.0,76.0,18.0,27.16,10.0,8.0,0.0
2,39.43359,-119.76111499999999,Martin Luther King Jr Memorial Fwy,Reno,Washoe,NV,39.0,33.0,62.0,25.69,10.0,9.0,0.0
2,33.46195,-112.14625,Pearl Harbor Memorial Highway,Phoenix,Maricopa,AZ,109.0,109.0,6.0,28.46,10.0,5.0,0.0
2,39.505955,-119.78922299999999,Kietzke Ln,Reno,Washoe,NV,75.0,75.0,24.0,25.6,10.0,3.0,0.0
2,33.436878,-112.134644,S 35th Ave,Phoenix,Maricopa,AZ,72.0,72.0,34.0,28.67,10.0,6.0,0.0
2,40.748036,-111.871075, Belmont Ave,Salt Lake City,Salt Lake,UT,38.0,33.0,35.0,26.06,10.0,6.0,0.0
2,40.609379,-111.976547,Bangerter Hwy,West Jordan,Salt Lake,UT,29.0,29.0,92.0,25.68,0.75,0.0,0.01
2,32.13626,-110.89203899999998, E Benson Hwy,Tucson,Pima,AZ,69.0,69.0,41.0,26.98,10.0,6.0,0.0
3,39.563629999999996,-105.03402,S Santa Fe Dr,Littleton,Douglas,CO,86.0,86.0,16.0,24.14,10.0,0.0,0.0
2,38.847091999999996,-104.775879,E Yampa St,Colorado Springs,El Paso,CO,65.0,65.0,75.0,24.16,10.0,0.0,0.0
2,38.83722,-104.7945,N Union Blvd,Colorado Springs,El Paso,CO,88.0,88.0,14.0,24.11,10.0,16.0,0.0
2,34.713974,-112.453076,E Gheral Brownlow Dr,Prescott,Yavapai,AZ,57.0,57.0,34.0,25.04,10.0,9.0,0.0
3,40.712044,-111.903931,I-15 N,Salt Lake City,Salt Lake,UT,47.0,44.0,61.0,25.89,10.0,7.0,0.0
2,39.74042,-105.0178,W Colfax Ave,Denver,Denver,CO,57.0,57.0,16.0,24.15,10.0,8.0,0.0
3,33.461246,-112.504143,N Verrado Way,Buckeye,Maricopa,AZ,66.0,66.0,21.0,28.97,10.0,8.0,0.0
2,39.79353,-104.903267,E 53rd Pl,Denver,Denver,CO,41.0,41.0,18.0,24.62,10.0,0.0,0.0
1,32.2216,-110.90088999999999,Columbus Blvd,Tucson,Pima,AZ,90.0,90.0,8.0,27.04,10.0,15.0,0.0
1,33.654740000000004,-112.07418, N Central Ave,Phoenix,Maricopa,AZ,74.0,74.0,28.0,28.33,10.0,5.0,0.0
2,32.396141,-110.95929,N Oracle Rd,Tucson,Pima,AZ,58.0,58.0,51.0,27.23,10.0,3.0,0.0
2,40.811005,-111.94918100000001,I-215 N,Salt Lake City,Salt Lake,UT,99.0,99.0,10.0,25.66,10.0,14.0,0.0
3,39.25693,-104.88999,I-25 N,Castle Rock,Douglas,CO,46.0,42.0,32.0,23.19,10.0,9.0,0.0
2,37.688881,-113.06188, E 675 N,Cedar City,Iron,UT,18.0,18.0,57.0,24.78,10.0,0.0,0.0
3,40.713778999999995,-111.810226,I-215 N,Salt Lake City,Salt Lake,UT,50.0,50.0,77.0,25.51,10.0,8.0,0.0
2,40.771569,-111.88786499999999, 2nd Ave,Salt Lake City,Salt Lake,UT,69.0,69.0,30.0,25.72,10.0,14.0,0.0
2,33.38558,-111.9155,Superstition Fwy E,Tempe,Maricopa,AZ,90.0,90.0,6.0,28.61,10.0,7.0,0.0
2,40.523469,-112.29863, S Main St,Tooele,Tooele,UT,34.0,23.0,56.0,25.74,10.0,17.0,0.0
2,38.796436,-104.757591,S Academy Blvd,Colorado Springs,El Paso,CO,67.0,67.0,57.0,23.99,10.0,5.0,0.0
3,41.056206,-111.961266,I-15 S,Layton,Davis,UT,69.0,69.0,24.0,25.45,10.0,7.0,0.0
2,33.494960999999996,-112.13049299999999,W Indian School Rd,Phoenix,Maricopa,AZ,54.0,54.0,86.0,28.87,10.0,0.0,0.0
2,33.482113,-111.75341,N Val Vista Dr,Mesa,Maricopa,AZ,97.0,97.0,17.0,28.69,10.0,6.0,0.0
2,39.77727,-104.883,N Central Park Blvd,Denver,Denver,CO,73.0,73.0,26.0,24.24,10.0,7.0,0.0
2,40.61935,-111.78948999999999, Fort Union Blvd,Salt Lake City,Salt Lake,UT,37.0,33.0,73.0,25.85,10.0,5.0,0.0
2,43.905002,-116.81295800000001,I-84 W,Caldwell,Payette,ID,30.0,25.0,92.0,27.56,5.0,5.0,0.01
2,34.088359999999994,-112.144577,Arizona Veterans Highway,Black Canyon City,Yavapai,AZ,59.0,59.0,25.0,28.36,10.0,3.0,0.0
2,41.0287,-111.94685,I-15 S,Kaysville,Davis,UT,42.0,34.0,58.0,25.25,10.0,16.0,0.0
2,33.496837,-112.136661, W Grand Ave,Phoenix,Maricopa,AZ,73.0,73.0,30.0,28.87,10.0,9.0,0.0
3,39.547882,-104.86925500000001,I-25 N,Englewood,Douglas,CO,18.0,8.0,50.0,24.35,10.0,8.0,0.0
2,41.241825,-111.945305,Harrison Blvd,Ogden,Weber,UT,22.0,13.0,63.0,25.82,10.0,7.0,0.0
2,40.4538,-111.91391999999999,I-15 S,Riverton,Salt Lake,UT,28.0,22.0,81.0,25.79,10.0,6.0,0.0
3,39.87365,-104.987701,I-25 S,Denver,Adams,CO,63.0,63.0,42.0,24.65,10.0,3.0,0.0
2,32.22104,-110.81241499999999, E Broadway Blvd,Tucson,Pima,AZ,81.0,81.0,20.0,27.08,10.0,5.0,0.0
3,41.162079,-112.023224,I-15 S,Ogden,Weber,UT,80.0,80.0,7.0,25.42,10.0,0.0,0.0
2,32.670094,-114.52143899999999,E 32nd St,Yuma,Yuma,AZ,67.0,67.0,18.0,29.98,7.0,10.0,0.0
2,38.871784000000005,-104.926704,W US Highway 24,Cascade,El Paso,CO,63.0,63.0,15.0,23.5,10.0,6.0,0.0
2,41.276596999999995,-111.96927099999999, N Washington Blvd,Ogden,Weber,UT,61.0,61.0,22.0,25.69,10.0,10.0,0.0
1,32.32308,-111.0508,N Casa Grande Hwy,Tucson,Pima,AZ,103.0,103.0,8.0,26.96,10.0,15.0,0.0
1,32.14873,-110.9435, S Campbell Ave,Tucson,Pima,AZ,61.0,61.0,41.0,27.2,10.0,5.0,0.0
1,32.163070000000005,-110.96816000000001, S 6th Ave,Tucson,Pima,AZ,80.0,80.0,14.0,27.16,10.0,6.0,0.0
1,33.4372,-112.20371999999999, S 67th Ave,Phoenix,Maricopa,AZ,74.0,74.0,24.0,28.93,10.0,7.0,0.0
3,34.98802,-107.09955,Historic US 66 W,Laguna,Cibola,NM,77.0,77.0,13.0,23.73,10.0,14.0,0.0
1,33.63816,-112.2897, N Del Webb Blvd,Sun City,Maricopa,AZ,101.0,101.0,3.0,28.51,10.0,20.0,0.0
2,41.057072,-111.59191100000001,I-84 E,Morgan,Morgan,UT,31.0,31.0,75.0,25.07,10.0,3.0,0.0
1,32.20667,-110.8581, E 22nd St,Tucson,Pima,AZ,70.0,70.0,23.0,27.19,10.0,7.0,0.0
2,33.864816,-112.634449, N US Highway 60,Morristown,Maricopa,AZ,76.0,76.0,26.0,28.8,10.0,5.0,0.0
3,33.461937,-112.151474,I-10 W,Phoenix,Maricopa,AZ,101.0,101.0,24.0,28.69,10.0,9.0,0.0
1,39.65363,-105.1135,US-285 N,Denver,Jefferson,CO,55.0,55.0,43.0,24.21,10.0,0.0,0.0
2,43.6194,-116.356412, E Fairview Ave,Meridian,Ada,ID,41.0,41.0,45.0,27.73,10.0,0.0,0.0
2,32.373034999999994,-111.029766, N Shannon Rd,Tucson,Pima,AZ,72.0,72.0,22.0,27.35,10.0,9.0,0.0
2,39.580172999999995,-104.876442,I-25 N,Englewood,Arapahoe,CO,79.0,79.0,23.0,24.31,10.0,8.0,0.0
2,41.127274,-111.908318,Highway 89,Ogden,Davis,UT,30.0,23.0,49.0,25.45,10.0,7.0,0.0
2,40.766927,-111.99689199999999,I-80 W,Salt Lake City,Salt Lake,UT,39.0,39.0,70.0,25.6,8.0,3.0,0.0
2,40.820163,-112.90766299999999,I-80 W,Wendover,Tooele,UT,19.0,19.0,74.0,25.76,10.0,0.0,0.0
2,34.915226000000004,-111.64136,Arizona Veterans Highway,Sedona,Coconino,AZ,72.0,72.0,17.0,25.1,10.0,5.0,0.0
2,39.563396000000004,-104.960899,CO-470 W,Littleton,Douglas,CO,50.0,50.0,31.0,24.31,10.0,3.0,0.0
2,39.719190999999995,-111.760085, E 100 N,Nephi,Juab,UT,59.0,59.0,55.0,25.57,10.0,17.0,0.0
2,40.431965000000005,-111.89128899999999,I-15 N,Lehi,Utah,UT,39.0,34.0,89.0,25.49,7.0,7.0,0.03
2,43.59516,-116.45801000000002,I-84 E,Meridian,Ada,ID,63.0,63.0,77.0,27.45,10.0,6.0,0.0
2,38.361509999999996,-112.99115, State Route 21,Milford,Beaver,UT,37.0,30.0,41.0,24.8,10.0,10.0,0.0
2,48.212668,-114.28541299999999, W Cottonwood Dr,Kalispell,Flathead,MT,32.0,32.0,82.0,27.06,10.0,0.0,0.0
2,40.45365,-111.9139,I-15 S,Riverton,Salt Lake,UT,34.0,25.0,89.0,25.66,7.0,12.0,0.0
2,40.89378,-115.882126,Sagecrest Dr,Elko,Elko,NV,65.0,65.0,28.0,24.98,10.0,14.0,0.0
2,32.1482,-111.050975, S Palomino Rd,Tucson,Pima,AZ,57.0,57.0,20.0,27.33,10.0,0.0,0.0
2,35.129589,-106.56384299999999,Natalie Ave NE,Albuquerque,Bernalillo,NM,60.0,60.0,13.0,24.69,10.0,8.0,0.0
2,40.704471999999996,-111.980217,Bangerter Hwy,West Valley City,Salt Lake,UT,77.0,77.0,42.0,25.65,10.0,3.0,0.0
2,33.462726,-112.151779,N 43rd Ave,Phoenix,Maricopa,AZ,74.0,74.0,10.0,28.97,10.0,9.0,0.0
1,33.46595,-112.1172, N 27th Ave,Phoenix,Maricopa,AZ,55.0,55.0,67.0,28.87,10.0,6.0,0.0
2,32.179373,-110.90763600000001,E Golf Links Rd,Tucson,Pima,AZ,72.0,72.0,20.0,27.14,10.0,12.0,0.0
2,40.398109999999996,-111.84952, E State St,Lehi,Utah,UT,34.0,25.0,93.0,25.57,9.0,12.0,0.04
2,39.73999,-104.8099,E Colfax Ave,Aurora,Arapahoe,CO,67.0,67.0,17.0,24.23,10.0,7.0,0.0
2,35.187305,-114.624825,Needles Hwy,Laughlin,Clark,NV,90.0,90.0,18.0,29.01,10.0,0.0,0.0
1,33.4659,-111.90048, N Granite Reef Rd,Scottsdale,Maricopa,AZ,95.0,95.0,10.0,28.76,10.0,0.0,0.0
2,33.494988,-112.095679, W Indian School Rd,Phoenix,Maricopa,AZ,56.0,56.0,30.0,28.81,10.0,5.0,0.0
2,39.546116,-119.78811599999999,Martin Luther King Jr Memorial Fwy,Reno,Washoe,NV,71.0,71.0,14.0,25.4,10.0,20.0,0.0
2,40.72589,-112.02055,UT-201 W,West Valley City,Salt Lake,UT,60.0,60.0,36.0,25.66,10.0,6.0,0.0
2,33.55035,-111.93038200000001,N 70th St,Paradise Valley,Maricopa,AZ,45.0,45.0,46.0,28.32,10.0,0.0,0.0
2,40.56221,-111.96385, W South Jordan Pkwy,South Jordan,Salt Lake,UT,33.0,28.0,82.0,25.73,7.0,6.0,0.0
2,40.71185,-111.88826999999999, S State St,Salt Lake City,Salt Lake,UT,39.0,34.0,76.0,25.87,10.0,7.0,0.0
2,43.608255,-116.3548, N Eagle Rd,Meridian,Ada,ID,21.0,21.0,100.0,27.58,10.0,0.0,0.0
2,38.81371,-104.7575,E Fountain Blvd,Colorado Springs,El Paso,CO,36.0,28.0,57.0,23.89,10.0,12.0,0.0
2,33.386124,-111.82256299999999,S Mesa Dr,Mesa,Maricopa,AZ,97.0,97.0,10.0,28.6,10.0,10.0,0.0
2,40.03499,-111.52398000000001, S Highway 6,Springville-Mapleton,Utah,UT,27.0,15.0,93.0,25.09,2.0,15.0,0.0
2,38.91179,-104.62781,W US Highway 24,Colorado Springs,El Paso,CO,24.0,11.0,84.0,24.12,10.0,16.0,0.0
2,32.250335,-110.98438200000001, W Grant Rd,Tucson,Pima,AZ,55.0,55.0,28.0,27.28,10.0,0.0,0.0
3,35.105221,-106.670723,Coronado Fwy W,Albuquerque,Bernalillo,NM,88.0,88.0,19.0,24.77,10.0,20.0,0.0
2,32.297514,-110.99518700000002, W River Rd,Tucson,Pima,AZ,47.0,47.0,25.0,27.05,10.0,3.0,0.0
2,40.66505,-111.90123,I-15 N,Salt Lake City,Salt Lake,UT,74.0,74.0,22.0,25.54,10.0,15.0,0.0
3,39.79177,-104.98828999999999,I-25 N,Denver,Adams,CO,86.0,86.0,18.0,24.44,10.0,23.0,0.0
3,40.52652,-111.890717,W 12300 S,Draper,Salt Lake,UT,49.0,42.0,31.0,25.76,10.0,22.0,0.0
2,39.848122,-104.98530600000001,I-25 N,Denver,Adams,CO,64.0,64.0,45.0,24.46,10.0,5.0,0.0
2,39.74756,-105.0814,W 20th Ave,Denver,Jefferson,CO,48.0,48.0,37.0,24.33,10.0,0.0,0.0
2,32.284028,-107.604426,I-10 E,Deming,Luna,NM,31.0,21.0,85.0,25.66,4.0,14.0,0.0
1,33.50952,-111.9867,N 44th St,Phoenix,Maricopa,AZ,93.0,93.0,20.0,28.54,10.0,12.0,0.0
4,39.625640000000004,-106.42302,I-70 E,Vail,Eagle,CO,7.0,7.0,67.0,20.53,10.0,0.0,0.0
2,39.86351,-104.99661, W Thornton Pkwy,Denver,Adams,CO,79.0,79.0,34.0,24.44,15.0,9.0,0.0
3,38.87162,-104.83384000000001,US-87 N,Colorado Springs,El Paso,CO,65.0,65.0,30.0,23.67,10.0,7.0,0.0
2,32.267779,-107.778421,I-10 W,Deming,Luna,NM,64.0,64.0,26.0,25.78,10.0,6.0,0.0
2,33.385870000000004,-111.8463,Superstition Fwy E,Mesa,Maricopa,AZ,106.0,106.0,7.0,28.56,10.0,13.0,0.0
1,33.56756,-112.1343, N 35th Ave,Phoenix,Maricopa,AZ,83.0,83.0,17.0,28.27,10.0,9.0,0.0
1,33.68757,-112.03115,E Deer Valley Rd,Phoenix,Maricopa,AZ,83.0,83.0,17.0,28.27,10.0,5.0,0.0
3,39.631386,-104.902832,Technology Way,Denver,Denver,CO,28.0,21.0,66.0,24.04,10.0,7.0,0.0
3,40.654373,-111.901726,I-15 N,Salt Lake City,Salt Lake,UT,23.0,23.0,88.0,25.93,10.0,0.0,0.0
4,39.18638,-104.85025,US-87 N,Larkspur,Douglas,CO,77.0,77.0,16.0,23.19,10.0,5.0,0.0
2,41.423977,-113.86589099999999,UT-30,Grouse Creek,Box Elder,UT,74.0,74.0,16.0,25.9,10.0,3.0,0.0
2,33.770302,-112.25,AZ-303 Loop S,Peoria,Maricopa,AZ,83.0,83.0,17.0,28.36,10.0,5.0,0.0
2,40.64631,-111.902748,I-15 S,Salt Lake City,Salt Lake,UT,54.0,54.0,47.0,25.82,10.0,8.0,0.0
3,38.113240000000005,-103.08344,US Highway 50,Las Animas,Bent,CO,71.0,71.0,35.0,25.82,10.0,9.0,0.0
2,45.662495,-108.769644,I-90 E,Laurel,Yellowstone,MT,59.0,59.0,41.0,26.29,10.0,10.0,0.0
2,39.570403999999996,-119.781929,El Rancho Dr,Sun Valley,Washoe,NV,91.0,91.0,16.0,25.41,10.0,14.0,0.0
2,40.648182,-111.662384,E Big Cottonwood Canyon Rd,Salt Lake City,Salt Lake,UT,42.0,38.0,82.0,25.88,10.0,6.0,0.0
3,35.21768,-109.33013999999999,I-40 W,Chambers,Apache,AZ,45.0,45.0,29.0,23.72,10.0,0.0,0.0
2,33.479675,-112.26433600000001,AZ-101 Loop S,Phoenix,Maricopa,AZ,111.0,111.0,14.0,28.49,10.0,5.0,0.0
2,43.63381,-116.355443, E Ustick Rd,Meridian,Ada,ID,45.0,45.0,61.0,27.5,10.0,0.0,0.0
3,32.221140000000005,-110.9697, E Broadway Blvd,Tucson,Pima,AZ,76.0,76.0,10.0,27.18,10.0,10.0,0.0
2,32.259640000000005,-110.914124,E Monte Vista Dr,Tucson,Pima,AZ,82.0,82.0,26.0,27.02,10.0,5.0,0.0
2,39.563629,-104.904327,S Quebec St,Littleton,Douglas,CO,80.0,80.0,14.0,24.27,10.0,3.0,0.0
2,33.378071000000006,-111.99556000000001,E Baseline Rd,Phoenix,Maricopa,AZ,56.0,56.0,32.0,28.75,10.0,0.0,0.0
2,32.206759999999996,-110.98081100000002, W Starr Pass Blvd,Tucson,Pima,AZ,47.0,44.0,38.0,27.32,10.0,6.0,0.0
2,33.348999,-111.97086999999999, W Elliot Rd,Tempe,Maricopa,AZ,64.0,64.0,14.0,28.97,10.0,7.0,0.0
2,40.5913,-111.93871999999999, S Redwood Rd,West Jordan,Salt Lake,UT,46.0,39.0,79.0,25.65,7.0,18.0,0.02
3,40.526928000000005,-111.89101399999998,I-15 N,Draper,Salt Lake,UT,40.0,34.0,35.0,25.91,10.0,8.0,0.0
2,33.65815,-111.925308,N Scottsdale Rd,Scottsdale,Maricopa,AZ,107.0,107.0,17.0,28.1,10.0,5.0,0.0
2,33.508781,-112.23769399999999, N 83rd Ave,Phoenix,Maricopa,AZ,45.0,41.0,46.0,28.92,10.0,6.0,0.0
1,32.23565,-110.98449,W Speedway Blvd,Tucson,Pima,AZ,61.0,61.0,46.0,27.28,10.0,3.0,0.0
2,39.776245,-104.989182,I-25 N,Denver,Denver,CO,37.0,37.0,48.0,24.2,10.0,3.0,0.0
2,40.16134,-111.64685,I-15 S,Springville,Utah,UT,78.0,78.0,32.0,25.57,10.0,7.0,0.0
1,32.10265,-110.7727,E Rita Rd,Tucson,Pima,AZ,91.0,91.0,10.0,27.03,10.0,6.0,0.0
2,33.580058,-112.258655,AZ-101 Loop N,Peoria,Maricopa,AZ,80.0,80.0,18.0,28.99,10.0,3.0,0.0
2,32.10265,-110.7727,E Rita Rd,Tucson,Pima,AZ,81.0,81.0,22.0,27.14,10.0,0.0,0.0
2,33.531059,-112.20311000000001,N 67th Ave,Glendale,Maricopa,AZ,74.0,74.0,32.0,28.73,10.0,5.0,0.0
2,40.725986,-112.02391100000001,UT-201 W,West Valley City,Salt Lake,UT,94.0,94.0,20.0,25.63,10.0,7.0,0.0
2,41.156963,-112.02444399999999,I-15 S,Roy,Weber,UT,32.0,26.0,75.0,25.77,10.0,7.0,0.0
2,46.874911,-113.890809,I-90 W,Missoula,Missoula,MT,21.0,11.0,68.0,26.78,10.0,9.0,0.0
1,32.19181,-110.81451000000001, E Golf Links Rd,Tucson,Pima,AZ,89.0,89.0,13.0,27.13,10.0,14.0,0.0
2,33.527707,-112.112059, N Black Canyon Hwy,Phoenix,Maricopa,AZ,71.0,71.0,26.0,28.8,10.0,3.0,0.0
2,33.864816,-112.634449, N US Highway 60,Morristown,Maricopa,AZ,76.0,76.0,26.0,28.8,10.0,5.0,0.0
2,32.139519,-110.84071399999999,S Kolb Rd,Tucson,Pima,AZ,63.0,63.0,16.0,27.15,10.0,3.0,0.0
2,39.174973,-119.74060800000001,I-580 N,Carson City,Carson City,NV,93.0,93.0,10.0,25.27,9.0,9.0,0.0
2,39.26426,-104.89491000000001,I-25 S,Castle Rock,Douglas,CO,23.0,12.0,86.0,23.25,10.0,12.0,0.0
2,45.662838,-108.769122,I-90 W,Laurel,Yellowstone,MT,24.0,16.0,91.0,26.32,2.0,7.0,0.0
2,39.956111,-111.79772,I-15 N,Santaquin,Utah,UT,70.0,70.0,38.0,25.56,10.0,3.0,0.0
2,35.207329,-113.29021000000002,I-40 E,Seligman,Yavapai,AZ,33.0,33.0,43.0,23.31,10.0,0.0,0.0
2,40.699622999999995,-111.902473,I-15 S,Salt Lake City,Salt Lake,UT,34.0,27.0,96.0,25.87,10.0,8.0,0.0
2,33.291752,-112.03169299999999,South Mountain Fwy,Phoenix,Maricopa,AZ,92.0,92.0,7.0,28.59,10.0,10.0,0.0
2,33.56583,-112.27118700000001,N 99th Ave,Peoria,Maricopa,AZ,53.0,53.0,47.0,28.85,10.0,0.0,0.0
2,47.82597,-116.87421, N Highway 41,Rathdrum,Kootenai,ID,72.0,72.0,27.0,27.7,10.0,9.0,0.0
2,41.07871,-111.98096000000001,I-15 N,Layton,Davis,UT,20.0,5.0,99.0,24.86,1.0,16.0,0.0
2,48.108121000000004,-105.042983,MT-480,Brockton,Roosevelt,MT,-1.0,-14.0,87.0,28.43,10.0,7.0,0.0
4,34.728888,-112.14780400000001,Old Prescott Jerome Hwy,Cottonwood,Yavapai,AZ,62.0,62.0,24.0,25.09,10.0,7.0,0.0
2,33.582142,-112.08901200000001,W Peoria Ave,Phoenix,Maricopa,AZ,78.0,78.0,28.0,28.26,10.0,0.0,0.0
1,33.48052,-112.17783, W Thomas Rd,Phoenix,Maricopa,AZ,102.0,102.0,12.0,28.48,10.0,20.0,0.0
2,43.617090000000005,-111.94999399999999,US-20 E,Idaho Falls,Bonneville,ID,18.0,2.0,62.0,25.22,10.0,20.0,0.0
2,45.784103,-108.630928, Grand Ave,Billings,Yellowstone,MT,64.0,64.0,21.0,26.22,10.0,12.0,0.0
2,40.233124,-111.68321200000001,W Center St,Provo,Utah,UT,47.0,43.0,74.0,25.72,10.0,8.0,0.0
4,43.131691,-115.657292,I-84 E,Mountain Home,Elmore,ID,40.0,32.0,59.0,26.95,10.0,15.0,0.0
2,33.407565000000005,-111.891342, E Broadway Rd,Tempe,Maricopa,AZ,84.0,84.0,16.0,28.74,10.0,0.0,0.0
2,40.699622999999995,-111.902473,I-15 S,Salt Lake City,Salt Lake,UT,63.0,63.0,25.0,25.83,10.0,9.0,0.0
2,38.797905,-104.817276,Lake Ave,Colorado Springs,El Paso,CO,29.0,19.0,69.0,23.83,5.0,12.0,0.0
2,40.706379999999996,-112.51858999999999,I-80 W,Grantsville,Tooele,UT,25.0,10.0,69.0,25.29,10.0,23.0,0.0
2,33.675697,-112.11273200000001,Black Canyon Fwy N,Phoenix,Maricopa,AZ,48.0,44.0,80.0,28.54,10.0,9.0,0.0
3,39.130219,-104.8638,I-25 S,Larkspur,Douglas,CO,68.0,68.0,26.0,23.4,10.0,10.0,0.0
2,38.995490000000004,-110.155, E Main St,Green River,Emery,UT,45.0,45.0,36.0,25.4,10.0,0.0,0.0
2,33.470073,-112.038735,Piestewa Fwy S,Phoenix,Maricopa,AZ,46.0,44.0,40.0,28.88,10.0,5.0,0.0
2,38.900729999999996,-104.83577700000001,Elkton Dr,Colorado Springs,El Paso,CO,38.0,34.0,28.0,23.74,10.0,5.0,0.0
2,40.785740000000004,-111.94913500000001,I-215 S,Salt Lake City,Salt Lake,UT,37.0,30.0,93.0,25.59,10.0,9.0,0.01
2,39.196971999999995,-119.773224,I-580 S,Carson City,Carson City,NV,34.0,28.0,60.0,25.43,10.0,7.0,0.0
2,33.66084,-111.93758999999999,AZ-101 Loop W,Phoenix,Maricopa,AZ,66.0,66.0,32.0,28.19,10.0,5.0,0.0
2,35.073814,-106.73661000000001,Central Ave SW,Albuquerque,Bernalillo,NM,27.0,27.0,69.0,24.73,10.0,3.0,0.0
1,39.6967,-105.00155, S Lipan St,Denver,Denver,CO,25.0,25.0,78.0,24.24,10.0,0.0,0.0
2,33.29188,-111.99713999999999, S 40th St,Phoenix,Maricopa,AZ,99.0,99.0,14.0,28.76,10.0,7.0,0.0
2,39.987125,-104.978477,Washington St,Broomfield,Adams,CO,23.0,17.0,90.0,25.16,10.0,5.0,0.0
2,33.669090999999995,-112.04556699999999,AZ-101 Loop W,Phoenix,Maricopa,AZ,90.0,90.0,12.0,28.19,10.0,0.0,0.0
2,33.377621000000005,-112.62505300000001,S Oglesby Rd,Buckeye,Maricopa,AZ,73.0,73.0,20.0,29.06,10.0,0.0,0.0
2,32.163239000000004,-110.98261299999999,S 17th Ave,Tucson,Pima,AZ,102.0,102.0,7.0,27.06,10.0,6.0,0.0
2,37.674268,-113.07966200000001,I-15 N,Cedar City,Iron,UT,15.0,15.0,68.0,24.6,10.0,0.0,0.0
2,33.386219,-111.82281499999999,S Mesa Dr,Mesa,Maricopa,AZ,61.0,61.0,35.0,29.09,10.0,0.0,0.0
2,38.947720000000004,-119.757446,Circle Dr,Gardnerville,Douglas,NV,54.0,54.0,37.0,23.91,10.0,3.0,0.0
3,33.461209999999994,-112.08821999999999,Pearl Harbor Memorial Highway,Phoenix,Maricopa,AZ,73.0,73.0,26.0,28.79,10.0,0.0,0.0
3,36.782307,-114.138718,I-15 S,Overton,Clark,NV,110.0,110.0,8.0,27.78,10.0,26.0,0.0
2,46.992264,-114.44016,I-90 W,Alberton,Missoula,MT,42.0,42.0,79.0,26.53,10.0,0.0,0.0
3,38.672348,-104.70835100000001,I-25 N,Fountain,El Paso,CO,52.0,52.0,25.0,24.46,10.0,0.0,0.0
2,46.716361,-113.668221, Bucking Horse Ln,Clinton,Missoula,MT,31.0,31.0,82.0,26.77,10.0,0.0,0.0
3,40.969864,-111.891861,I-15 N,Farmington,Davis,UT,28.0,28.0,53.0,25.56,10.0,0.0,0.0
3,39.31275,-104.88526,I-25 N,Castle Rock,Douglas,CO,37.0,30.0,48.0,22.9,10.0,10.0,0.0
2,40.399451,-111.919247, W Harvest Hills Blvd,Saratoga Springs,Utah,UT,43.0,40.0,71.0,25.55,10.0,5.0,0.0
2,41.2112,-111.97068999999999, Washington Blvd,Ogden,Weber,UT,77.0,77.0,21.0,25.09,10.0,30.0,0.0
3,40.763901000000004,-111.98541999999999,I-80 E,Salt Lake City,Salt Lake,UT,87.0,87.0,13.0,25.88,10.0,7.0,0.0
2,33.581944,-112.12207,W Peoria Ave,Phoenix,Maricopa,AZ,71.0,71.0,26.0,28.28,10.0,5.0,0.0
2,40.230391999999995,-111.681602,I-15 S,Provo,Utah,UT,38.0,33.0,57.0,25.53,10.0,6.0,0.0
2,39.349773,-111.58829899999999, S Main St,Ephraim,Sanpete,UT,41.0,32.0,36.0,24.16,10.0,18.0,0.0
1,33.42958,-112.11721999999999, W Durango St,Phoenix,Maricopa,AZ,55.0,55.0,67.0,28.87,10.0,6.0,0.0
3,39.913864000000004,-104.989677,I-25 N,Denver,Adams,CO,61.0,61.0,59.0,24.49,10.0,8.0,0.0
1,32.20683,-110.87508999999999,E 22nd St,Tucson,Pima,AZ,48.0,45.0,33.0,27.15,10.0,7.0,0.0
4,33.47999,-112.23778999999999,N 83rd Ave,Phoenix,Maricopa,AZ,87.0,87.0,19.0,28.6,10.0,16.0,0.0
3,34.891529,-110.16185,S Apache Dr,Holbrook,Navajo,AZ,48.0,42.0,46.0,25.03,10.0,17.0,0.0
2,39.390910999999996,-104.753128,E State Highway 86,Franktown,Douglas,CO,18.0,11.0,93.0,23.3,2.0,5.0,0.0
2,32.13382,-111.024147,W Valencia Rd,Tucson,Pima,AZ,61.0,61.0,16.0,27.32,10.0,14.0,0.0
2,37.54977,-113.19712,I-15 S,Kanarraville,Iron,UT,30.0,30.0,96.0,24.45,0.5,3.0,0.0
2,43.600369,-116.568428,I-84 W,Nampa,Canyon,ID,43.0,38.0,39.0,27.41,10.0,8.0,0.0
2,39.97213,-111.7762,I-15 N,Santaquin,Utah,UT,61.0,61.0,72.0,25.37,10.0,13.0,0.02
2,33.668972,-112.065964,N 7th St,Phoenix,Maricopa,AZ,90.0,90.0,10.0,28.16,10.0,12.0,0.0
2,33.66795,-112.21919299999999,AZ-101 Loop S,Glendale,Maricopa,AZ,105.0,105.0,9.0,28.16,10.0,13.0,0.0
3,39.730682,-105.0159,I-25 S,Denver,Denver,CO,70.0,70.0,33.0,24.54,10.0,5.0,0.0
1,33.69585,-112.2031, W Parkside Ln,Glendale,Maricopa,AZ,77.0,77.0,24.0,28.17,10.0,3.0,0.0
2,32.191963,-110.841057,E Golf Links Rd,Tucson,Pima,AZ,63.0,63.0,28.0,27.26,10.0,15.0,0.0
2,43.379205,-112.192264,I-15 N,Shelley,Bingham,ID,27.0,15.0,96.0,25.29,10.0,16.0,0.0
2,40.620090000000005,-111.90416,I-15 N,Midvale,Salt Lake,UT,22.0,16.0,78.0,25.98,10.0,5.0,0.0
2,41.13942,-111.85416000000001,I-84 E,Morgan,Morgan,UT,49.0,45.0,40.0,25.33,10.0,9.0,0.0
1,33.53765,-112.2377,N 83rd Ave,Glendale,Maricopa,AZ,81.0,81.0,12.0,28.62,10.0,23.0,0.0
2,40.76545,-111.95323,I-80 W,Salt Lake City,Salt Lake,UT,87.0,87.0,15.0,25.64,10.0,16.0,0.0
2,32.2215,-110.93946799999999,E Broadway Blvd,Tucson,Pima,AZ,56.0,56.0,65.0,27.28,10.0,3.0,0.0
3,39.77462,-104.85186999999999,I-70 W,Denver,Denver,CO,82.0,82.0,21.0,24.21,10.0,21.0,0.0
3,41.886475,-112.17036399999999,North Rd,Portage,Box Elder,UT,68.0,68.0,56.0,25.42,10.0,9.0,0.0
2,33.65699,-111.919,Pima Fwy W,Scottsdale,Maricopa,AZ,98.0,98.0,12.0,28.05,10.0,7.0,0.0
2,40.590021,-111.93880800000001, S Redwood Rd,West Jordan,Salt Lake,UT,23.0,17.0,78.0,26.03,10.0,5.0,0.0
3,40.188431,-111.64659099999999,I-15 S,Spanish Fork,Utah,UT,76.0,76.0,35.0,25.45,10.0,28.0,0.0
2,39.652621999999994,-105.081139,S Wadsworth Blvd,Denver,Jefferson,CO,39.0,39.0,41.0,24.15,10.0,0.0,0.0
2,45.634851,-111.04839399999999, Goldenstein Ln,Bozeman,Gallatin,MT,28.0,22.0,53.0,25.75,10.0,6.0,0.0
2,39.15833,-108.73873700000001, Highway 6 and 50,Fruita,Mesa,CO,25.0,18.0,72.0,25.21,10.0,6.0,0.0
2,33.377419,-112.21540800000001,W Baseline Rd,Laveen,Maricopa,AZ,46.0,41.0,56.0,28.88,10.0,9.0,0.0
2,39.732849,-104.872932,E 11th Ave,Aurora,Arapahoe,CO,11.0,11.0,70.0,24.23,10.0,0.0,0.0
2,33.711988,-112.274309,W Happy Valley Rd,Peoria,Maricopa,AZ,49.0,49.0,28.0,28.49,10.0,0.0,0.0
2,38.948634999999996,-104.80349,N Academy Blvd,Colorado Springs,El Paso,CO,48.0,43.0,68.0,23.79,10.0,9.0,0.0
1,33.56753,-112.15215, W Olive Ave,Glendale,Maricopa,AZ,94.0,94.0,11.0,28.67,10.0,9.0,0.0
2,46.232968,-112.76685800000001,I-90 W,Deer Lodge,Deer Lodge,MT,48.0,45.0,54.0,27.08,10.0,7.0,0.0
2,39.56069,-110.81586000000001, S Highway 10,Price,Carbon,UT,5.0,5.0,84.0,24.51,0.25,0.0,0.0
2,33.66876,-112.07275,Loop 101 E,Phoenix,Maricopa,AZ,50.0,50.0,57.0,28.32,10.0,0.0,0.0
1,39.63862,-104.82908,S Parker Rd,Aurora,Arapahoe,CO,23.0,11.0,100.0,24.48,4.0,13.0,0.0
1,32.30512,-111.01195,W River Rd,Tucson,Pima,AZ,73.0,73.0,17.0,27.27,10.0,13.0,0.0
2,33.440907,-111.96815500000001,AZ-202 Loop E,Tempe,Maricopa,AZ,77.0,77.0,24.0,28.61,10.0,3.0,0.0
2,38.733982,-105.52883100000001,CO-9,Guffey,Park,CO,57.0,57.0,100.0,21.09,10.0,0.0,0.0
2,39.698528,-104.90354199999999,Leetsdale Dr,Denver,Arapahoe,CO,5.0,-7.0,66.0,24.0,10.0,7.0,0.0
2,33.422459,-112.134529,S 35th Ave,Phoenix,Maricopa,AZ,99.0,99.0,24.0,28.65,10.0,3.0,0.0
2,35.010348,-107.02871200000001,Historic US 66 E,Laguna,Bernalillo,NM,14.0,14.0,80.0,23.9,10.0,0.0,0.0
2,32.261189,-110.943848,N Campbell Ave,Tucson,Pima,AZ,99.0,99.0,10.0,27.14,10.0,6.0,0.0
1,32.23538,-110.7898,E Speedway Blvd,Tucson,Pima,AZ,100.0,100.0,9.0,26.97,10.0,13.0,0.0
3,39.77652,-104.87605,I-70 E,Denver,Denver,CO,47.0,42.0,52.0,24.43,10.0,10.0,0.0
2,33.44491,-111.96878999999998,AZ-202 Loop W,Phoenix,Maricopa,AZ,97.0,97.0,7.0,28.54,10.0,7.0,0.0
1,33.60907,-112.3419,W Thunderbird Rd,El Mirage,Maricopa,AZ,71.0,71.0,20.0,28.81,10.0,5.0,0.0
3,38.093689000000005,-103.161018,US Highway 50,Las Animas,Bent,CO,66.0,66.0,65.0,25.81,10.0,10.0,0.0
2,39.525085,-119.696141,Interstate 80 E,Sparks,Washoe,NV,56.0,56.0,42.0,25.68,10.0,0.0,0.0
2,40.725712,-112.02478,UT-201 E,West Valley City,Salt Lake,UT,55.0,55.0,37.0,25.48,10.0,9.0,0.0
2,40.752720000000004,-111.987007,Bangerter Hwy,Salt Lake City,Salt Lake,UT,76.0,76.0,36.0,25.63,10.0,8.0,0.0
2,33.493351000000004,-112.298538,N 111th Ave,Avondale,Maricopa,AZ,46.0,42.0,51.0,28.86,10.0,9.0,0.0
1,33.50954,-112.10848999999999, N 23rd Ave,Phoenix,Maricopa,AZ,104.0,104.0,14.0,28.54,10.0,8.0,0.0
2,35.53001,-106.153346,I-25 N,Santa Fe,Santa Fe,NM,48.0,44.0,74.0,23.91,10.0,8.0,0.0
2,40.988209999999995,-109.73046000000001, W Highway 43,Manila,Daggett,UT,75.0,75.0,29.0,24.72,10.0,6.0,0.0
2,33.451111,-111.93521100000001,E McKellips Rd,Tempe,Maricopa,AZ,77.0,77.0,32.0,28.7,10.0,12.0,0.0
1,32.221509999999995,-110.9097, S Alvernon Way,Tucson,Pima,AZ,65.0,65.0,18.0,27.24,10.0,7.0,0.0
3,33.462241999999996,-112.065582,I-10 W,Phoenix,Maricopa,AZ,60.0,60.0,25.0,28.67,10.0,6.0,0.0
2,37.60009,-113.16278100000001,N 100 W,Cedar City,Iron,UT,83.0,83.0,6.0,24.47,10.0,16.0,0.0
3,41.1203,-112.01931,I-15 N,Clearfield,Davis,UT,81.0,81.0,18.0,25.13,10.0,9.0,0.0
3,33.462708,-112.206657,I-10 E,Phoenix,Maricopa,AZ,56.0,56.0,100.0,28.8,10.0,3.0,0.0
2,40.571999999999996,-111.77328999999999, E Little Cottonwood Rd,Sandy,Salt Lake,UT,32.0,26.0,96.0,25.6,1.0,6.0,0.01
2,45.635954999999996,-108.73387, Clarks Point Dr,Laurel,Yellowstone,MT,53.0,53.0,38.0,26.09,10.0,10.0,0.0
2,33.58667,-112.11718799999998,N Black Canyon Hwy,Phoenix,Maricopa,AZ,43.0,43.0,71.0,28.45,10.0,3.0,0.0
2,33.669151,-112.08287800000001,N 7th Ave,Phoenix,Maricopa,AZ,92.0,92.0,39.0,28.19,10.0,9.0,0.0
2,39.268311,-119.57465400000001,US Highway 50 E,Dayton,Lyon,NV,50.0,50.0,50.0,25.35,10.0,0.0,0.0
1,33.618839,-111.882668,E Raintree Dr,Scottsdale,Maricopa,AZ,48.0,48.0,48.0,28.31,10.0,3.0,0.0
2,33.696209,-112.233383,N 81st Ave,Peoria,Maricopa,AZ,82.0,82.0,14.0,28.34,10.0,0.0,0.0
2,39.528154,-119.71438,Interstate 80 E,Sparks,Washoe,NV,31.0,31.0,76.0,25.73,10.0,0.0,0.0
3,37.482365,-113.220177,I-15 N,New Harmony,Iron,UT,37.0,37.0,73.0,24.41,10.0,3.0,0.0
2,39.760452,-111.482651,US-89 N,Fairview,Sanpete,UT,65.0,65.0,32.0,24.36,10.0,9.0,0.0
2,39.82164,-104.98251,US-87 N,Denver,Adams,CO,27.0,16.0,100.0,24.37,1.0,12.0,0.0
2,39.814721,-104.983001,I-25 N,Denver,Adams,CO,52.0,52.0,54.0,24.46,10.0,7.0,0.0
2,33.46986,-112.25581399999999,N 91st Dr,Phoenix,Maricopa,AZ,89.0,89.0,17.0,28.73,10.0,5.0,0.0
4,39.002223,-119.95568100000001, US Highway 50,Zephyr Cove,Douglas,NV,28.0,28.0,66.0,24.06,10.0,3.0,0.0
2,40.30196,-109.831108,US Highway 40,Fort Duchesne,Uintah,UT,20.0,20.0,71.0,24.57,10.0,0.0,0.0
3,39.653076,-104.918396,I-25 S,Denver,Denver,CO,63.0,63.0,21.0,24.07,10.0,13.0,0.0
2,32.236095,-110.935272,N Tucson Blvd,Tucson,Pima,AZ,96.0,96.0,30.0,27.15,10.0,6.0,0.0
4,40.77616,-111.93935, N Redwood Rd,Salt Lake City,Salt Lake,UT,66.0,66.0,38.0,25.82,10.0,7.0,0.0
1,32.236,-110.94386000000002, N Campbell Ave,Tucson,Pima,AZ,74.0,74.0,42.0,27.05,10.0,9.0,0.0
3,39.77021,-104.9917,I-25 N,Denver,Denver,CO,28.0,19.0,51.0,24.41,50.0,10.0,0.0
2,33.483959000000006,-112.083099,N 7th Ave,Phoenix,Maricopa,AZ,75.0,75.0,22.0,28.61,10.0,8.0,0.0
2,39.667629999999996,-104.90361000000001,E Yale Ave,Denver,Denver,CO,76.0,76.0,21.0,23.92,10.0,9.0,0.0
2,32.228909,-110.909599,E 5th St,Tucson,Pima,AZ,68.0,68.0,17.0,27.3,10.0,6.0,0.0
2,32.163231,-110.977531,S 12th Ave,Tucson,Pima,AZ,62.0,62.0,30.0,27.12,10.0,9.0,0.0
1,32.19189,-110.8411, S Kolb Rd,Tucson,Pima,AZ,82.0,82.0,18.0,27.15,10.0,13.0,0.0
3,39.821404,-104.98355900000001,I-25 S,Denver,Adams,CO,46.0,43.0,29.0,24.46,30.0,7.0,0.0
2,40.718340000000005,-111.8931,I-80 W,Salt Lake City,Salt Lake,UT,87.0,87.0,28.0,25.65,10.0,14.0,0.0
1,33.49492,-112.0835, N 7th Ave,Phoenix,Maricopa,AZ,62.0,62.0,48.0,28.65,10.0,8.0,0.0
2,32.15139,-110.977577,S 12th Ave,Tucson,Pima,AZ,38.0,34.0,78.0,27.24,10.0,5.0,0.0
2,33.637608,-112.06552099999999,N 7th St,Phoenix,Maricopa,AZ,70.0,70.0,23.0,28.21,10.0,0.0,0.0
4,38.95796,-105.32616000000002, County Road 31,Florissant,Teller,CO,27.0,15.0,47.0,20.82,10.0,15.0,0.0
2,32.28928,-111.02301000000001,W Poppy Ave,Tucson,Pima,AZ,52.0,52.0,31.0,27.22,10.0,8.0,0.0
2,40.45368,-111.91355,I-15 N,Riverton,Salt Lake,UT,38.0,38.0,62.0,25.75,10.0,0.0,0.0
3,40.275784,-111.71903999999999,I-15 N,Orem,Utah,UT,27.0,19.0,93.0,25.36,2.0,7.0,0.0
3,35.104401,-106.629852,I-25 S,Albuquerque,Bernalillo,NM,48.0,44.0,22.0,24.73,10.0,9.0,0.0
2,32.236121999999995,-110.899028, E Speedway Blvd,Tucson,Pima,AZ,87.0,87.0,13.0,27.25,10.0,3.0,0.0
2,46.954482,-112.106026,I-15 N,Wolf Creek,Lewis and Clark,MT,24.0,24.0,60.0,26.29,10.0,0.0,0.0
2,33.36694,-112.067383,S 6th St,Phoenix,Maricopa,AZ,58.0,58.0,12.0,29.02,10.0,6.0,0.0
1,40.71816,-111.87656000000001,I-80 E,Salt Lake City,Salt Lake,UT,32.0,24.0,96.0,25.53,2.0,10.0,0.01
1,40.73632,-111.9492,I-215 S,Salt Lake City,Salt Lake,UT,65.0,65.0,43.0,25.57,10.0,8.0,0.0
1,33.58193,-112.1515,N 43rd Ave,Phoenix,Maricopa,AZ,69.0,69.0,30.0,28.38,10.0,0.0,0.0
2,39.537926,-104.93660700000001,E Wildcat Reserve Pkwy,Littleton,Douglas,CO,59.0,59.0,39.0,24.47,10.0,7.0,0.0
2,33.671696000000004,-112.00048799999999,AZ-101 Loop E,Phoenix,Maricopa,AZ,60.0,60.0,47.0,28.22,10.0,3.0,0.0
2,36.579346,-114.474599, N Moapa Valley Blvd,Logandale,Clark,NV,41.0,41.0,77.0,28.08,10.0,3.0,0.0
2,40.76384,-111.8997, S 300 W,Salt Lake City,Salt Lake,UT,58.0,58.0,32.0,25.44,10.0,17.0,0.0
2,39.492785999999995,-119.78458400000001,E Moana Ln,Reno,Washoe,NV,54.0,54.0,9.0,25.6,10.0,17.0,0.0
2,40.582499,-111.89993899999999,I-15 N,Sandy,Salt Lake,UT,26.0,17.0,71.0,25.7,10.0,9.0,0.0
2,33.638165,-112.23345900000001,N 83rd Ave,Glendale,Maricopa,AZ,85.0,85.0,16.0,28.28,10.0,0.0,0.0
2,32.182259,-111.00302099999999,S Mission Rd,Tucson,Pima,AZ,82.0,82.0,21.0,27.12,10.0,21.0,0.0
1,40.72031,-112.23071000000002,I-80 E,Tooele,Tooele,UT,56.0,56.0,40.0,25.33,10.0,0.0,0.0
2,32.250381,-111.01329799999999,N Silverbell Rd,Tucson,Pima,AZ,81.0,81.0,18.0,27.19,10.0,12.0,0.0
2,39.468231,-120.002706,I-80 E,Verdi,Washoe,NV,31.0,23.0,54.0,25.48,10.0,9.0,0.0
2,43.576232,-116.193527, S Broadway Ave,Boise,Ada,ID,52.0,52.0,59.0,26.89,10.0,8.0,0.0
2,40.76056,-111.88826, E 400 S,Salt Lake City,Salt Lake,UT,94.0,94.0,13.0,25.58,10.0,20.0,0.0
2,39.418183,-119.747275,Martin Luther King Jr Memorial Fwy,Reno,Washoe,NV,83.0,83.0,8.0,25.7,10.0,3.0,0.0
2,33.462812,-112.2143,I-10 W,Phoenix,Maricopa,AZ,44.0,44.0,69.0,28.85,10.0,0.0,0.0
2,32.264858000000004,-110.943802,N Campbell Ave,Tucson,Pima,AZ,92.0,92.0,10.0,27.1,10.0,0.0,0.0
2,41.240790000000004,-111.94271, Canyon Rd,Ogden,Weber,UT,44.0,42.0,45.0,25.58,10.0,5.0,0.0
3,39.72538,-105.104,US-6 E,Denver,Jefferson,CO,73.0,73.0,36.0,24.53,75.0,8.0,0.0
2,32.1632,-110.90930900000001,E Irvington Rd,Tucson,Pima,AZ,92.0,92.0,13.0,27.11,10.0,18.0,0.0
3,40.391415,-111.835228,I-15 N,Lehi,Utah,UT,44.0,40.0,51.0,25.68,10.0,8.0,0.0
3,39.82258,-104.9707,I-76 E,Denver,Adams,CO,72.0,72.0,38.0,24.52,22.0,5.0,0.0
2,32.896724,-107.312597,I-25 N,Caballo,Sierra,NM,77.0,77.0,11.0,25.06,10.0,9.0,0.0
2,40.57209,-111.77381000000001, E Little Cottonwood Rd,Sandy,Salt Lake,UT,37.0,37.0,89.0,25.75,8.0,3.0,0.01
2,39.725681,-105.09014099999999,W 6th Ave,Lakewood,Jefferson,CO,90.0,90.0,15.0,24.58,10.0,9.0,0.0
2,32.236109,-110.901159, N Columbus Blvd,Tucson,Pima,AZ,55.0,55.0,27.0,27.3,10.0,10.0,0.0
2,32.195301,-110.89256999999999,E Golf Links Rd,Tucson,Pima,AZ,43.0,38.0,68.0,27.17,10.0,9.0,0.0
2,33.38612,-111.84626999999999,Superstition Fwy W,Mesa,Maricopa,AZ,76.0,76.0,23.0,28.75,10.0,8.0,0.0
1,33.40787,-111.6327, E Broadway Rd,Mesa,Maricopa,AZ,72.0,72.0,41.0,28.51,10.0,5.0,0.0
2,39.552738,-119.73375700000001,N McCarran Blvd,Sparks,Washoe,NV,81.0,81.0,24.0,25.55,10.0,0.0,0.0
2,40.67445,-111.95277,I-215 S,Salt Lake City,Salt Lake,UT,41.0,36.0,70.0,25.87,10.0,8.0,0.0
2,39.740002000000004,-104.95980800000001,E Colfax Ave,Denver,Denver,CO,30.0,22.0,58.0,24.27,10.0,9.0,0.0
2,40.725986,-112.02391100000001,UT-201 W,West Valley City,Salt Lake,UT,34.0,34.0,85.0,25.98,10.0,3.0,0.0
3,33.386672999999995,-111.894348,S Siesta Ln,Tempe,Maricopa,AZ,110.0,110.0,11.0,28.49,10.0,13.0,0.0
2,33.392681,-112.09913799999998, S 19th Ave,Phoenix,Maricopa,AZ,49.0,44.0,20.0,28.98,10.0,12.0,0.0
2,40.653759,-111.91030900000001,W 5300 S,Salt Lake City,Salt Lake,UT,79.0,79.0,35.0,25.76,10.0,6.0,0.0
1,39.51032,-104.7636,S Parker Rd,Parker,Douglas,CO,21.0,9.0,85.0,24.17,0.5,13.0,0.0
2,33.661156,-112.19686100000001,N 63rd Ave,Glendale,Maricopa,AZ,58.0,58.0,53.0,28.37,10.0,5.0,0.0
3,40.350243,-111.76937099999999,I-15 N,Pleasant Grove,Utah,UT,95.0,95.0,11.0,25.45,10.0,8.0,0.0
1,32.09029,-110.95934, S Nogales Hwy,Tucson,Pima,AZ,77.0,77.0,14.0,27.09,10.0,9.0,0.0
1,33.581920000000004,-112.16885, W Peoria Ave,Glendale,Maricopa,AZ,92.0,92.0,7.0,28.59,10.0,15.0,0.0
2,40.66762,-111.95286999999999,W 4700 S,Salt Lake City,Salt Lake,UT,60.0,60.0,20.0,25.94,10.0,12.0,0.0
2,32.207817999999996,-110.841072, S Kolb Rd,Tucson,Pima,AZ,75.0,75.0,6.0,27.16,10.0,13.0,0.0
2,39.556179,-119.490273,Electric Ave,Sparks,Storey,NV,94.0,94.0,19.0,25.6,9.0,21.0,0.0
2,42.578297,-114.30123200000001,I-84 E,Eden,Jerome,ID,28.0,20.0,69.0,25.96,10.0,9.0,0.0
2,32.228859,-110.90116100000002,N Columbus Blvd,Tucson,Pima,AZ,90.0,90.0,9.0,27.05,10.0,10.0,0.0
2,33.460679999999996,-112.01227,AZ-202 Loop E,Phoenix,Maricopa,AZ,72.0,72.0,49.0,28.87,10.0,8.0,0.0
2,32.272006,-111.010226,W Prince Rd,Tucson,Pima,AZ,45.0,41.0,29.0,27.24,10.0,8.0,0.0
2,39.348563,-110.935822,UT-10,Elmo,Emery,UT,50.0,50.0,52.0,23.61,10.0,18.0,0.0
2,38.46545,-113.39147,Ely Hwy,Milford,Beaver,UT,49.0,43.0,86.0,24.72,10.0,15.0,0.0
2,33.49093,-112.11295700000001,Black Canyon Fwy N,Phoenix,Maricopa,AZ,45.0,45.0,58.0,29.04,10.0,0.0,0.0
2,33.411122999999996,-111.891465,AZ-101 Loop S,Tempe,Maricopa,AZ,84.0,84.0,16.0,28.74,10.0,0.0,0.0
2,41.192532,-111.97928600000002,Riverdale Rd,Ogden,Weber,UT,75.0,75.0,22.0,25.61,10.0,3.0,0.0
3,39.725559999999994,-105.02991000000002,W 6th Avenue Fwy E,Denver,Denver,CO,91.0,91.0,7.0,23.98,10.0,8.0,0.0
2,40.840343,-117.190483,NFD Road 411,Golconda,Humboldt,NV,44.0,44.0,55.0,25.55,10.0,0.0,0.0
2,32.191963,-110.841057,E Golf Links Rd,Tucson,Pima,AZ,89.0,89.0,24.0,27.17,10.0,7.0,0.0
2,33.407565000000005,-111.891342, E Broadway Rd,Tempe,Maricopa,AZ,92.0,92.0,18.0,28.56,10.0,8.0,0.0
1,40.5443,-111.89492,I-15 S,Draper,Salt Lake,UT,47.0,47.0,39.0,25.95,10.0,0.0,0.0
2,43.599382,-116.508926,I-84 E,Nampa,Canyon,ID,50.0,50.0,100.0,27.24,10.0,6.0,0.01
1,33.639920000000004,-112.11399999999999,N Black Canyon Hwy,Phoenix,Maricopa,AZ,105.0,105.0,8.0,28.21,10.0,15.0,0.0
1,33.46249,-112.2496,I-10 W,Tolleson,Maricopa,AZ,65.0,65.0,20.0,28.86,10.0,0.0,0.0
2,32.287461,-110.978274, N Oracle Rd,Tucson,Pima,AZ,99.0,99.0,13.0,27.09,10.0,9.0,0.0
2,32.295361,-111.011978,N La Cholla Blvd,Tucson,Pima,AZ,83.0,83.0,9.0,27.1,10.0,8.0,0.0
3,40.627884,-111.904427,I-15 S,Midvale,Salt Lake,UT,79.0,79.0,40.0,25.76,10.0,8.0,0.0
3,39.821404,-104.98355900000001,I-25 S,Denver,Adams,CO,25.0,15.0,93.0,24.39,1.0,9.0,0.0
2,33.530976,-112.05554, E Maryland Ave,Phoenix,Maricopa,AZ,54.0,54.0,40.0,28.91,10.0,3.0,0.0
2,48.175922,-114.09371200000001, S Many Lakes Dr,Kalispell,Flathead,MT,7.0,-2.0,87.0,27.35,10.0,5.0,0.0
4,43.843848,-116.954493, Highway 95,Parma,Payette,ID,57.0,57.0,27.0,27.97,10.0,3.0,0.0
3,39.749081,-111.83404499999999,N Main St,Nephi,Juab,UT,36.0,36.0,82.0,25.26,10.0,0.0,0.01
2,33.386669,-111.957825,Superstition Fwy W,Tempe,Maricopa,AZ,73.0,73.0,17.0,28.8,10.0,3.0,0.0
3,33.461441,-112.26983600000001,I-10 E,Tolleson,Maricopa,AZ,43.0,38.0,56.0,28.93,10.0,8.0,0.0
2,40.4067,-104.944221,US Highway 34,Johnstown,Weld,CO,95.0,95.0,18.0,25.15,2.0,3.0,0.0
2,32.340662,-111.012662, N La Cholla Blvd,Tucson,Pima,AZ,88.0,88.0,22.0,27.16,10.0,5.0,0.0
2,38.87429,-104.81620799999999,E Fillmore St,Colorado Springs,El Paso,CO,77.0,77.0,7.0,23.34,10.0,16.0,0.0
2,40.72442,-111.92002,UT-201 W,West Valley City,Salt Lake,UT,55.0,55.0,45.0,25.58,10.0,15.0,0.0
3,35.159904,-106.58725700000001,I-25 S,Albuquerque,Bernalillo,NM,49.0,47.0,41.0,24.66,10.0,5.0,0.0
2,45.591231,-111.198126, Mill St,Bozeman,Gallatin,MT,29.0,24.0,78.0,25.75,10.0,5.0,0.0
2,39.778366,-104.903168,I-70 E,Denver,Denver,CO,16.0,9.0,93.0,24.36,10.0,5.0,0.0
2,41.0287,-111.94685,I-15 S,Kaysville,Davis,UT,58.0,58.0,67.0,25.05,10.0,8.0,0.0
2,40.65319,-111.93879,W 5400 S,Salt Lake City,Salt Lake,UT,41.0,36.0,70.0,25.87,10.0,8.0,0.0
2,39.277531,-119.55886100000001,US Highway 50 E,Dayton,Lyon,NV,21.0,15.0,74.0,25.47,10.0,5.0,0.0
2,32.187098999999996,-110.913582,S Dodge Blvd,Tucson,Pima,AZ,71.0,71.0,28.0,27.2,10.0,9.0,0.0
2,32.250298,-110.976479, W Grant Rd,Tucson,Pima,AZ,36.0,30.0,44.0,27.26,10.0,7.0,0.0
2,33.406698999999996,-112.07287600000001, E Broadway Rd,Phoenix,Maricopa,AZ,63.0,63.0,31.0,28.78,10.0,9.0,0.0
2,33.769882,-112.13668799999999,AZ-303 Loop S,Phoenix,Maricopa,AZ,61.0,61.0,97.0,28.26,3.0,0.0,0.02
2,39.97679,-111.50353, US Highway 89,Spanish Fork,Utah,UT,33.0,33.0,70.0,25.53,10.0,3.0,0.0
3,41.170094,-112.020271,I-15 S,Ogden,Weber,UT,70.0,70.0,22.0,25.36,10.0,5.0,0.0
2,40.742765000000006,-111.98991799999999,Bangerter Hwy,Salt Lake City,Salt Lake,UT,69.0,69.0,22.0,26.0,10.0,5.0,0.0
3,39.778263,-104.908203,I-70 E,Denver,Denver,CO,82.0,82.0,25.0,24.46,10.0,9.0,0.0
2,40.584278999999995,-111.900225,I-15 S,Sandy,Salt Lake,UT,31.0,31.0,67.0,26.04,10.0,0.0,0.0
3,34.235065000000006,-112.115738,Badger Springs Rd,Mayer,Yavapai,AZ,22.0,14.0,92.0,24.85,10.0,6.0,0.0
2,35.084548999999996,-106.53655800000001,Coronado Fwy E,Albuquerque,Bernalillo,NM,38.0,33.0,55.0,24.78,10.0,7.0,0.0
2,40.390207000000004,-111.575655, Alpine Loop Rd,Provo,Utah,UT,30.0,21.0,69.0,25.31,9.0,10.0,0.0
2,33.385938,-111.828557,Superstition Fwy E,Mesa,Maricopa,AZ,76.0,76.0,21.0,28.86,10.0,7.0,0.0
2,40.60767,-111.90516000000001,I-15 N,Midvale,Salt Lake,UT,30.0,24.0,92.0,25.68,2.0,6.0,0.0
2,32.086301,-110.772843, S Houghton Rd,Tucson,Pima,AZ,61.0,61.0,17.0,27.36,10.0,8.0,0.0
3,40.647186,-111.902351,I-15 N,Salt Lake City,Salt Lake,UT,29.0,29.0,78.0,25.87,10.0,3.0,0.0
2,33.582066,-111.90876000000002,E Shea Blvd,Scottsdale,Maricopa,AZ,55.0,55.0,43.0,28.6,10.0,3.0,0.0
3,39.781063,-105.13620800000001,I-70 W,Wheat Ridge,Jefferson,CO,46.0,43.0,34.0,24.66,10.0,7.0,0.0
2,39.653090999999996,-105.181374,Morrison Rd,Denver,Jefferson,CO,45.0,43.0,29.0,23.94,10.0,5.0,0.0
3,39.24507,-104.87988,I-25 N,Castle Rock,Douglas,CO,57.0,57.0,23.0,23.12,10.0,6.0,0.0
2,40.86571,-115.86726999999999, Sagecrest Dr,Elko,Elko,NV,89.0,89.0,11.0,24.85,10.0,21.0,0.0
2,32.380871,-110.96401200000001,E Linda Vista Blvd,Tucson,Pima,AZ,60.0,60.0,44.0,27.28,10.0,6.0,0.0
2,39.812809,-105.02530700000001,W 64th Ave,Denver,Adams,CO,52.0,52.0,82.0,24.37,10.0,5.0,0.0
2,39.734512,-105.015102,I-25 N,Denver,Denver,CO,32.0,26.0,41.0,24.28,10.0,6.0,0.0
1,32.22119,-110.96706999999999, E Broadway Blvd,Tucson,Pima,AZ,92.0,92.0,20.0,27.15,10.0,0.0,0.0
2,39.676536,-111.32278799999999,UT-31,Fairview,Sanpete,UT,23.0,9.0,53.0,24.34,10.0,18.0,0.0
3,33.381058,-111.967743,I-10 W,Tempe,Maricopa,AZ,52.0,52.0,63.0,28.81,10.0,6.0,0.0
2,32.174969,-110.98526000000001,I-19 N,Tucson,Pima,AZ,66.0,66.0,16.0,27.24,10.0,12.0,0.0
3,40.812637,-111.923851,I-15 S,Salt Lake City,Salt Lake,UT,84.0,84.0,18.0,25.82,10.0,6.0,0.0
2,39.117657,-119.84429899999999,US Highway 50,Carson City,Carson City,NV,39.0,39.0,87.0,25.32,10.0,0.0,0.0
3,41.09864,-115.11096200000001,I-80 W,Wells,Elko,NV,75.0,75.0,22.0,24.9,10.0,5.0,0.0
1,33.56752,-112.18628999999999, W Olive Ave,Glendale,Maricopa,AZ,95.0,95.0,17.0,28.68,6.0,0.0,0.0
2,40.18812,-111.64383000000001, State Route 75,Springville,Utah,UT,41.0,36.0,45.0,25.4,10.0,7.0,0.0
2,32.134318,-110.909575,S Alvernon Way,Tucson,Pima,AZ,82.0,82.0,11.0,27.2,10.0,10.0,0.0
1,33.63811,-112.2203,N 75th Ave,Glendale,Maricopa,AZ,92.0,92.0,14.0,28.3,10.0,13.0,0.0
2,33.567532,-112.151657,N 43rd Ave,Phoenix,Maricopa,AZ,86.0,86.0,11.0,28.36,10.0,0.0,0.0
4,39.816514,-105.221616, Highway 93,Golden,Jefferson,CO,37.0,37.0,70.0,24.85,10.0,3.0,0.0
2,41.152375,-112.02549099999999,I-15 S,Clearfield,Davis,UT,32.0,24.0,69.0,25.31,10.0,9.0,0.0
2,47.45585,-115.695301,I-90 E,Saint Regis,Mineral,MT,29.0,22.0,78.0,23.88,1.0,7.0,0.0
2,32.192226,-110.87513700000001,E Golf Links Rd,Tucson,Pima,AZ,54.0,54.0,35.0,27.17,10.0,6.0,0.0
1,32.3089,-110.90812, E Sunrise Dr,Tucson,Pima,AZ,100.0,100.0,11.0,27.11,10.0,16.0,0.0
2,41.302703,-112.026053,I-15 S,Ogden,Weber,UT,60.0,60.0,23.0,25.7,10.0,0.0,0.0
2,40.99818,-104.90691399999999,I-25 S,Carr,Weld,CO,26.0,11.0,35.0,23.95,10.0,24.0,0.0
2,32.151156,-111.028602,W Vermont St,Tucson,Pima,AZ,64.0,64.0,31.0,27.08,10.0,5.0,0.0
2,40.699909000000005,-111.85404199999999,E 3300 S,Salt Lake City,Salt Lake,UT,62.0,62.0,26.0,25.56,10.0,20.0,0.0
2,32.221668,-110.91806799999999,E Broadway Blvd,Tucson,Pima,AZ,90.0,90.0,11.0,27.01,10.0,8.0,0.0
2,40.90905,-117.322746,I-80 W,Golconda,Humboldt,NV,38.0,29.0,29.0,25.9,10.0,15.0,0.0
2,33.42123,-112.556343,S Watson Rd,Buckeye,Maricopa,AZ,99.0,99.0,6.0,28.82,10.0,10.0,0.0
2,40.634570000000004,-111.82101000000002,I-215 W,Salt Lake City,Salt Lake,UT,33.0,27.0,56.0,26.03,10.0,7.0,0.0
4,33.53008,-112.26902, Dr Martin Luther King Jr Blvd,Glendale,Maricopa,AZ,75.0,75.0,13.0,28.69,10.0,3.0,0.0
2,39.75634,-105.015846,Zuni St,Denver,Denver,CO,32.0,27.0,41.0,24.47,10.0,5.0,0.0
3,40.66372,-105.1884, US Highway 287,Laporte,Larimer,CO,61.0,61.0,62.0,24.98,10.0,8.0,0.0
1,33.49483,-112.20323, N 67th Ave,Phoenix,Maricopa,AZ,73.0,73.0,34.0,28.71,10.0,12.0,0.0
2,39.642189,-104.998337,W Oxford Ave,Englewood,Arapahoe,CO,75.0,75.0,36.0,24.23,10.0,5.0,0.0
1,32.134029999999996,-110.95629, E Valencia Rd,Tucson,Pima,AZ,64.0,64.0,35.0,27.3,10.0,0.0,0.0
2,32.192226,-110.87513700000001,E Golf Links Rd,Tucson,Pima,AZ,99.0,99.0,14.0,27.05,10.0,5.0,0.0
3,41.038311,-111.949417,W 200 N,Kaysville,Davis,UT,77.0,77.0,21.0,25.06,10.0,23.0,0.0
2,32.133722,-111.02885900000001,S Cardinal Ave,Tucson,Pima,AZ,59.0,59.0,22.0,27.11,10.0,5.0,0.0
2,40.760653999999995,-111.91391000000002,W 400 S,Salt Lake City,Salt Lake,UT,60.0,60.0,46.0,25.87,10.0,0.0,0.0
1,32.25105,-110.7395, N Soldier Trl,Tucson,Pima,AZ,82.0,82.0,18.0,27.15,10.0,13.0,0.0
2,33.52383,-111.94315300000001,E McDonald Dr,Paradise Valley,Maricopa,AZ,87.0,87.0,31.0,28.32,10.0,3.0,0.0
3,40.785740000000004,-111.94913500000001,I-215 S,Salt Lake City,Salt Lake,UT,53.0,53.0,41.0,25.75,10.0,5.0,0.0
2,41.205025,-111.994942,Hinkley Dr,Ogden,Weber,UT,46.0,41.0,66.0,25.44,10.0,10.0,0.0
2,41.051520000000004,-111.96048,I-15 S,Layton,Davis,UT,41.0,33.0,43.0,25.35,10.0,16.0,0.0
2,40.634869,-111.90468600000001,I-215 E,Salt Lake City,Salt Lake,UT,29.0,22.0,72.0,25.96,10.0,7.0,0.0
3,33.525959,-111.39086200000001,Apache Trl,Fort McDowell,Maricopa,AZ,98.0,98.0,16.0,28.67,10.0,10.0,0.0
3,39.7802,-104.93225,I-70 W,Denver,Denver,CO,63.0,63.0,9.0,24.33,10.0,25.0,0.0
4,40.246809999999996,-105.10282, N 107th St,Longmont,Boulder,CO,63.0,63.0,31.0,24.75,10.0,6.0,0.0
2,43.597382,-116.34615600000001,I-84 W,Meridian,Ada,ID,59.0,59.0,34.0,27.68,10.0,9.0,0.0
2,40.328407,-111.634598, E Provo Canyon Rd,Provo,Utah,UT,54.0,54.0,33.0,25.81,10.0,15.0,0.0
2,32.250611,-110.91028, E Grant Rd,Tucson,Pima,AZ,52.0,52.0,30.0,27.19,10.0,6.0,0.0
1,32.22153,-110.87528999999999,Craycroft Rd,Tucson,Pima,AZ,54.0,54.0,77.0,26.98,10.0,13.0,0.0
1,32.23616,-110.89256,E Speedway Blvd,Tucson,Pima,AZ,62.0,62.0,34.0,27.12,10.0,12.0,0.0
2,32.148693,-110.977558, S 12th Ave,Tucson,Pima,AZ,73.0,73.0,21.0,27.18,10.0,8.0,0.0
3,40.72443,-111.90841699999999,UT-201 E,West Valley City,Salt Lake,UT,24.0,17.0,77.0,25.86,10.0,6.0,0.0
4,39.62786,-106.42048,I-70 E,Vail,Eagle,CO,16.0,-2.0,71.0,20.55,0.75,22.0,0.02
3,39.450016,-104.875542,E Happy Canyon Rd,Castle Rock,Douglas,CO,33.0,22.0,27.0,24.1,10.0,18.0,0.0
2,40.578759999999996,-111.90033000000001,I-15 S,Sandy,Salt Lake,UT,63.0,63.0,27.0,25.54,10.0,21.0,0.0
2,33.484772,-112.263997,Agua Fria Fwy S,Phoenix,Maricopa,AZ,44.0,40.0,60.0,29.06,10.0,6.0,0.0
1,33.40732,-111.9783,Broadway Rd,Phoenix,Maricopa,AZ,107.0,107.0,7.0,28.52,10.0,9.0,0.0
2,33.28849,-111.755486,S Val Vista Dr,Gilbert,Maricopa,AZ,37.0,33.0,75.0,28.76,10.0,6.0,0.0
2,32.250351,-110.93328100000001,N Forgeus Ave,Tucson,Pima,AZ,77.0,77.0,14.0,27.3,10.0,10.0,0.0
3,39.81286,-104.98305,I-25 N,Denver,Adams,CO,21.0,13.0,93.0,24.62,10.0,7.0,0.0
2,48.363372,-114.21916100000001, Talbot Rd,Columbia Falls,Flathead,MT,31.0,31.0,89.0,27.07,10.0,0.0,0.0
2,32.246334999999995,-110.94416899999999,N Campbell Ave,Tucson,Pima,AZ,75.0,75.0,24.0,27.26,10.0,12.0,0.0
3,39.63221,-105.00871000000001, S Santa Fe Dr,Englewood,Arapahoe,CO,73.0,73.0,37.0,24.23,10.0,6.0,0.0
2,40.229046999999994,-111.68028400000001,I-15 S,Provo,Utah,UT,18.0,18.0,74.0,25.79,10.0,0.0,0.0
2,38.854597999999996,-110.922393,I-70 W,Green River,Emery,UT,35.0,30.0,78.0,25.34,10.0,6.0,0.0
2,33.285838,-110.359371,US-70 E,San Carlos,Graham,AZ,57.0,57.0,19.0,26.99,10.0,9.0,0.0
4,39.6785,-104.98756000000002, S Broadway,Denver,Denver,CO,23.0,12.0,85.0,24.28,4.0,10.0,0.0
2,33.565552000000004,-112.298523,N 111th Ave,Peoria,Maricopa,AZ,59.0,59.0,37.0,28.9,10.0,6.0,0.0
1,33.480470000000004,-112.00421000000001, N 36th St,Phoenix,Maricopa,AZ,83.0,83.0,14.0,28.52,10.0,10.0,0.0
1,32.199729999999995,-110.89231000000001,E 29th St,Tucson,Pima,AZ,87.0,87.0,8.0,27.06,10.0,6.0,0.0
2,39.768801,-105.447882, Clear Creek Street,Golden,Gilpin,CO,27.0,20.0,86.0,24.81,10.0,6.0,0.0
2,43.598828999999995,-116.519526,I-84 E,Nampa,Canyon,ID,59.0,59.0,100.0,27.31,9.0,5.0,0.0
1,32.13432,-110.89048999999999,E Valencia Rd,Tucson,Pima,AZ,56.0,56.0,23.0,27.15,10.0,6.0,0.0
2,40.69359,-111.90287,I-15 S,Salt Lake City,Salt Lake,UT,55.0,55.0,35.0,25.76,10.0,16.0,0.0
3,39.780117,-104.939384,I-70 W,Denver,Denver,CO,28.0,23.0,31.0,24.6,10.0,5.0,0.0
1,33.62518,-112.18573,W Greenway Rd,Glendale,Maricopa,AZ,97.0,97.0,18.0,28.36,10.0,6.0,0.0
1,33.64027,-112.05686999999999,N 12th St,Phoenix,Maricopa,AZ,94.0,94.0,14.0,28.19,10.0,12.0,0.0
3,39.7281,-105.013985,US-6 E,Denver,Denver,CO,82.0,82.0,26.0,24.46,10.0,8.0,0.0
2,34.241176,-112.111798,Arizona Veterans Highway,Mayer,Yavapai,AZ,53.0,53.0,47.0,25.04,10.0,3.0,0.0
2,40.6208,-111.88575700000001,Fort Union Blvd,Midvale,Salt Lake,UT,62.0,62.0,24.0,25.86,10.0,0.0,0.0
2,33.471321,-111.88826399999999,Pima Fwy S,Scottsdale,Maricopa,AZ,51.0,51.0,43.0,28.9,10.0,7.0,0.0
2,40.810894,-111.923111,Warm Springs Rd,Salt Lake City,Salt Lake,UT,21.0,13.0,88.0,25.65,10.0,6.0,0.0
2,39.79919,-104.95029, Brighton Blvd,Commerce City,Adams,CO,67.0,67.0,16.0,24.49,10.0,14.0,0.0
1,32.228809999999996,-110.8924, N Swan Rd,Tucson,Pima,AZ,62.0,62.0,29.0,27.23,10.0,5.0,0.0
2,38.910513,-119.77903500000001, Centerville Ln,Gardnerville,Douglas,NV,34.0,25.0,92.0,23.76,2.0,13.0,0.1
1,40.65406,-112.07611000000001, Highway 111,Magna,Salt Lake,UT,51.0,51.0,21.0,25.61,10.0,8.0,0.0
3,38.804829999999995,-104.75749, S Academy Blvd,Colorado Springs,El Paso,CO,35.0,30.0,92.0,23.74,2.0,6.0,0.0
2,38.89743,-104.81826,N Nevada Ave,Colorado Springs,El Paso,CO,33.0,33.0,51.0,23.56,10.0,3.0,0.0
3,39.90625,-104.82995,I-76 W,Brighton,Adams,CO,85.0,85.0,20.0,24.36,10.0,7.0,0.0
2,34.263904,-111.22148700000001, Quail Run Rd,Payson,Gila,AZ,36.0,36.0,48.0,24.83,10.0,0.0,0.0
2,35.079643,-106.603256,Hermosa Dr NE,Albuquerque,Bernalillo,NM,84.0,84.0,14.0,24.72,10.0,12.0,0.0
1,32.19216,-110.87506, S Craycroft Rd,Tucson,Pima,AZ,102.0,102.0,9.0,27.06,9.0,8.0,0.0
2,32.260635,-110.98656000000001, N Fairview Ave,Tucson,Pima,AZ,46.0,42.0,22.0,27.32,10.0,8.0,0.0
2,39.794472,-104.956772,York St,Commerce City,Adams,CO,44.0,37.0,30.0,24.35,10.0,16.0,0.0
3,39.777473,-104.88456699999999,I-70 W,Denver,Denver,CO,61.0,61.0,19.0,23.96,10.0,20.0,0.0
2,35.16843,-114.58068100000001,Laughlin Civic Dr,Laughlin,Clark,NV,102.0,102.0,6.0,28.95,10.0,8.0,0.0
2,32.268459,-110.84101499999998,N Sabino Canyon Rd,Tucson,Pima,AZ,55.0,55.0,25.0,27.35,10.0,14.0,0.0
1,32.221509999999995,-110.9097, S Alvernon Way,Tucson,Pima,AZ,103.0,103.0,8.0,27.09,10.0,15.0,0.0
3,35.23642,-111.823006,Hughes Ave,Flagstaff,Coconino,AZ,27.0,27.0,85.0,23.33,10.0,0.0,0.0
2,33.597134000000004,-111.995827,E Cactus Rd,Phoenix,Maricopa,AZ,105.0,105.0,6.0,28.09,10.0,6.0,0.0
4,33.23958,-111.60833999999998,E Rittenhouse Rd,Queen Creek,Maricopa,AZ,55.0,55.0,82.0,28.49,10.0,3.0,0.0
2,39.740109999999994,-104.95881000000001, N Josephine St,Denver,Denver,CO,81.0,81.0,34.0,24.44,10.0,6.0,0.0
1,33.435559999999995,-112.5562,W Yuma Rd,Buckeye,Maricopa,AZ,99.0,99.0,10.0,28.69,10.0,9.0,0.0
2,33.524706,-112.20628400000001, N 68th Dr,Glendale,Maricopa,AZ,72.0,72.0,38.0,28.45,10.0,5.0,0.0
2,32.206478000000004,-110.83238200000001,E 22nd St,Tucson,Pima,AZ,88.0,88.0,11.0,27.09,10.0,17.0,0.0
1,38.80668,-104.82239,S Nevada Ave,Colorado Springs,El Paso,CO,25.0,12.0,78.0,24.12,8.0,16.0,0.0
2,46.746349,-112.02033200000001, N Montana Ave,Helena,Lewis and Clark,MT,24.0,17.0,65.0,26.16,10.0,6.0,0.0
2,33.668873,-112.077919,AZ-101 Loop W,Phoenix,Maricopa,AZ,89.0,89.0,8.0,28.37,10.0,8.0,0.0
2,40.908578999999996,-111.878976, S Main St,Centerville,Davis,UT,34.0,25.0,59.0,25.7,10.0,13.0,0.0
3,39.739639000000004,-104.718864,E-470 S,Aurora,Arapahoe,CO,70.0,70.0,34.0,24.36,10.0,12.0,0.0
2,32.250351,-110.93324299999999, N Forgeus Ave,Tucson,Pima,AZ,59.0,59.0,19.0,27.38,10.0,7.0,0.0
3,39.609867,-104.893547,CO-88 N,Englewood,Arapahoe,CO,58.0,58.0,33.0,24.11,10.0,3.0,0.01
1,33.46581,-111.94361,E McDowell Rd,Phoenix,Maricopa,AZ,102.0,102.0,6.0,28.62,10.0,7.0,0.0
2,38.57443,-109.55077, N Main St,Moab,Grand,UT,29.0,24.0,64.0,25.37,10.0,5.0,0.0
2,40.685612,-112.270645,N Commerce Dr,Tooele,Tooele,UT,35.0,27.0,52.0,25.28,10.0,10.0,0.0
1,33.592459999999996,-112.2551, N 91st Ave,Peoria,Maricopa,AZ,101.0,101.0,5.0,28.57,10.0,5.0,0.0
3,40.4948,-105.07741000000001, W Trilby Rd,Fort Collins,Larimer,CO,94.0,94.0,14.0,25.12,9.0,8.0,0.0
2,40.504372,-112.32060200000001,S Main St,Tooele,Tooele,UT,55.0,55.0,38.0,25.62,10.0,6.0,0.0
2,32.271961,-110.97814199999999,W Prince Rd,Tucson,Pima,AZ,87.0,87.0,7.0,27.06,10.0,3.0,0.0
3,39.61844,-104.89866,CO-88 S,Englewood,Arapahoe,CO,25.0,14.0,88.0,24.19,0.25,13.0,0.01
1,32.20683,-110.87508999999999,E 22nd St,Tucson,Pima,AZ,77.0,77.0,12.0,27.07,10.0,9.0,0.0
2,47.81839,-116.78766, N Highway 95,Rathdrum,Kootenai,ID,57.0,57.0,64.0,27.53,10.0,13.0,0.0
2,32.29724,-110.97823000000001,N Oracle Rd,Tucson,Pima,AZ,94.0,94.0,8.0,27.08,10.0,9.0,0.0
1,33.46585,-112.1, W McDowell Rd,Phoenix,Maricopa,AZ,99.0,99.0,9.0,28.65,10.0,6.0,0.0
2,43.639558,-116.354355, N Eagle Rd,Boise,Ada,ID,31.0,20.0,89.0,27.1,1.0,16.0,0.02
2,39.725559000000004,-105.03407299999999,US-6 E,Denver,Denver,CO,32.0,26.0,48.0,24.39,10.0,7.0,0.0
2,40.836296000000004,-111.91716000000001,I-215 S,North Salt Lake,Davis,UT,39.0,31.0,41.0,26.0,10.0,15.0,0.0
2,33.67302,-111.98857,Pima Fwy W,Phoenix,Maricopa,AZ,99.0,99.0,15.0,27.99,10.0,21.0,0.0
2,40.65319,-111.93879,W 5400 S,Salt Lake City,Salt Lake,UT,42.0,37.0,47.0,25.77,10.0,9.0,0.0
3,39.631386,-104.902832,Technology Way,Denver,Denver,CO,36.0,36.0,64.0,24.17,10.0,0.0,0.0
3,34.0495,-112.14563999999999,Black Canyon Fwy N,Black Canyon City,Yavapai,AZ,101.0,101.0,6.0,28.11,10.0,13.0,0.0
1,33.46585,-112.20336999999999,W McDowell Rd,Phoenix,Maricopa,AZ,91.0,91.0,10.0,28.64,10.0,13.0,0.0
2,32.23595,-110.92751299999999, E Speedway Blvd,Tucson,Pima,AZ,46.0,42.0,29.0,27.24,10.0,7.0,0.0
2,33.54221,-112.184937,N 58th Dr,Glendale,Maricopa,AZ,52.0,52.0,45.0,28.89,10.0,5.0,0.0
2,40.7913,-111.91583,I-15 N,Salt Lake City,Salt Lake,UT,43.0,38.0,58.0,26.1,10.0,9.0,0.0
2,40.752251,-111.93901100000001,S Redwood Rd,Salt Lake City,Salt Lake,UT,85.0,85.0,12.0,25.41,10.0,10.0,0.0
2,41.202751,-112.093048,S 4700 W,West Haven,Weber,UT,89.0,89.0,20.0,25.56,10.0,7.0,0.0
2,39.838421000000004,-105.504028,Juniper Rd,Black Hawk,Gilpin,CO,67.0,67.0,12.0,20.89,9.0,12.0,0.0
2,33.386124,-111.82256299999999,S Mesa Dr,Mesa,Maricopa,AZ,60.0,60.0,25.0,28.67,10.0,0.0,0.0
2,33.596287,-111.89154099999999,E Cactus Rd,Scottsdale,Maricopa,AZ,70.0,70.0,36.0,28.43,10.0,3.0,0.0
2,42.946082000000004,-115.42048500000001,I-84 W,Hammett,Elmore,ID,47.0,41.0,100.0,26.83,10.0,13.0,0.0
2,41.173398999999996,-112.013926, W Riverdale Rd,Ogden,Weber,UT,36.0,30.0,73.0,25.38,10.0,7.0,0.0
2,32.264809,-110.96188799999999, E Fort Lowell Rd,Tucson,Pima,AZ,52.0,52.0,24.0,27.26,10.0,5.0,0.0
2,38.894619,-104.714691,Tutt Blvd,Colorado Springs,El Paso,CO,88.0,88.0,18.0,23.96,10.0,10.0,0.0
2,33.386672999999995,-111.894348,S Siesta Ln,Tempe,Maricopa,AZ,90.0,90.0,12.0,28.73,10.0,6.0,0.0
2,33.799177,-111.92728100000001, E Carefree Way,Scottsdale,Maricopa,AZ,75.0,75.0,33.0,28.04,10.0,9.0,0.0
3,39.631386,-104.902832,Technology Way,Denver,Denver,CO,46.0,42.0,28.0,24.44,10.0,8.0,0.0
2,41.248995,-112.016783,I-15 N,Ogden,Weber,UT,77.0,77.0,9.0,25.51,10.0,8.0,0.0
2,39.614079,-119.84893000000001,Sky Vista Pkwy,Reno,Washoe,NV,57.0,57.0,51.0,25.02,7.0,6.0,0.0
2,32.355179,-110.518578,Redington Rd,Benson,Pima,AZ,59.0,59.0,15.0,25.37,8.0,6.0,0.0
3,39.538639,-119.786842,E 9th St,Reno,Washoe,NV,36.0,25.0,73.0,25.6,10.0,22.0,0.0
2,39.485291,-118.83659399999999,York Ln,Fallon,Churchill,NV,65.0,65.0,26.0,26.0,10.0,13.0,0.0
2,45.671022,-111.126053,Huffine Ln,Bozeman,Gallatin,MT,20.0,20.0,85.0,25.61,10.0,0.0,0.0
2,32.228859,-110.90116100000002,N Columbus Blvd,Tucson,Pima,AZ,89.0,89.0,16.0,27.05,10.0,9.0,0.0
2,33.461765,-112.061062,I-10 E,Phoenix,Maricopa,AZ,57.0,57.0,22.0,28.91,10.0,0.0,0.0
2,45.662495,-108.769644,I-90 E,Laurel,Yellowstone,MT,23.0,23.0,78.0,26.34,10.0,0.0,0.0
2,40.72096,-111.986208,Bangerter Hwy,West Valley City,Salt Lake,UT,81.0,81.0,16.0,25.72,10.0,16.0,0.0
2,32.250305,-110.988403,N Flowing Wells Rd,Tucson,Pima,AZ,86.0,86.0,6.0,27.08,10.0,10.0,0.0
2,33.432189,-112.081478, W Cocopah St,Phoenix,Maricopa,AZ,46.0,46.0,61.0,28.86,10.0,0.0,0.0
2,32.168521999999996,-110.980713,W Illinois St,Tucson,Pima,AZ,82.0,82.0,14.0,27.05,10.0,16.0,0.0
2,33.406738,-112.090523,W Broadway Rd,Phoenix,Maricopa,AZ,95.0,95.0,11.0,28.71,10.0,3.0,0.0
2,40.725864,-111.986282,UT-201 W,West Valley City,Salt Lake,UT,90.0,90.0,15.0,25.7,10.0,10.0,0.0
1,32.27196,-110.97806000000001, N Oracle Rd,Tucson,Pima,AZ,65.0,65.0,23.0,27.32,10.0,0.0,0.0
2,40.317032,-109.23709099999999,US-40 E,Vernal,Uintah,UT,61.0,61.0,38.0,24.71,10.0,9.0,0.0
2,32.134135,-110.96957900000001, W Valencia Rd,Tucson,Pima,AZ,81.0,81.0,20.0,27.21,10.0,7.0,0.0
2,40.70381,-112.0249, W 3100 S,West Valley City,Salt Lake,UT,34.0,28.0,64.0,25.84,10.0,7.0,0.0
2,33.459559999999996,-112.065201,N 7th St,Phoenix,Maricopa,AZ,43.0,39.0,22.0,28.91,10.0,6.0,0.0
2,33.378437,-111.89306599999999,AZ-101 Loop N,Tempe,Maricopa,AZ,49.0,49.0,90.0,28.9,10.0,3.0,0.0
2,32.221439000000004,-110.943954,N Campbell Ave,Tucson,Pima,AZ,87.0,87.0,21.0,27.15,10.0,6.0,0.0
1,33.53838,-112.0825, N 7th Ave,Phoenix,Maricopa,AZ,94.0,94.0,12.0,28.55,10.0,9.0,0.0
2,39.689213,-104.97121399999999,E Florida Ave,Denver,Denver,CO,21.0,21.0,81.0,24.42,10.0,3.0,0.0
3,39.7281,-105.013985,US-6 E,Denver,Denver,CO,59.0,59.0,11.0,24.63,10.0,0.0,0.0
2,47.526639,-111.39949299999999, Vaughn South Frontage Rd,Great Falls,Cascade,MT,40.0,29.0,51.0,25.55,10.0,24.0,0.0
3,33.462074,-112.46179199999999,I-10 E,Buckeye,Maricopa,AZ,57.0,57.0,23.0,28.92,9.0,0.0,0.0
2,40.634570000000004,-111.82101000000002,I-215 W,Salt Lake City,Salt Lake,UT,56.0,56.0,87.0,25.54,5.0,10.0,0.22
2,32.17792,-110.95188, E Ajo Way,Tucson,Pima,AZ,101.0,101.0,8.0,27.05,10.0,10.0,0.0
2,40.76312,-111.98700000000001,Bangerter Hwy,Salt Lake City,Salt Lake,UT,58.0,58.0,24.0,25.92,10.0,5.0,0.0
3,35.105270000000004,-106.60508,Coronado Fwy W,Albuquerque,Bernalillo,NM,86.0,86.0,18.0,24.67,10.0,0.0,0.0
2,33.495521999999994,-112.11296100000001,Black Canyon Fwy N,Phoenix,Maricopa,AZ,71.0,71.0,28.0,28.75,10.0,6.0,0.0
2,33.659952000000004,-111.99993899999998,Piestewa Fwy S,Phoenix,Maricopa,AZ,58.0,58.0,33.0,28.36,10.0,9.0,0.0
2,33.446201,-112.18654599999999,S 59th Ave,Phoenix,Maricopa,AZ,68.0,68.0,26.0,28.7,10.0,15.0,0.0
2,33.408417,-111.891319,AZ-101 Loop S,Tempe,Maricopa,AZ,58.0,58.0,35.0,29.06,10.0,3.0,0.0
3,33.462092999999996,-112.04994199999999,I-10 W,Phoenix,Maricopa,AZ,82.0,82.0,12.0,28.76,10.0,0.0,0.0
2,40.17618,-111.64676999999999,I-15 S,Springville,Utah,UT,33.0,25.0,50.0,25.66,10.0,9.0,0.0
1,33.67501,-111.89051,N Pima Rd,Scottsdale,Maricopa,AZ,98.0,98.0,12.0,28.05,10.0,7.0,0.0
3,40.631901,-111.88998400000001,I-215 E,Salt Lake City,Salt Lake,UT,27.0,22.0,78.0,25.89,10.0,5.0,0.0
2,38.832378000000006,-104.819939,S Weber St,Colorado Springs,El Paso,CO,78.0,78.0,25.0,24.19,10.0,16.0,0.0
2,33.378009999999996,-112.01280200000001,E Baseline Rd,Phoenix,Maricopa,AZ,72.0,72.0,27.0,28.62,10.0,3.0,0.0
2,45.671059,-111.134666, Huffine Ln,Bozeman,Gallatin,MT,26.0,26.0,66.0,25.75,10.0,0.0,0.0
2,39.95055,-112.020973,E Main St,Cedar Valley,Utah,UT,29.0,24.0,67.0,25.73,10.0,5.0,0.0
1,32.2952,-110.961,N 1st Ave,Tucson,Pima,AZ,80.0,80.0,11.0,27.13,10.0,14.0,0.0
1,32.23601,-110.95951000000001, N Euclid Ave,Tucson,Pima,AZ,79.0,79.0,8.0,27.13,10.0,8.0,0.0
2,42.575916,-114.157959,I-84 E,Hazelton,Jerome,ID,24.0,17.0,84.0,25.93,10.0,6.0,0.0
3,39.79817,-104.93113999999998,I-270 E,Commerce City,Adams,CO,82.0,82.0,25.0,24.49,10.0,8.0,0.0
2,40.837286,-111.91561100000001,I-15 S,North Salt Lake,Davis,UT,24.0,15.0,81.0,26.03,10.0,8.0,0.0
2,47.86096,-112.26161200000001, US Highway 89,Choteau,Teton,MT,42.0,32.0,40.0,26.0,10.0,25.0,0.0
3,39.51696,-119.63281299999998,Interstate 80 E,Sparks,Washoe,NV,75.0,75.0,12.0,25.62,10.0,3.0,0.0
3,40.718895,-111.87074299999999,I-80 W,Salt Lake City,Salt Lake,UT,52.0,52.0,61.0,25.58,10.0,12.0,0.01
4,38.87143,-104.71993, N Powers Blvd,Colorado Springs,El Paso,CO,42.0,39.0,47.0,24.17,10.0,5.0,0.0
1,33.611090000000004,-112.0996,N 19th Ave,Phoenix,Maricopa,AZ,95.0,95.0,17.0,28.19,10.0,8.0,0.0
2,43.604848,-116.306849, W Franklin Rd,Boise,Ada,ID,39.0,33.0,70.0,27.01,10.0,9.0,0.0
2,48.254707,-114.417198, Farm To Market Rd,Kalispell,Flathead,MT,33.0,26.0,82.0,26.45,10.0,8.0,0.0
2,33.700649,-112.122047,W Pinnacle Peak Rd,Phoenix,Maricopa,AZ,42.0,42.0,62.0,28.4,10.0,3.0,0.0
2,40.637775,-111.808998,E 6200 S,Salt Lake City,Salt Lake,UT,31.0,20.0,92.0,25.7,1.0,16.0,0.0
1,32.140679999999996,-110.77253,E Bilby Rd,Tucson,Pima,AZ,85.0,85.0,12.0,27.19,10.0,3.0,0.0
2,41.08912,-112.00703,N 2200 West St,Clearfield,Davis,UT,63.0,63.0,20.0,25.15,10.0,10.0,0.0
2,39.760738,-104.960968,N Gaylord St,Denver,Denver,CO,28.0,20.0,53.0,24.02,10.0,7.0,0.0
2,39.711357,-105.08138999999998,S Wadsworth Blvd,Denver,Jefferson,CO,93.0,93.0,14.0,24.61,10.0,10.0,0.0
3,40.587475,-111.90068799999999,I-15 S,Sandy,Salt Lake,UT,77.0,77.0,42.0,25.65,10.0,3.0,0.0
2,33.655079,-112.022186,N 28th St,Phoenix,Maricopa,AZ,47.0,47.0,61.0,28.27,10.0,0.0,0.0
1,33.46585,-112.1, W McDowell Rd,Phoenix,Maricopa,AZ,80.0,80.0,11.0,28.6,10.0,3.0,0.0
2,37.57721,-112.8675,Cedar Cyn,Cedar City,Iron,UT,34.0,27.0,100.0,24.33,4.0,8.0,0.04
2,33.388191,-111.939507,S Mill Ave,Tempe,Maricopa,AZ,102.0,102.0,7.0,28.71,10.0,3.0,0.0
2,40.64983,-111.90236000000002,I-15 S,Salt Lake City,Salt Lake,UT,70.0,70.0,29.0,25.56,10.0,8.0,0.0
2,40.66045,-111.90117,I-15 N,Salt Lake City,Salt Lake,UT,39.0,29.0,50.0,25.49,10.0,22.0,0.0
2,33.741131,-111.978149,N Tatum Blvd,Cave Creek,Maricopa,AZ,74.0,74.0,82.0,28.24,10.0,0.0,0.0
3,38.88153,-104.83584,I-25 N,Colorado Springs,El Paso,CO,68.0,68.0,26.0,23.64,10.0,9.0,0.0
2,33.385509000000006,-111.920675,Superstition Fwy E,Tempe,Maricopa,AZ,77.0,77.0,24.0,28.58,10.0,6.0,0.0
3,39.848122,-104.98530600000001,I-25 N,Denver,Adams,CO,57.0,57.0,21.0,24.54,10.0,8.0,0.0
3,39.777245,-104.882698,I-70 W,Denver,Denver,CO,34.0,29.0,31.0,24.52,10.0,5.0,0.0
2,39.720009000000005,-105.025154,Federal Blvd,Denver,Denver,CO,18.0,10.0,52.0,24.39,10.0,6.0,0.0
2,37.71072,-113.069,I-15 S,Cedar City,Iron,UT,45.0,37.0,52.0,24.37,10.0,22.0,0.0
2,35.18977,-106.68415800000001,Paradise Blvd NW,Albuquerque,Bernalillo,NM,25.0,19.0,69.0,24.27,10.0,5.0,0.0
2,39.77919,-104.97908999999999,Washington St,Denver,Denver,CO,54.0,54.0,33.0,24.3,10.0,6.0,0.0
2,33.337151,-111.944998, W Bolero Dr,Tempe,Maricopa,AZ,42.0,42.0,65.0,28.98,10.0,3.0,0.0
2,32.133765999999994,-111.037361,S Camino de la Tierra,Tucson,Pima,AZ,75.0,75.0,10.0,27.09,10.0,3.0,0.0
2,43.61381,-116.60205500000001,I-84 E,Nampa,Canyon,ID,43.0,38.0,39.0,27.41,10.0,8.0,0.0
3,40.630013,-111.86376200000001,I-215 E,Midvale,Salt Lake,UT,87.0,87.0,26.0,25.65,10.0,13.0,0.0
2,35.091201,-106.553789,Coronado Fwy E,Albuquerque,Bernalillo,NM,28.0,23.0,51.0,24.9,10.0,5.0,0.0
2,39.725468,-105.024033,US-6 E,Denver,Denver,CO,27.0,16.0,100.0,24.37,1.0,12.0,0.0
2,40.476603999999995,-104.99201399999998,I-25 S,Fort Collins,Larimer,CO,49.0,49.0,74.0,25.03,10.0,0.0,0.0
2,33.494865999999995,-112.118954,N 28th Ave,Phoenix,Maricopa,AZ,52.0,52.0,47.0,28.93,9.0,0.0,0.0
2,32.220923,-110.84108300000001, S Kolb Rd,Tucson,Pima,AZ,54.0,54.0,37.0,27.2,10.0,3.0,0.0
3,39.784206,-105.02499399999999,Federal Blvd,Denver,Denver,CO,82.0,82.0,16.0,24.26,10.0,20.0,0.0
2,40.72096,-111.986208,Bangerter Hwy,West Valley City,Salt Lake,UT,38.0,34.0,44.0,25.87,10.0,5.0,0.0
3,39.867153,-104.987541,I-25 N,Denver,Adams,CO,90.0,90.0,16.0,24.37,10.0,9.0,0.0
2,33.463572,-112.18649199999999,N 59th Ave,Phoenix,Maricopa,AZ,60.0,60.0,39.0,28.89,10.0,0.0,0.0
2,33.462778,-112.226897,I-10 W,Phoenix,Maricopa,AZ,55.0,55.0,73.0,28.78,10.0,3.0,0.0
1,33.53137,-112.18626, W Maryland Ave,Glendale,Maricopa,AZ,43.0,39.0,74.0,28.98,10.0,7.0,0.0
2,33.461647,-112.14371200000001,I-10 E,Phoenix,Maricopa,AZ,58.0,58.0,21.0,28.66,10.0,0.0,0.0
2,33.959742999999996,-111.399978,Beeline Hwy,Tonto Basin,Gila,AZ,64.0,64.0,14.0,25.02,10.0,9.0,0.0
2,39.787040999999995,-104.885231,E 49th Pl,Denver,Denver,CO,59.0,59.0,87.0,24.44,10.0,7.0,0.0
1,33.647729999999996,-112.03086, E Grovers Ave,Phoenix,Maricopa,AZ,54.0,54.0,40.0,28.53,10.0,7.0,0.0
2,40.902802,-102.517448,I-76 W,Sedgwick,Sedgwick,CO,86.0,86.0,26.0,25.58,10.0,7.0,0.01
2,32.351822,-110.97498300000001,N Oracle Rd,Tucson,Pima,AZ,70.0,70.0,18.0,27.17,10.0,6.0,0.0
2,39.738312,-104.942879,N Jackson St,Denver,Denver,CO,50.0,46.0,36.0,24.28,10.0,9.0,0.0
2,46.543890000000005,-111.946552,I-15 S,Clancy,Jefferson,MT,24.0,16.0,69.0,26.26,10.0,7.0,0.0
2,40.504002,-111.891144,I-15 N,Draper,Salt Lake,UT,71.0,71.0,32.0,25.67,10.0,13.0,0.0
3,39.471531,-104.872231,I-25 N,Parker,Douglas,CO,83.0,83.0,8.0,24.14,10.0,13.0,0.0
4,32.29424,-111.02696, N Davis Ave,Tucson,Pima,AZ,79.0,79.0,47.0,27.08,10.0,14.0,0.0
2,39.173049,-108.29371200000001,I-70 W,Mesa,Mesa,CO,19.0,19.0,65.0,25.33,10.0,3.0,0.0
2,39.518974,-119.78280600000001,Martin Luther King Jr Memorial Fwy,Reno,Washoe,NV,90.0,90.0,19.0,25.46,4.0,16.0,0.0
1,32.35179,-110.97478000000001, N Oracle Rd,Tucson,Pima,AZ,86.0,86.0,20.0,27.13,10.0,12.0,0.0
2,40.667648,-111.938797,S Redwood Rd,Salt Lake City,Salt Lake,UT,84.0,84.0,22.0,25.73,10.0,17.0,0.0
2,40.72226,-115.59081299999998,Lamoille Hwy,Spring Creek,Elko,NV,64.0,64.0,27.0,24.93,10.0,0.0,0.0
2,33.462553,-112.067439,I-10 W,Phoenix,Maricopa,AZ,50.0,50.0,50.0,29.03,10.0,5.0,0.0
3,33.385139,-111.967171,S Arizona Mills Cir,Tempe,Maricopa,AZ,84.0,84.0,14.0,28.79,10.0,5.0,0.0
2,39.676655,-104.903595,S Quebec St,Denver,Denver,CO,79.0,79.0,25.0,24.43,10.0,7.0,0.0
3,33.465252,-112.10965,Black Canyon Fwy S,Phoenix,Maricopa,AZ,95.0,95.0,29.0,28.58,10.0,8.0,0.0
3,33.462092999999996,-112.04994199999999,I-10 W,Phoenix,Maricopa,AZ,101.0,101.0,24.0,28.62,10.0,13.0,0.0
3,40.431934000000005,-111.891319,I-15 N,Lehi,Utah,UT,68.0,68.0,73.0,25.55,10.0,15.0,0.02
2,32.133990999999995,-110.977791,W Valencia Rd,Tucson,Pima,AZ,99.0,99.0,13.0,27.12,10.0,9.0,0.0
2,40.233124,-111.68321200000001,W Center St,Provo,Utah,UT,59.0,59.0,46.0,25.7,10.0,3.0,0.0
3,40.38731,-104.99323999999999,US-87 N,Johnstown,Larimer,CO,55.0,55.0,59.0,25.16,10.0,3.0,0.0
2,46.710468,-113.33251499999999,Interstate 90,Drummond,Granite,MT,17.0,10.0,100.0,26.86,6.0,5.0,0.0
1,40.70391,-111.96756, W 3100 S,West Valley City,Salt Lake,UT,57.0,57.0,42.0,25.89,10.0,9.0,0.0
2,34.27216,-112.72724199999999,W Hays Ranch Rd,Kirkland,Yavapai,AZ,65.0,65.0,19.0,24.97,10.0,5.0,0.0
2,46.868014,-113.94565800000001,I-90 W,Missoula,Missoula,MT,24.0,24.0,88.0,26.8,10.0,3.0,0.0
2,39.72541,-105.05333700000001,Sheridan Blvd,Denver,Denver,CO,30.0,24.0,44.0,24.27,60.0,6.0,0.0
2,33.480494,-112.093567, N 16th Ave,Phoenix,Maricopa,AZ,92.0,92.0,15.0,28.68,10.0,0.0,0.0
2,40.69659,-111.95815,Constitution Blvd,West Valley City,Salt Lake,UT,46.0,39.0,89.0,25.73,6.0,16.0,0.08
1,32.264959999999995,-110.90985, N Alvernon Way,Tucson,Pima,AZ,104.0,104.0,5.0,27.07,10.0,13.0,0.0
2,33.461633,-112.148098,I-10 E,Phoenix,Maricopa,AZ,49.0,49.0,54.0,28.86,10.0,0.0,0.0
2,32.235951,-110.95948899999999, N Euclid Ave,Tucson,Pima,AZ,67.0,67.0,37.0,27.32,10.0,5.0,0.0
2,40.297191999999995,-111.72448,W Center St,Orem,Utah,UT,39.0,39.0,67.0,25.42,10.0,0.0,0.0
3,33.348808,-111.971802,I-10 W,Tempe,Maricopa,AZ,38.0,32.0,38.0,28.88,10.0,8.0,0.0
1,39.65309,-104.88478, E Hampden Ave,Denver,Denver,CO,62.0,62.0,29.0,24.1,10.0,5.0,0.0
1,33.63807,-112.25282, N 91st Ave,Peoria,Maricopa,AZ,99.0,99.0,7.0,28.59,10.0,15.0,0.0
2,39.306255,-119.82515,US Highway 395 N,Washoe Valley,Washoe,NV,75.0,75.0,21.0,25.37,10.0,13.0,0.0
1,32.27227,-110.93525, N Tucson Blvd,Tucson,Pima,AZ,54.0,54.0,77.0,26.98,10.0,13.0,0.0
2,39.49449,-111.56331599999999,S 400 E,Mount Pleasant,Sanpete,UT,29.0,20.0,67.0,24.05,10.0,10.0,0.0
2,40.6443,-111.92928,I-215 W,Salt Lake City,Salt Lake,UT,46.0,43.0,89.0,25.56,10.0,6.0,0.04
2,33.610794,-112.164158, N 49th Ave,Glendale,Maricopa,AZ,63.0,63.0,25.0,28.37,10.0,0.0,0.0
2,33.426944,-112.03161100000001,I-10 W,Phoenix,Maricopa,AZ,64.0,64.0,16.0,28.78,10.0,5.0,0.0
2,32.898033,-109.26983700000001,Coronado Blvd,Duncan,Greenlee,AZ,37.0,37.0,36.0,26.78,10.0,3.0,0.0
2,33.644588,-111.89153300000001,AZ-101 Loop N,Scottsdale,Maricopa,AZ,48.0,48.0,89.0,28.38,10.0,0.0,0.0
2,45.853784000000005,-109.93954599999999, Howie Rd,Big Timber,Sweet Grass,MT,40.0,29.0,27.0,25.54,10.0,25.0,0.0
2,40.714355,-112.241274,I-80 W,Grantsville,Tooele,UT,34.0,34.0,48.0,25.56,10.0,0.0,0.0
2,40.351861,-111.731642, W 700 N,Lindon,Utah,UT,33.0,23.0,66.0,25.57,10.0,15.0,0.0
2,39.638659999999994,-105.12863200000001,W Quincy Ave,Denver,Jefferson,CO,20.0,11.0,85.0,24.39,10.0,7.0,0.0
2,32.206817,-110.9654, E 22nd St,Tucson,Pima,AZ,93.0,93.0,13.0,27.26,10.0,13.0,0.0
1,33.40791,-111.80532, E Broadway Rd,Mesa,Maricopa,AZ,78.0,78.0,19.0,28.55,10.0,7.0,0.0
1,32.22779,-110.95946, N Euclid Ave,Tucson,Pima,AZ,76.0,76.0,8.0,27.17,10.0,6.0,0.0
2,37.05417,-111.63395, E Highway 89,Kanab,Kane,UT,57.0,57.0,55.0,24.91,10.0,18.0,0.0
2,39.816094,-104.954334,I-270 E,Denver,Adams,CO,61.0,61.0,17.0,24.63,10.0,6.0,0.0
2,40.595490000000005,-104.98206299999998,E Vine Dr,Fort Collins,Larimer,CO,27.0,27.0,93.0,24.8,8.0,0.0,0.0
3,39.787440999999994,-105.02519199999999,W 50th Ave,Denver,Denver,CO,36.0,31.0,35.0,24.36,50.0,6.0,0.0
3,39.975821999999994,-111.772453,I-15 S,Santaquin,Utah,UT,48.0,48.0,36.0,25.69,10.0,0.0,0.0
1,32.294259999999994,-111.04368999999998,W El Camino del Cerro,Tucson,Pima,AZ,81.0,81.0,39.0,27.08,10.0,14.0,0.0
3,39.779652,-104.959129,York St,Denver,Denver,CO,70.0,70.0,16.0,24.26,10.0,5.0,0.0
2,43.661559000000004,-116.433573, N Ten Mile Rd,Meridian,Ada,ID,55.0,55.0,58.0,27.34,10.0,0.0,0.0
2,32.236012,-110.926826,E Speedway Blvd,Tucson,Pima,AZ,94.0,94.0,19.0,27.1,10.0,0.0,0.0
2,43.872949,-116.95453, Anderson Corner Rd,Parma,Payette,ID,64.0,64.0,27.0,27.64,10.0,6.0,0.0
2,39.550703000000006,-119.82389599999999, N McCarran Blvd,Reno,Washoe,NV,51.0,51.0,41.0,25.62,10.0,3.0,0.0
1,33.31521,-112.01471000000001, E Ray Rd,Phoenix,Maricopa,AZ,86.0,86.0,13.0,28.64,10.0,6.0,0.0
2,32.322618,-110.97470200000001, N Oracle Rd,Tucson,Pima,AZ,81.0,81.0,25.0,27.18,10.0,0.0,0.0
2,32.192226,-110.87513700000001,E Golf Links Rd,Tucson,Pima,AZ,84.0,84.0,9.0,27.1,10.0,9.0,0.0
2,33.45945,-112.0076,AZ-202 Loop W,Phoenix,Maricopa,AZ,94.0,94.0,12.0,28.6,10.0,8.0,0.0
1,32.177859999999995,-110.94707, E Ajo Way,Tucson,Pima,AZ,85.0,85.0,12.0,27.15,10.0,10.0,0.0
1,32.25789,-110.9098, E Glenn St,Tucson,Pima,AZ,81.0,81.0,19.0,27.16,10.0,6.0,0.0
2,33.261033000000005,-111.34466499999999, E US Highway 60,Gold Canyon,Pinal,AZ,75.0,75.0,18.0,28.32,10.0,13.0,0.0
2,33.611561,-111.971741,E Thunderbird Rd,Scottsdale,Maricopa,AZ,73.0,73.0,26.0,28.26,10.0,3.0,0.0
2,39.63856,-104.71635, S Gun Club Rd,Aurora,Arapahoe,CO,62.0,62.0,28.0,24.44,10.0,18.0,0.0
2,33.669309999999996,-112.060849,AZ-101 Loop W,Phoenix,Maricopa,AZ,82.0,82.0,14.0,28.14,10.0,0.0,0.0
3,33.462795,-112.166458,I-10 W,Phoenix,Maricopa,AZ,109.0,109.0,6.0,28.54,10.0,12.0,0.0
2,33.107439,-112.025774,AZ-347,Maricopa,Pinal,AZ,85.0,85.0,26.0,28.32,10.0,5.0,0.0
2,33.462971,-112.195054,I-10 W,Phoenix,Maricopa,AZ,78.0,78.0,27.0,28.83,10.0,0.0,0.0
1,33.49487,-111.89171999999999, N Pima Rd,Scottsdale,Maricopa,AZ,88.0,88.0,15.0,28.72,10.0,6.0,0.0
1,32.13394,-110.96149,E Valencia Rd,Tucson,Pima,AZ,53.0,53.0,30.0,27.33,10.0,5.0,0.0
2,39.658619,-104.8433,I-225 S,Aurora,Arapahoe,CO,26.0,12.0,50.0,24.51,10.0,21.0,0.0
2,33.3866,-111.719559,S Higley Rd,Mesa,Maricopa,AZ,89.0,89.0,9.0,28.63,10.0,0.0,0.0
2,32.191889,-110.84863600000001, E Golf Links Rd,Tucson,Pima,AZ,45.0,40.0,39.0,27.36,10.0,9.0,0.0
2,32.39271,-111.029973, W Gymkhana Way,Tucson,Pima,AZ,57.0,57.0,27.0,27.23,10.0,9.0,0.0
1,32.1851,-110.94431999999999,E Duvall Vis,Tucson,Pima,AZ,73.0,73.0,15.0,27.19,10.0,0.0,0.0
2,32.206936,-110.875092,S Craycroft Rd,Tucson,Pima,AZ,78.0,78.0,22.0,27.12,10.0,0.0,0.0
2,39.487499,-104.90231299999999,Monarch Blvd,Castle Rock,Douglas,CO,84.0,84.0,19.0,24.28,10.0,6.0,0.0
3,39.78349,-105.0534,I-70 E,Denver,Jefferson,CO,75.0,75.0,19.0,24.54,10.0,14.0,0.0
2,39.775242,-104.926979,Smith Rd,Denver,Denver,CO,66.0,66.0,32.0,24.63,10.0,7.0,0.0
2,34.24065,-111.32298999999999, N Beeline Hwy,Payson,Gila,AZ,41.0,41.0,45.0,24.85,10.0,0.0,0.0
2,40.88586,-111.89675,I-15 S,Woods Cross,Davis,UT,37.0,31.0,52.0,25.82,10.0,8.0,0.0
2,40.507932000000004,-111.890999,I-15 N,Draper,Salt Lake,UT,40.0,36.0,63.0,26.01,10.0,6.0,0.0
2,43.611521,-116.354752, N Eagle Rd,Meridian,Ada,ID,39.0,39.0,61.0,27.43,10.0,0.0,0.0
2,33.429508,-112.099869,S 19th Ave,Phoenix,Maricopa,AZ,107.0,107.0,7.0,28.6,10.0,13.0,0.0
2,35.008789,-111.73728200000001,N State Route 89A,Sedona,Coconino,AZ,93.0,93.0,17.0,24.94,10.0,0.0,0.0
2,40.637775,-111.808998,E 6200 S,Salt Lake City,Salt Lake,UT,28.0,22.0,78.0,25.85,10.0,6.0,0.0
2,47.067653,-113.218525, Upsata Lake Rd,Ovando,Powell,MT,33.0,33.0,96.0,26.76,8.0,3.0,0.0
2,33.462169,-112.04438200000001,I-10 W,Phoenix,Maricopa,AZ,71.0,71.0,20.0,28.78,10.0,5.0,0.0
3,39.564049,-104.87196399999999,I-25 S,Englewood,Douglas,CO,62.0,62.0,32.0,24.4,10.0,9.0,0.0
4,38.80876,-104.7413,E Fountain Blvd,Colorado Springs,El Paso,CO,52.0,52.0,20.0,23.72,10.0,15.0,0.0
2,37.176521,-113.30056,W State St,Hurricane,Washington,UT,85.0,85.0,17.0,26.94,10.0,0.0,0.0
2,34.31903,-112.12329,Arizona Veterans Highway,Mayer,Yavapai,AZ,34.0,26.0,96.0,24.78,10.0,10.0,0.0
2,46.73209,-112.020569, N Montana Ave,Helena,Lewis and Clark,MT,69.0,69.0,30.0,26.27,10.0,7.0,0.0
2,33.672939,-112.27303300000001,W Potter Dr,Peoria,Maricopa,AZ,71.0,71.0,27.0,28.74,10.0,5.0,0.0
2,33.523918,-111.908768,N Hayden Rd,Scottsdale,Maricopa,AZ,87.0,87.0,19.0,28.26,10.0,0.0,0.0
2,40.667484,-111.952408,I-215 N,Salt Lake City,Salt Lake,UT,77.0,77.0,40.0,25.35,10.0,0.0,0.0
2,40.72391,-111.98624,Bangerter Hwy,West Valley City,Salt Lake,UT,92.0,92.0,14.0,25.72,10.0,14.0,0.0
2,40.58051,-111.89996000000001,I-15 N,Sandy,Salt Lake,UT,41.0,35.0,32.0,26.11,10.0,9.0,0.0
2,40.55897,-111.90065, W South Jordan Pkwy,South Jordan,Salt Lake,UT,35.0,35.0,44.0,25.88,10.0,3.0,0.0
2,48.198297,-110.00858500000001, Coal Mine Rd,Big Sandy,Chouteau,MT,9.0,-1.0,80.0,27.78,10.0,6.0,0.0
2,45.794187,-108.481587,US Highway 87 E,Billings,Yellowstone,MT,30.0,25.0,64.0,26.28,10.0,5.0,0.0
2,33.596748,-111.935493,E Cactus Rd,Scottsdale,Maricopa,AZ,57.0,57.0,36.0,28.27,10.0,0.0,0.0
2,38.22392,-112.64946,I-15 S,Beaver,Beaver,UT,47.0,40.0,71.0,24.89,10.0,16.0,0.0
2,32.148392,-111.01309199999999,S Mission Rd,Tucson,Pima,AZ,74.0,74.0,16.0,27.17,10.0,5.0,0.0
1,33.62685,-112.02418,E Greenway Rd,Phoenix,Maricopa,AZ,94.0,94.0,12.0,28.12,10.0,7.0,0.0
2,32.257562,-110.980201,W Glenn St,Tucson,Pima,AZ,73.0,73.0,17.0,27.13,10.0,7.0,0.0
2,40.431965000000005,-111.89128899999999,I-15 N,Lehi,Utah,UT,40.0,37.0,83.0,25.65,10.0,5.0,0.0
1,33.46532,-112.238,W McDowell Rd,Phoenix,Maricopa,AZ,81.0,81.0,15.0,28.7,8.0,0.0,0.0
3,39.63862,-104.82908,S Parker Rd,Aurora,Arapahoe,CO,31.0,25.0,67.0,24.49,10.0,6.0,0.0
3,33.382523,-111.966949,S Arizona Mills Cir,Tempe,Maricopa,AZ,83.0,83.0,17.0,28.81,10.0,13.0,0.0
1,33.60924,-112.26785,N 99th Ave,Sun City,Maricopa,AZ,96.0,96.0,12.0,28.72,10.0,9.0,0.0
2,33.489042,-111.887952,AZ-101 Loop S,Scottsdale,Maricopa,AZ,51.0,51.0,83.0,28.79,10.0,3.0,0.0
2,33.391962,-112.150931, S 43rd Ave,Phoenix,Maricopa,AZ,50.0,50.0,48.0,28.8,10.0,12.0,0.0
2,40.83767,-111.91564,I-15 S,North Salt Lake,Davis,UT,33.0,25.0,96.0,25.82,0.5,9.0,0.05
1,32.33748,-111.0468,N Thornydale Rd,Tucson,Pima,AZ,95.0,95.0,8.0,27.08,10.0,15.0,0.0
2,32.13393,-110.96383700000001,S Fontana Ave,Tucson,Pima,AZ,63.0,63.0,21.0,27.08,10.0,9.0,0.0
2,33.409679,-112.28079199999999,S 103rd Dr,Tolleson,Maricopa,AZ,42.0,38.0,73.0,28.87,10.0,6.0,0.0
2,41.19191,-111.971153,Washington Blvd,Ogden,Weber,UT,78.0,78.0,33.0,25.49,10.0,6.0,0.0
3,40.638459999999995,-111.93883000000001, S Redwood Rd,Salt Lake City,Salt Lake,UT,61.0,61.0,31.0,25.59,10.0,8.0,0.0
2,33.47575,-111.88914,Pima Fwy N,Scottsdale,Maricopa,AZ,48.0,48.0,56.0,28.93,10.0,3.0,0.0
2,41.13899,-111.81622,I-84 E,Morgan,Morgan,UT,36.0,36.0,79.0,25.23,10.0,3.0,0.0
2,39.670139,-105.02507,S Federal Blvd,Denver,Denver,CO,21.0,12.0,55.0,24.13,10.0,7.0,0.0
2,39.552,-105.08573, S Platte Canyon Rd,Littleton,Jefferson,CO,69.0,69.0,29.0,24.27,10.0,8.0,0.0
2,39.50897,-111.56948999999999,S 400 E,Mount Pleasant,Sanpete,UT,69.0,69.0,26.0,24.3,10.0,0.0,0.0
2,32.191846000000005,-110.83394399999999, E Golf Links Rd,Tucson,Pima,AZ,71.0,71.0,24.0,27.26,10.0,13.0,0.0
2,33.6291,-111.8633, N Thompson Peak Pkwy,Scottsdale,Maricopa,AZ,98.0,98.0,6.0,28.07,10.0,8.0,0.0
2,40.587709999999994,-111.93523, W 9000 S,West Jordan,Salt Lake,UT,87.0,87.0,26.0,25.65,10.0,13.0,0.0
1,32.22085,-110.7899,Harrison Rd,Tucson,Pima,AZ,101.0,101.0,12.0,27.05,10.0,5.0,0.0
2,41.099758,-114.95756499999999,I-80 W,Wells,Elko,NV,26.0,21.0,81.0,25.06,10.0,5.0,0.0
2,39.64587,-111.86093600000001,UT-28,Nephi,Juab,UT,21.0,15.0,81.0,25.79,10.0,5.0,0.0
2,32.181438,-110.96829199999999,S 6th Ave,Tucson,Pima,AZ,83.0,83.0,11.0,27.09,10.0,3.0,0.0
3,40.631855,-111.88407099999999,I-215 W,Salt Lake City,Salt Lake,UT,92.0,92.0,16.0,25.58,10.0,14.0,0.0
1,32.40002,-110.95523, N Oracle Rd,Tucson,Pima,AZ,74.0,74.0,23.0,27.24,10.0,0.0,0.0
3,33.434742,-112.03771200000001,I-10 E,Phoenix,Maricopa,AZ,67.0,67.0,10.0,28.99,10.0,17.0,0.0
3,33.460476,-112.03640700000001,N 21st Pl,Phoenix,Maricopa,AZ,79.0,79.0,24.0,28.69,10.0,5.0,0.0
2,43.61953,-116.351918, E Fairview Ave,Meridian,Ada,ID,61.0,61.0,45.0,27.42,10.0,7.0,0.0
2,39.80135,-104.97806000000001, Washington St,Denver,Adams,CO,73.0,73.0,14.0,24.29,10.0,6.0,0.0
1,32.20685,-110.92668,S Country Club Rd,Tucson,Pima,AZ,61.0,61.0,39.0,27.06,10.0,0.0,0.0
3,39.79817,-104.93113999999998,I-270 E,Commerce City,Adams,CO,88.0,88.0,20.0,24.39,10.0,5.0,0.0
2,40.588848,-111.90123700000001,I-15 S,Sandy,Salt Lake,UT,82.0,82.0,29.0,25.65,10.0,9.0,0.0
2,40.14897,-111.64662,I-15 N,Springville,Utah,UT,74.0,74.0,23.0,25.45,10.0,14.0,0.0
2,43.633811,-116.355745, E Ustick Rd,Meridian,Ada,ID,41.0,41.0,65.0,27.81,10.0,0.0,0.0
3,34.054764,-112.145531,I-17 N,Black Canyon City,Yavapai,AZ,81.0,81.0,38.0,28.24,10.0,5.0,0.0
1,33.50946,-112.13418999999999, W Camelback Rd,Phoenix,Maricopa,AZ,85.0,85.0,12.0,28.69,10.0,6.0,0.0
3,33.567558,-112.117325,W Dunlap Ave,Phoenix,Maricopa,AZ,44.0,42.0,43.0,28.48,10.0,5.0,0.0
2,45.772661,-111.25025900000001, Amsterdam Rd,Belgrade,Gallatin,MT,15.0,15.0,64.0,25.65,10.0,0.0,0.0
1,40.69977,-111.8883,E 3300 S,Salt Lake City,Salt Lake,UT,51.0,51.0,59.0,25.59,7.0,6.0,0.01
3,39.7734,-105.17038000000001,CO-58 E,Golden,Jefferson,CO,48.0,43.0,17.0,24.32,10.0,14.0,0.0
1,32.19216,-110.8752, E Golf Links Rd,Tucson,Pima,AZ,79.0,79.0,14.0,27.11,10.0,14.0,0.0
2,33.798396999999994,-112.11008100000001,N 23rd Ln,Phoenix,Maricopa,AZ,84.0,84.0,23.0,28.27,10.0,0.0,0.0
2,33.625149,-112.15110800000001,N 43rd Ave,Phoenix,Maricopa,AZ,51.0,51.0,13.0,28.36,10.0,10.0,0.0
2,33.848994,-114.216967, State Highway 95,Bouse,La Paz,AZ,89.0,89.0,9.0,29.44,10.0,7.0,0.0
2,41.25074,-111.96981000000001, Washington Blvd,Ogden,Weber,UT,55.0,55.0,38.0,25.67,10.0,8.0,0.0
2,35.198763,-112.47304399999999,N State Route 89,Ash Fork,Yavapai,AZ,21.0,21.0,63.0,23.31,10.0,0.0,0.0
2,40.1569,-104.97871,US-87 N,Longmont,Weld,CO,59.0,59.0,72.0,25.08,10.0,5.0,0.01
1,33.56756,-112.169,W Olive Ave,Glendale,Maricopa,AZ,93.0,93.0,13.0,28.59,10.0,7.0,0.0
2,39.42276,-119.751549,Damonte Ranch Pkwy,Reno,Washoe,NV,75.0,75.0,16.0,25.69,10.0,0.0,0.0
2,32.141525,-110.857948,E Valencia Rd,Tucson,Pima,AZ,67.0,67.0,22.0,27.15,10.0,9.0,0.0
2,33.59687,-112.032578,N 23rd St,Phoenix,Maricopa,AZ,64.0,64.0,33.0,28.33,10.0,0.0,0.0
2,39.536415000000005,-119.78668200000001,Depaoli St,Reno,Washoe,NV,20.0,20.0,74.0,25.89,10.0,0.0,0.0
2,40.609558,-111.89076200000001,S State St,Midvale,Salt Lake,UT,44.0,44.0,65.0,25.85,10.0,3.0,0.0
3,39.771782,-104.827797,I-70 E,Aurora,Adams,CO,81.0,81.0,15.0,24.27,10.0,5.0,0.0
2,41.22455,-111.94814, 23rd St,Ogden,Weber,UT,50.0,50.0,71.0,25.5,10.0,9.0,0.01
2,41.19402,-112.00263999999999,I-15 S,Ogden,Weber,UT,25.0,19.0,55.0,25.8,10.0,5.0,0.0
2,33.602017,-112.009381,Piestewa Fwy N,Phoenix,Maricopa,AZ,77.0,77.0,29.0,28.36,10.0,3.0,0.0
2,40.55149,-111.87226000000001, E 11000 S,Sandy,Salt Lake,UT,78.0,78.0,27.0,25.7,10.0,5.0,0.0
2,33.46223,-112.0477,N 16th St,Phoenix,Maricopa,AZ,107.0,107.0,5.0,28.52,10.0,3.0,0.0
3,33.461715999999996,-112.056946,I-10 E,Phoenix,Maricopa,AZ,51.0,51.0,38.0,28.82,10.0,0.0,0.0
2,47.225062,-114.970634, Southside Rd,Superior,Mineral,MT,27.0,18.0,56.0,23.99,10.0,9.0,0.0
1,39.650999999999996,-105.02526,S Federal Blvd,Englewood,Arapahoe,CO,55.0,55.0,38.0,24.21,10.0,5.0,0.0
3,39.70435,-105.2539,I-70 E,Golden,Jefferson,CO,88.0,88.0,14.0,24.22,10.0,12.0,0.0
2,43.597065,-116.2951,I-84 E,Boise,Ada,ID,58.0,58.0,41.0,27.19,8.0,5.0,0.0
3,40.378029,-104.99256899999999,14th St SE,Johnstown,Larimer,CO,34.0,24.0,70.0,24.89,10.0,16.0,0.0
2,33.462337,-112.238297,I-10 W,Phoenix,Maricopa,AZ,88.0,88.0,33.0,28.77,10.0,6.0,0.0
2,33.726688,-111.92562099999999,E Jomax Rd,Scottsdale,Maricopa,AZ,64.0,64.0,25.0,28.6,10.0,0.0,0.0
2,32.199196,-110.909462,S Alvernon Way,Tucson,Pima,AZ,104.0,104.0,17.0,26.98,10.0,8.0,0.0
2,32.351822,-110.97498300000001,N Oracle Rd,Tucson,Pima,AZ,59.0,59.0,31.0,27.29,10.0,8.0,0.0
2,40.526314,-111.984299,Bangerter Hwy,Herriman,Salt Lake,UT,85.0,85.0,20.0,25.58,10.0,14.0,0.0
2,43.666888,-116.354495, S Eagle Rd,Eagle,Ada,ID,30.0,30.0,96.0,27.23,7.0,0.0,0.0
3,39.78344,-105.06166100000002,I-70 W,Denver,Jefferson,CO,73.0,73.0,14.0,24.45,10.0,3.0,0.0
1,33.46588,-112.09128999999999, W McDowell Rd,Phoenix,Maricopa,AZ,89.0,89.0,9.0,28.5,10.0,12.0,0.0
2,33.508652000000005,-112.260269,W Camelback Rd,Glendale,Maricopa,AZ,103.0,103.0,6.0,28.58,10.0,6.0,0.0
2,34.518023,-111.989725,Arizona Veterans Highway,Dewey,Yavapai,AZ,56.0,56.0,24.0,25.06,10.0,12.0,0.0
2,33.638752000000004,-112.30766399999999, W Bell Rd,Surprise,Maricopa,AZ,48.0,45.0,56.0,28.82,10.0,7.0,0.0
3,39.72438,-105.182732,I-70 W,Golden,Jefferson,CO,63.0,63.0,34.0,24.36,20.0,13.0,0.0
2,40.729557,-111.986701,Bangerter Hwy,West Valley City,Salt Lake,UT,31.0,23.0,69.0,25.81,10.0,8.0,0.0
2,33.668873,-112.077919,AZ-101 Loop W,Phoenix,Maricopa,AZ,101.0,101.0,11.0,28.29,10.0,0.0,0.0
1,39.62942,-104.90496,I-25 S,Denver,Denver,CO,64.0,64.0,30.0,24.26,10.0,16.0,0.0
3,39.081309999999995,-104.85995,I-25 N,Monument,El Paso,CO,46.0,43.0,13.0,23.49,10.0,7.0,0.0
2,35.229488,-112.58600600000001,State Route 66,Ash Fork,Yavapai,AZ,78.0,78.0,17.0,23.32,10.0,10.0,0.0
2,33.480492,-112.147301,N 41st Ave,Phoenix,Maricopa,AZ,63.0,63.0,24.0,29.03,10.0,3.0,0.0
3,39.71005,-105.2947,I-70 E,Golden,Jefferson,CO,34.0,23.0,100.0,24.11,0.75,18.0,0.0
2,32.948467,-109.230011,Coronado Blvd,Clifton,Greenlee,AZ,61.0,61.0,21.0,26.77,10.0,15.0,0.0
2,40.653273,-112.044975, W 5400 S,Salt Lake City,Salt Lake,UT,28.0,23.0,72.0,25.81,10.0,5.0,0.0
3,33.465759999999996,-112.01291, E McDowell Rd,Phoenix,Maricopa,AZ,100.0,100.0,8.0,28.69,10.0,9.0,0.0
2,40.5879,-111.97248, W 9000 S,West Jordan,Salt Lake,UT,48.0,45.0,33.0,26.0,10.0,6.0,0.0
2,40.69986,-111.9, W 3300 S,Salt Lake City,Salt Lake,UT,73.0,73.0,37.0,25.82,10.0,5.0,0.0
2,33.610838,-112.13378600000001,N 35th Ave,Phoenix,Maricopa,AZ,41.0,41.0,53.0,28.57,10.0,0.0,0.0
2,41.171009999999995,-112.01959,I-15 N,Ogden,Weber,UT,84.0,84.0,28.0,25.47,10.0,21.0,0.0
2,33.461208,-112.088225,I-10 E,Phoenix,Maricopa,AZ,50.0,50.0,24.0,29.02,10.0,5.0,0.0
2,41.028689,-111.946514,I-15 N,Kaysville,Davis,UT,22.0,22.0,63.0,25.59,10.0,3.0,0.0
2,39.84902,-104.9966, W 84th Ave,Thornton,Adams,CO,90.0,90.0,13.0,24.18,10.0,8.0,0.0
2,39.77861,-104.959419,York St,Denver,Denver,CO,28.0,23.0,59.0,24.44,10.0,5.0,0.0
2,33.337212,-109.347816,Coronado Trl,Clifton,Greenlee,AZ,93.0,93.0,38.0,26.71,10.0,17.0,0.0
2,39.765905,-105.00006,I-25 N,Denver,Denver,CO,23.0,23.0,93.0,24.33,10.0,0.0,0.0
2,40.69978,-111.89116000000001,S Main St,Salt Lake City,Salt Lake,UT,34.0,28.0,46.0,25.64,10.0,7.0,0.0
3,39.291225,-103.79516600000001,I-70 W,Limon,Elbert,CO,44.0,36.0,15.0,24.78,10.0,18.0,0.0
2,40.765104,-111.944744,I-80 E,Salt Lake City,Salt Lake,UT,73.0,73.0,19.0,25.88,10.0,0.0,0.0
1,33.30605,-112.05571,E Chandler Blvd,Phoenix,Maricopa,AZ,108.0,108.0,12.0,28.54,10.0,12.0,0.0
2,33.378242,-111.931197, E Baseline Rd,Tempe,Maricopa,AZ,48.0,48.0,34.0,28.88,10.0,0.0,0.0
3,38.917496,-104.815826,I-25 S,Colorado Springs,El Paso,CO,43.0,35.0,25.0,23.4,10.0,15.0,0.0
2,39.74003,-104.9988, N Speer Blvd,Denver,Denver,CO,43.0,43.0,70.0,24.32,10.0,3.0,0.0
2,40.73683,-111.90473999999999,I-15 S,Salt Lake City,Salt Lake,UT,84.0,84.0,13.0,25.5,10.0,22.0,0.0
2,39.362264,-104.86698,I-25 S,Castle Rock,Douglas,CO,46.0,42.0,32.0,23.1,10.0,9.0,0.0
2,40.68008,-112.27355, Highway 36,Tooele,Tooele,UT,35.0,25.0,82.0,25.32,10.0,17.0,0.0
2,32.250353999999994,-110.98850300000001, N Flowing Wells Rd,Tucson,Pima,AZ,92.0,92.0,11.0,27.26,10.0,5.0,0.0
3,39.523003,-104.86739299999999,Ridgegate Pkwy,Lone Tree,Douglas,CO,25.0,17.0,85.0,24.15,3.0,7.0,0.0
2,39.77462,-104.85186999999999,I-70 W,Denver,Denver,CO,70.0,70.0,46.0,24.47,10.0,9.0,0.0
2,41.07699,-111.97938300000001,I-15 N,Layton,Davis,UT,33.0,29.0,75.0,25.45,10.0,5.0,0.0
2,40.821445000000004,-112.90335800000001,Hill Air Force Base,Dugway,Tooele,UT,24.0,15.0,88.0,25.65,9.0,8.0,0.0
2,40.026701,-111.761137,I-15 S,Payson,Utah,UT,45.0,45.0,60.0,25.58,10.0,0.0,0.0
3,39.712692,-105.000298,I-25 S,Denver,Denver,CO,90.0,90.0,11.0,24.19,10.0,24.0,0.0
3,40.297470000000004,-111.725792,I-15 S,Orem,Utah,UT,87.0,87.0,16.0,25.56,10.0,7.0,0.0
2,38.940090000000005,-104.72929,Duryea Dr,Colorado Springs,El Paso,CO,88.0,88.0,9.0,23.46,10.0,12.0,0.0
1,33.52394,-112.15154, N 43rd Ave,Phoenix,Maricopa,AZ,69.0,69.0,18.0,28.86,10.0,0.0,0.0
1,33.524029999999996,-112.11692, W Bethany Home Rd,Phoenix,Maricopa,AZ,108.0,108.0,7.0,28.53,10.0,12.0,0.0
2,41.8164,-112.38566999999999,I-84 W,Snowville,Box Elder,UT,34.0,27.0,89.0,25.24,10.0,9.0,0.0
2,32.235481,-110.84087099999999,N Kolb Rd,Tucson,Pima,AZ,48.0,46.0,22.0,27.38,10.0,6.0,0.0
2,39.754661999999996,-105.12835700000001,W 26th Ave,Denver,Jefferson,CO,46.0,39.0,81.0,24.41,4.0,17.0,0.0
2,40.703918,-111.984264, W 3100 S,West Valley City,Salt Lake,UT,73.0,73.0,22.0,25.88,10.0,3.0,0.0
3,40.359058000000005,-111.78430900000001,I-15 S,American Fork,Utah,UT,29.0,24.0,92.0,25.56,10.0,5.0,0.0
2,39.696709000000006,-104.99913000000001,W Mississippi Ave,Denver,Denver,CO,51.0,51.0,19.0,24.19,10.0,14.0,0.0
2,38.157799,-102.705269,State Highway 196,Wiley,Prowers,CO,79.0,79.0,44.0,26.48,10.0,7.0,0.0
2,40.703959999999995,-111.938957,W 3100 S,West Valley City,Salt Lake,UT,66.0,66.0,20.0,25.98,10.0,9.0,0.0
2,39.180382,-119.723846,US Highway 50 E,Carson City,Carson City,NV,50.0,50.0,40.0,25.16,10.0,3.0,0.0
2,33.672484000000004,-111.970456,AZ-101 Loop W,Phoenix,Maricopa,AZ,40.0,40.0,45.0,28.56,10.0,0.0,0.0
2,33.39222,-112.08197,S 7th Ave,Phoenix,Maricopa,AZ,75.0,75.0,18.0,28.64,10.0,5.0,0.0
3,39.67228,-104.92905,I-25 S,Denver,Denver,CO,66.0,66.0,11.0,24.25,10.0,22.0,0.0
3,40.504002,-111.891144,I-15 N,Draper,Salt Lake,UT,78.0,78.0,15.0,25.85,10.0,8.0,0.0
2,38.871784000000005,-104.926704,W US Highway 24,Cascade,El Paso,CO,59.0,59.0,31.0,23.52,10.0,5.0,0.0
3,40.790852,-111.949371,I-215 S,Salt Lake City,Salt Lake,UT,43.0,43.0,80.0,25.71,10.0,3.0,0.14
2,35.532722,-108.64688600000001,E Historic Highway 66,Gallup,McKinley,NM,26.0,19.0,84.0,23.67,1.0,6.0,0.0
1,32.235929999999996,-110.92681,N Country Club Rd,Tucson,Pima,AZ,49.0,45.0,44.0,27.09,10.0,8.0,0.0
2,40.6344,-111.89536000000001,I-215 E,Salt Lake City,Salt Lake,UT,34.0,34.0,73.0,25.93,9.0,0.0,0.0
2,33.509258,-112.065002,E Camelback Rd,Phoenix,Maricopa,AZ,61.0,61.0,27.0,28.9,10.0,0.0,0.0
2,39.729519,-105.053238,W 8th Ave,Denver,Denver,CO,18.0,11.0,93.0,24.35,1.0,5.0,0.0
2,34.267314,-112.727246, S Highway 89,Peeples Valley,Yavapai,AZ,52.0,52.0,35.0,24.91,10.0,8.0,0.0
2,39.92887,-104.88368, Riverdale Rd,Brighton,Adams,CO,28.0,19.0,98.0,24.89,1.0,8.0,0.0
3,34.50995,-111.99565,Arizona Veterans Highway,Mayer,Yavapai,AZ,48.0,43.0,63.0,24.84,10.0,12.0,0.0
2,33.581928000000005,-112.15154299999999,W Peoria Ave,Glendale,Maricopa,AZ,105.0,105.0,6.0,28.51,10.0,6.0,0.0
2,40.558933,-111.898117,I-15 N,South Jordan,Salt Lake,UT,54.0,54.0,45.0,25.75,10.0,15.0,0.0
2,36.956173,-113.791698,I-15 N,Littlefield,Mohave,AZ,73.0,73.0,25.0,26.92,10.0,0.0,0.0
2,39.782270000000004,-104.86576000000001, Havana St,Denver,Denver,CO,48.0,43.0,53.0,24.31,10.0,13.0,0.0
2,40.65,-116.3007,I-80 W,Crescent Valley,Eureka,NV,55.0,55.0,33.0,25.58,10.0,9.0,0.0
2,33.41102,-111.891462,AZ-101 Loop S,Tempe,Maricopa,AZ,76.0,76.0,26.0,28.82,10.0,5.0,0.0
3,40.96693,-111.89107,I-15 N,Farmington,Davis,UT,32.0,32.0,100.0,25.27,10.0,0.0,0.0
2,40.522251000000004,-111.984299,W 12600 S,Herriman,Salt Lake,UT,26.0,21.0,43.0,26.12,10.0,5.0,0.0
2,40.442963,-111.904081,I-15 S,Lehi,Utah,UT,45.0,41.0,68.0,25.53,10.0,7.0,0.0
2,33.508179,-112.290001,W Camelback Rd,Phoenix,Maricopa,AZ,87.0,87.0,15.0,28.69,10.0,5.0,0.0
2,34.803219,-111.768413,State Route 179,Sedona,Yavapai,AZ,53.0,53.0,18.0,25.03,10.0,9.0,0.0
2,41.19056,-111.97117, Washington Blvd,Ogden,Weber,UT,88.0,88.0,12.0,25.56,10.0,9.0,0.0
2,40.59292,-111.90218,I-15 N,Sandy,Salt Lake,UT,37.0,37.0,89.0,25.75,8.0,3.0,0.01
1,32.423770000000005,-110.9959, N La Canada Dr,Tucson,Pima,AZ,55.0,55.0,45.0,27.05,10.0,5.0,0.0
2,40.53495,-111.93871999999999, S Redwood Rd,Riverton,Salt Lake,UT,32.0,25.0,96.0,25.52,4.0,8.0,0.0
3,39.82018,-104.97841000000001,I-76 E,Denver,Adams,CO,32.0,21.0,100.0,24.24,0.25,17.0,0.0
2,40.74698,-111.7246,I-80 E,Salt Lake City,Salt Lake,UT,62.0,62.0,32.0,25.64,10.0,5.0,0.0
2,32.130421000000005,-110.87496200000001,S Craycroft Rd,Tucson,Pima,AZ,81.0,81.0,12.0,27.22,10.0,14.0,0.0
2,40.591617,-111.901577,I-15 N,Sandy,Salt Lake,UT,27.0,22.0,63.0,25.64,10.0,5.0,0.0
2,45.664812,-111.26921999999999, Norris Rd,Bozeman,Gallatin,MT,35.0,35.0,40.0,25.41,10.0,3.0,0.0
1,39.77243,-104.84702, Peoria St,Denver,Denver,CO,25.0,18.0,95.0,24.35,3.0,6.0,0.0
2,33.58057,-112.393799,N Reems Rd,Waddell,Maricopa,AZ,68.0,68.0,24.0,28.79,10.0,3.0,0.0
3,39.776245,-104.989182,I-25 N,Denver,Denver,CO,23.0,14.0,93.0,24.5,3.0,8.0,0.0
2,32.26097,-110.98701000000001, W Miracle Mile,Tucson,Pima,AZ,71.0,71.0,15.0,27.13,10.0,9.0,0.0
2,33.672078000000006,-111.997658,AZ-101 Loop W,Phoenix,Maricopa,AZ,51.0,51.0,46.0,28.27,10.0,0.0,0.0
2,32.11911,-110.813477,E Old Vail Rd,Tucson,Pima,AZ,79.0,79.0,20.0,27.15,10.0,10.0,0.0
3,40.657249,-118.14578200000001,I-80 E,Imlay,Pershing,NV,79.0,79.0,13.0,25.69,10.0,8.0,0.0
2,41.03801,-111.92716000000001, E 200 N,Kaysville,Davis,UT,70.0,70.0,32.0,25.21,10.0,6.0,0.0
2,45.70639,-110.998291, Bridger Canyon Rd,Bozeman,Gallatin,MT,18.0,9.0,78.0,25.52,10.0,7.0,0.0
2,40.839458,-115.800018,Mountain City Hwy,Elko,Elko,NV,44.0,44.0,82.0,24.87,10.0,3.0,0.0
2,32.255829,-110.96338700000001,E Kelso St,Tucson,Pima,AZ,92.0,92.0,10.0,27.15,10.0,6.0,0.0
2,32.21328,-110.935097,S Tucson Blvd,Tucson,Pima,AZ,81.0,81.0,13.0,27.19,10.0,12.0,0.0
1,33.48036,-111.9261,E Thomas Rd,Scottsdale,Maricopa,AZ,78.0,78.0,19.0,28.64,10.0,5.0,0.0
2,33.537121,-112.26986699999999,AZ-101 Loop S,Glendale,Maricopa,AZ,61.0,61.0,62.0,28.88,10.0,6.0,0.0
1,32.13391,-110.9777,W Valencia Rd,Tucson,Pima,AZ,78.0,78.0,15.0,27.09,10.0,8.0,0.0
2,39.73474,-110.84833,US-191 N,Helper,Carbon,UT,48.0,44.0,33.0,24.41,10.0,8.0,0.0
2,39.673390000000005,-110.86166999999999, N Highway 6,Helper,Carbon,UT,63.0,63.0,33.0,24.24,10.0,5.0,0.0
2,40.62141,-111.91441,W 7200 S,Midvale,Salt Lake,UT,67.0,67.0,32.0,25.86,10.0,8.0,0.0
2,39.801437,-104.93476100000001,I-270 W,Commerce City,Adams,CO,20.0,11.0,67.0,24.33,10.0,8.0,0.0
2,35.094833,-106.730034,Unser Blvd NW,Albuquerque,Bernalillo,NM,94.0,94.0,13.0,24.74,10.0,9.0,0.0
2,39.69003,-104.97343000000001,S Downing St,Denver,Denver,CO,80.0,80.0,27.0,24.27,10.0,3.0,0.0
2,40.46767,-111.91091999999999,I-15 N,Draper,Salt Lake,UT,30.0,24.0,59.0,25.97,10.0,6.0,0.0
3,39.658062,-104.843124,S Parker Rd,Aurora,Arapahoe,CO,58.0,58.0,28.0,24.09,10.0,8.0,0.0
2,33.380837,-112.06366799999999, S 7th Pl,Phoenix,Maricopa,AZ,66.0,66.0,30.0,28.76,10.0,0.0,0.0
1,33.494859999999996,-112.1134,N Black Canyon Hwy,Phoenix,Maricopa,AZ,89.0,89.0,17.0,28.6,10.0,7.0,0.0
2,33.661781,-111.942108,AZ-101 Loop W,Phoenix,Maricopa,AZ,62.0,62.0,37.0,28.42,10.0,6.0,0.0
2,45.757657,-111.16455900000001,E Frank Rd,Belgrade,Gallatin,MT,31.0,25.0,85.0,25.4,10.0,6.0,0.0
2,37.167488,-113.373901,N 3700 W,Hurricane,Washington,UT,44.0,40.0,23.0,27.42,10.0,8.0,0.0
2,32.2215,-110.91391399999999, E Broadway Blvd,Tucson,Pima,AZ,49.0,45.0,26.0,27.33,10.0,8.0,0.0
2,39.538509000000005,-119.80333700000001,E 9th St,Reno,Washoe,NV,43.0,43.0,51.0,25.61,10.0,3.0,0.0
2,41.192809999999994,-112.06436200000002,S 3500 W,West Haven,Weber,UT,37.0,32.0,59.0,25.57,10.0,7.0,0.0
2,33.524093,-111.92581100000001,N Scottsdale Rd,Scottsdale,Maricopa,AZ,72.0,72.0,38.0,28.08,10.0,8.0,0.0
2,33.118179,-111.362633,N Highway 79,Florence,Pinal,AZ,83.0,83.0,7.0,28.34,10.0,0.0,0.0
2,38.896793,-104.971291,Fountain Ave,Cascade,El Paso,CO,88.0,88.0,12.0,23.47,10.0,18.0,0.0
2,43.572976000000004,-116.393777, S Meridian Rd,Meridian,Ada,ID,21.0,21.0,100.0,27.81,10.0,0.0,0.0
2,33.368922999999995,-111.842049,N Arizona Ave,Mesa,Maricopa,AZ,63.0,63.0,60.0,28.95,10.0,7.0,0.0
3,40.16,-104.978752,I-25 N,Longmont,Weld,CO,92.0,92.0,20.0,24.92,10.0,0.0,0.0
2,35.12328,-106.590897,Monroe St NE,Albuquerque,Bernalillo,NM,91.0,91.0,19.0,24.7,10.0,8.0,0.0
2,33.60933,-112.375997, W Waddell Rd,Surprise,Maricopa,AZ,75.0,75.0,13.0,28.93,10.0,3.0,0.0
2,40.20355,-111.65527,I-15 N,Provo,Utah,UT,61.0,61.0,36.0,25.52,10.0,16.0,0.0
1,32.30832,-110.8924,N Swan Rd,Tucson,Pima,AZ,79.0,79.0,10.0,27.11,10.0,7.0,0.0
2,45.647664,-111.351367,Axtell Anceny Rd,Bozeman,Gallatin,MT,45.0,45.0,68.0,25.18,10.0,0.0,0.0
2,33.668873,-112.077919,AZ-101 Loop W,Phoenix,Maricopa,AZ,102.0,102.0,10.0,28.2,10.0,8.0,0.0
2,32.12142,-111.035036, S Avenida Sombra,Tucson,Pima,AZ,59.0,59.0,39.0,27.09,10.0,8.0,0.0
2,32.221515999999994,-110.90088700000001,E Broadway Blvd,Tucson,Pima,AZ,59.0,59.0,39.0,27.27,10.0,5.0,0.0
2,32.250628999999996,-110.909737,E Grant Rd,Tucson,Pima,AZ,95.0,95.0,25.0,27.15,10.0,14.0,0.0
3,40.414455,-111.87023899999998,I-15 S,Lehi,Utah,UT,25.0,10.0,80.0,25.17,6.0,23.0,0.0
2,35.131329,-106.52451299999998,Morris St NE,Albuquerque,Bernalillo,NM,45.0,40.0,31.0,24.61,10.0,10.0,0.0
2,38.867979999999996,-104.6827,N Marksheffel Rd,Colorado Springs,El Paso,CO,79.0,79.0,15.0,23.8,10.0,24.0,0.0
1,32.17549,-110.9108, E Ajo Way,Tucson,Pima,AZ,60.0,60.0,41.0,27.29,10.0,3.0,0.0
2,35.010348,-107.02871200000001,Historic US 66 E,Laguna,Bernalillo,NM,14.0,14.0,80.0,23.9,10.0,0.0,0.0
2,33.436203000000006,-111.91246799999999,AZ-202 Loop W,Tempe,Maricopa,AZ,70.0,70.0,27.0,28.78,10.0,7.0,0.0
2,33.630817,-111.89022800000001,AZ-101 Loop N,Scottsdale,Maricopa,AZ,106.0,106.0,8.0,28.15,10.0,9.0,0.0
2,40.760653999999995,-111.91391000000002,W 400 S,Salt Lake City,Salt Lake,UT,83.0,83.0,11.0,25.63,10.0,10.0,0.0
1,33.33465,-111.91118, E Warner Rd,Tempe,Maricopa,AZ,101.0,101.0,9.0,28.58,10.0,8.0,0.0
2,32.201141,-110.90498400000001,S Irving Ave,Tucson,Pima,AZ,73.0,73.0,38.0,27.23,10.0,3.0,0.0
2,40.71979,-111.85501000000001,I-80 W,Salt Lake City,Salt Lake,UT,29.0,24.0,92.0,25.68,2.0,5.0,0.0
2,33.671951,-112.03148700000001,E Beardsley Rd,Phoenix,Maricopa,AZ,67.0,67.0,37.0,28.45,10.0,5.0,0.0
3,40.724686,-111.944572,UT-201 W,West Valley City,Salt Lake,UT,26.0,21.0,63.0,25.92,10.0,5.0,0.0
2,35.106242,-106.657279,Coronado Fwy E,Albuquerque,Bernalillo,NM,49.0,44.0,27.0,24.54,10.0,13.0,0.0
