Severity,Start_Lat,Start_Lng,Street,City,County,State,Temperature(F),Wind_Chill(F),Humidity(%),Pressure(in),Visibility(mi),Wind_Speed(mph),Precipitation(in)
2,41.230305,-73.187903,CT-25 S,Trumbull,Fairfield,CT,61.0,61.0,87.0,29.45,7.0,15.0,0.0
3,42.483475,-71.116653,I-93 N,Woburn,Middlesex,MA,89.0,89.0,45.0,29.57,10.0,8.0,0.0
3,41.823475,-71.419296,Aborn St,Providence,Providence,RI,40.0,32.0,49.0,29.59,10.0,15.0,0.0
2,42.74259,-72.09784, Warren Hill Rd,Fitzwilliam,Cheshire,NH,61.0,61.0,81.0,28.95,10.0,0.0,0.0
3,41.87895,-71.47357, Douglas Pike,Smithfield,Providence,RI,57.0,57.0,87.0,29.97,10.0,8.0,0.0
3,41.811333000000005,-71.353989,I-195 W,East Providence,Providence,RI,45.0,40.0,48.0,30.12,10.0,9.0,0.0
1,41.97003,-71.29583000000001,I-95 S,Attleboro Falls,Bristol,MA,68.0,68.0,93.0,29.45,10.0,9.0,0.0
4,41.765698,-72.688815,I-84 E,Hartford,Hartford,CT,46.0,46.0,93.0,29.99,6.0,0.0,0.0
3,41.019844,-73.625801,I-95 S,Greenwich,Fairfield,CT,88.0,88.0,49.0,29.36,10.0,10.0,0.0
3,41.709045,-72.646126,I-91 S,Wethersfield,Hartford,CT,59.0,59.0,87.0,29.98,10.0,3.0,0.0
3,41.058723,-73.512344,I-95 S,Stamford,Fairfield,CT,77.0,77.0,39.0,29.35,10.0,12.0,0.0
3,42.829823,-70.992737,Broad St,Merrimac,Essex,MA,47.0,45.0,68.0,30.03,10.0,5.0,0.0
2,44.3539,-71.58473000000001, Sleighbell Rd,Whitefield,Coos,NH,49.0,47.0,24.0,28.62,10.0,6.0,0.0
3,42.499446999999996,-71.15638,I-95 N,Woburn,Middlesex,MA,50.0,50.0,28.0,29.92,10.0,7.0,0.0
3,41.285389,-72.83876,Governor John Davis Lodge Tpke S,Branford,New Haven,CT,84.0,84.0,82.0,29.88,10.0,12.0,0.0
2,41.548013,-73.067545,I-84 E,Waterbury,New Haven,CT,45.0,41.0,76.0,29.5,10.0,7.0,0.0
2,42.402004,-71.044273,Revere Beach Pkwy,Everett,Middlesex,MA,59.0,59.0,64.0,29.83,10.0,15.0,0.0
3,41.814693,-71.411636,I-95 S,Providence,Providence,RI,43.0,36.0,53.0,30.08,10.0,15.0,0.0
2,41.786463,-71.433456,RI-10 N,Cranston,Providence,RI,57.0,57.0,47.0,29.71,10.0,13.0,0.0
2,42.292567,-71.568127,I-495 S,Westborough,Worcester,MA,66.0,66.0,38.0,29.05,10.0,13.0,0.0
2,42.475390999999995,-71.16703000000001,Lexington St,Woburn,Middlesex,MA,36.0,31.0,64.0,29.54,10.0,6.0,0.0
2,41.19464,-73.129576,Governor John Davis Lodge Tpke,Stratford,Fairfield,CT,74.0,74.0,91.0,29.48,5.0,28.0,0.12
3,42.51565,-71.7237,I-190 S,Leominster,Worcester,MA,48.0,48.0,37.0,29.59,10.0,3.0,0.0
2,41.001201,-73.652397,I-95 S,Greenwich,Fairfield,CT,31.0,23.0,46.0,29.86,10.0,9.0,0.0
2,42.250278,-71.13089000000001,Hillis Rd,Hyde Park,Suffolk,MA,72.0,72.0,53.0,30.04,10.0,7.0,0.0
2,42.123711,-71.06015,MA-24 N,Avon,Norfolk,MA,64.0,64.0,50.0,29.93,10.0,7.0,0.0
2,41.302789000000004,-72.91281500000001, Wallace St,New Haven,New Haven,CT,45.0,45.0,56.0,29.96,10.0,3.0,0.0
2,41.835411,-72.46126,I-84 W,Vernon Rockville,Tolland,CT,76.0,76.0,69.0,29.86,10.0,7.0,0.0
2,42.728152,-71.205012,I-93 N,Methuen,Essex,MA,21.0,15.0,63.0,30.41,10.0,5.0,0.0
2,41.737751,-72.662849,CT-15 N,Hartford,Hartford,CT,77.0,77.0,60.0,29.67,10.0,10.0,0.0
3,41.55168,-73.03296,I-84 W,Waterbury,New Haven,CT,32.0,27.0,64.0,29.41,10.0,5.0,0.0
2,43.023478999999995,-71.366096,NH-101 E,Auburn,Rockingham,NH,34.0,30.0,75.0,29.99,10.0,5.0,0.0
2,41.325431,-72.24986,Governor John Davis Lodge Tpke N,East Lyme,New London,CT,42.0,38.0,92.0,29.95,10.0,6.0,0.0
3,42.86503,-71.33893,I-93 S,Londonderry,Rockingham,NH,69.0,69.0,39.0,29.59,10.0,6.0,0.0
3,41.744576,-71.444214,I-95 N,Warwick,Kent,RI,67.0,67.0,100.0,29.9,10.0,7.0,0.0
3,41.058723,-73.512344,I-95 S,Stamford,Fairfield,CT,67.0,67.0,44.0,29.28,10.0,10.0,0.0
2,41.106434,-73.415538,Governor John Davis Lodge Tpke,Norwalk,Fairfield,CT,74.0,74.0,71.0,29.44,10.0,9.0,0.0
3,42.371552,-71.069801,US-1 N,Cambridge,Middlesex,MA,63.0,63.0,90.0,29.88,10.0,13.0,0.0
2,42.356853,-71.1847,I-90 W,Newton,Middlesex,MA,66.0,66.0,93.0,29.77,10.0,8.0,0.0
3,41.771194,-72.678696,I-84 W,Hartford,Hartford,CT,40.0,40.0,97.0,29.74,2.0,3.0,0.0
3,41.866440000000004,-71.402428,I-95 N,Pawtucket,Providence,RI,65.0,65.0,36.0,29.52,10.0,8.0,0.0
2,42.13006,-72.06761,I-90 W,Sturbridge,Worcester,MA,40.0,32.0,89.0,28.44,4.0,15.0,0.01
2,42.205677,-71.140594,I-95 N,Canton,Norfolk,MA,39.0,39.0,79.0,29.86,10.0,0.0,0.0
4,42.503395000000005,-71.13046999999999,I-95 S,Woburn,Middlesex,MA,43.0,33.0,60.0,29.49,10.0,25.0,0.0
2,42.3643,-71.058357,I-93 N,Boston,Suffolk,MA,55.0,55.0,96.0,29.78,6.0,10.0,0.1
3,41.632141,-72.873695,Queen St,Southington,Hartford,CT,53.0,53.0,57.0,30.41,10.0,3.0,0.0
2,41.7399,-72.663724,I-91 N,Hartford,Hartford,CT,44.0,42.0,63.0,30.05,10.0,5.0,0.0
2,42.448890999999996,-71.321602,Cambridge Tpke,Lincoln,Middlesex,MA,59.0,59.0,75.0,29.89,10.0,6.0,0.0
3,43.055988,-71.47110699999999,I-93 N,Hooksett,Merrimack,NH,50.0,50.0,44.0,29.94,10.0,10.0,0.0
2,42.41855,-70.99103000000001, N Shore Rd,Revere,Suffolk,MA,75.0,75.0,76.0,29.81,10.0,9.0,0.0
3,41.81337,-71.408691,Crary St,Providence,Providence,RI,72.0,72.0,57.0,29.91,10.0,6.0,0.0
2,41.518057,-72.825377, Hanover Ave,Meriden,New Haven,CT,64.0,64.0,93.0,29.77,4.0,6.0,0.01
2,43.023609,-71.692429,Weare Rd,New Boston,Hillsborough,NH,59.0,59.0,69.0,30.2,10.0,5.0,0.0
3,42.310234,-71.386139,Speen St,Framingham,Middlesex,MA,42.0,35.0,51.0,29.58,10.0,15.0,0.0
3,42.664112,-71.194603,I-495 S,Andover,Essex,MA,65.0,65.0,93.0,29.86,10.0,0.0,0.0
2,41.020758,-73.622956,I-95 S,Greenwich,Fairfield,CT,60.0,60.0,27.0,29.83,10.0,9.0,0.0
2,43.52036,-70.46228,I-95 S,Saco,York,ME,90.0,90.0,38.0,29.83,10.0,13.0,0.0
2,42.392429,-71.03671999999999,4th St,Chelsea,Suffolk,MA,36.0,29.0,76.0,29.86,10.0,9.0,0.0
2,42.328559999999996,-71.079277,Dearborn St,Roxbury,Suffolk,MA,41.0,37.0,82.0,30.05,4.0,6.0,0.05
3,41.669703999999996,-72.833702,CT-72 W,Plainville,Hartford,CT,44.0,40.0,85.0,30.09,10.0,7.0,0.0
3,41.816814,-71.39960500000001,I-195 W,Providence,Providence,RI,53.0,53.0,50.0,29.73,10.0,10.0,0.0
4,41.67949,-72.16887, Windham Rd,South Windham,Windham,CT,56.0,56.0,93.0,29.45,10.0,0.0,0.0
2,42.065979,-70.86895799999999,Liberty St,Hanson,Plymouth,MA,50.0,50.0,76.0,30.08,10.0,10.0,0.0
2,41.765073,-72.690943,I-84 E,Hartford,Hartford,CT,64.0,64.0,60.0,30.29,10.0,5.0,0.0
2,42.435902,-71.23468000000001,Waltham St,Lexington,Middlesex,MA,37.0,33.0,62.0,29.66,10.0,5.0,0.0
2,42.135872,-70.90387700000001,Webster St,Rockland,Plymouth,MA,37.0,30.0,65.0,29.48,10.0,9.0,0.0
2,41.72383,-70.94634,MA-140 S,New Bedford,Bristol,MA,46.0,42.0,68.0,30.01,10.0,7.0,0.0
3,42.0242,-71.86044,I-395 N,Webster,Worcester,MA,32.0,26.0,92.0,28.77,0.25,6.0,0.11
2,42.288631,-71.075577,Norfolk St,Dorchester Center,Suffolk,MA,88.0,88.0,43.0,29.78,10.0,9.0,0.0
3,42.729549,-71.205017,I-93 S,Methuen,Essex,MA,52.0,52.0,97.0,29.94,3.0,12.0,0.13
2,42.370734999999996,-71.269051,I-95 N,Waltham,Middlesex,MA,73.0,73.0,81.0,29.88,10.0,9.0,0.0
2,41.196638,-73.121641,Governor John Davis Lodge Tpke,Stratford,Fairfield,CT,73.0,73.0,90.0,29.52,10.0,23.0,0.0
2,42.549519000000004,-71.849159,MA-2 E,Fitchburg,Worcester,MA,77.0,77.0,58.0,29.72,10.0,0.0,0.0
2,42.306931,-71.067947,Hamilton St,Dorchester,Suffolk,MA,63.0,63.0,90.0,29.88,10.0,13.0,0.0
3,41.66835,-71.48738900000001,RI-4 S,East Greenwich,Kent,RI,73.0,73.0,79.0,29.84,10.0,13.0,0.0
3,41.29785,-72.93427, Howard Ave,New Haven,New Haven,CT,52.0,52.0,41.0,30.05,10.0,6.0,0.0
2,44.80473,-69.37521,I-95 N,Pittsfield,Somerset,ME,35.0,29.0,96.0,28.8,5.0,7.0,0.09
3,41.696976,-71.47575400000001,I-95 S,Warwick,Kent,RI,57.0,57.0,100.0,29.73,2.0,8.0,0.22
2,42.0429,-71.240173,Constitution Way,Foxboro,Norfolk,MA,46.0,46.0,83.0,30.1,10.0,0.0,0.0
2,42.589745,-71.31263,US-3 N,Chelmsford,Middlesex,MA,37.0,32.0,62.0,29.52,10.0,6.0,0.0
2,42.063511,-70.871338,High St,Hanson,Plymouth,MA,70.0,70.0,100.0,29.87,2.0,7.0,0.0
3,42.026615,-71.25762900000001,I-95 S,Foxboro,Norfolk,MA,76.0,76.0,31.0,29.77,10.0,14.0,0.0
2,41.770959999999995,-72.605967,I-84 W,East Hartford,Hartford,CT,76.0,76.0,69.0,29.86,10.0,7.0,0.0
2,41.557213,-72.924274,Yankee Expy W,Cheshire,New Haven,CT,62.0,62.0,52.0,30.02,10.0,9.0,0.0
2,43.113007,-70.819748,NH-16 S,Portsmouth,Rockingham,NH,64.0,64.0,94.0,29.78,1.0,6.0,0.0
2,42.341869,-71.066353,Harrison Ave,Boston,Suffolk,MA,52.0,52.0,50.0,29.54,10.0,25.0,0.0
3,41.734809999999996,-72.66427,I-91 N,Hartford,Hartford,CT,41.0,41.0,51.0,29.45,10.0,3.0,0.0
2,41.771018,-72.679909,I-84 E,Hartford,Hartford,CT,38.0,33.0,53.0,30.31,10.0,6.0,0.0
2,41.61723,-71.94511700000001,Governor John Davis Lodge Tpke N,Jewett City,New London,CT,29.0,22.0,67.0,29.52,10.0,7.0,0.0
2,41.759516,-72.641097,CT-15 S,East Hartford,Hartford,CT,84.0,84.0,65.0,30.13,10.0,12.0,0.0
2,42.5952,-71.0158,N Main St,Middleton,Essex,MA,74.0,74.0,87.0,29.31,9.0,17.0,0.02
2,42.328175,-71.097061,Columbus Ave,Roxbury Crossing,Suffolk,MA,58.0,58.0,87.0,29.61,7.0,32.0,0.0
2,42.330791,-71.111542,Colburn St,Jamaica Plain,Suffolk,MA,38.0,31.0,97.0,30.28,10.0,9.0,0.0
2,42.34111,-71.26517,MA-128 S,Weston,Middlesex,MA,39.0,39.0,53.0,29.76,10.0,0.0,0.0
2,41.814743,-71.43991899999999,RI-10 S,Providence,Providence,RI,66.0,66.0,65.0,30.15,10.0,12.0,0.0
3,43.570766,-71.62222299999999,I-93 N,Sanbornton,Belknap,NH,51.0,51.0,31.0,29.14,10.0,20.0,0.0
3,42.23822,-71.02365,US-1 S,Quincy,Norfolk,MA,59.0,59.0,20.0,30.1,10.0,16.0,0.0
3,42.26363,-71.045311,I-93 S,Milton,Norfolk,MA,39.0,33.0,55.0,30.1,10.0,9.0,0.0
3,42.585403,-72.621239,I-91 N,Greenfield,Franklin,MA,55.0,55.0,72.0,28.99,10.0,12.0,0.0
3,41.611931,-72.89888,West St,Southington,Hartford,CT,41.0,41.0,82.0,29.67,10.0,0.0,0.0
2,41.78175,-71.419975,RI-10 N,Providence,Providence,RI,65.0,65.0,90.0,30.19,2.0,6.0,0.0
2,41.133278000000004,-73.458031,CT-15 S,Norwalk,Fairfield,CT,72.0,72.0,41.0,29.48,10.0,16.0,0.0
2,42.525180999999996,-71.080841,I-95 S,Wakefield,Middlesex,MA,29.0,29.0,72.0,30.34,10.0,3.0,0.0
2,41.926029,-71.09008,Broadway,Taunton,Bristol,MA,37.0,32.0,73.0,29.58,10.0,6.0,0.0
2,41.859390000000005,-71.466629,Pensaukee Ave,North Providence,Providence,RI,49.0,49.0,100.0,29.77,10.0,3.0,0.0
2,43.327286,-70.98183399999999,NH-11,Rochester,Strafford,NH,37.0,37.0,93.0,29.77,9.0,3.0,0.0
3,41.026886,-73.605621,Indian Field Rd,Greenwich,Fairfield,CT,35.0,29.0,92.0,29.29,1.0,7.0,0.11
3,42.15416,-71.06848000000001,MA-24 S,Stoughton,Norfolk,MA,73.0,73.0,76.0,29.86,10.0,0.0,0.0
3,41.551563,-73.05249,I-84 E,Waterbury,New Haven,CT,42.0,39.0,47.0,29.34,10.0,5.0,0.0
2,42.533939000000004,-70.95030200000001,MA-128 N,Peabody,Essex,MA,63.0,63.0,60.0,30.12,10.0,13.0,0.0
3,41.86853,-71.05662,MA-24 S,Taunton,Bristol,MA,59.0,59.0,39.0,30.31,10.0,10.0,0.0
2,41.000322,-73.652976,I-95 N,Greenwich,Fairfield,CT,37.0,29.0,50.0,29.31,10.0,13.0,0.0
2,41.383491,-73.484297,I-84 E,Danbury,Fairfield,CT,56.0,56.0,90.0,29.4,10.0,8.0,0.0
3,41.71921,-72.79496999999999,I-84 E,Farmington,Hartford,CT,63.0,63.0,35.0,30.23,10.0,5.0,0.0
2,41.000336,-73.65298,I-95 N,Greenwich,Fairfield,CT,44.0,38.0,89.0,29.18,7.0,12.0,0.01
2,42.064335,-71.056651, Belmont St,Brockton,Plymouth,MA,33.0,23.0,38.0,30.31,10.0,15.0,0.0
2,41.001201,-73.652397,I-95 S,Greenwich,Fairfield,CT,41.0,36.0,73.0,29.53,10.0,7.0,0.0
2,41.692844,-71.501366,Quaker Ln,West Warwick,Kent,RI,46.0,43.0,89.0,30.05,8.0,6.0,0.01
2,42.496002000000004,-71.1782,Winn St,Burlington,Middlesex,MA,60.0,60.0,33.0,29.72,10.0,15.0,0.0
2,41.296799,-73.091248,Plaskon Dr,Shelton,Fairfield,CT,29.0,29.0,96.0,29.86,0.25,0.0,0.0
3,42.17239,-72.33204,I-90 W,Palmer,Hampden,MA,34.0,25.0,93.0,29.74,10.0,13.0,0.0
2,41.902611,-71.86643199999999,Heritage Rd,Putnam,Windham,CT,38.0,38.0,68.0,29.9,10.0,0.0,0.0
3,41.769218,-72.668541,I-91 S,Hartford,Hartford,CT,35.0,29.0,92.0,29.54,3.0,8.0,0.0
2,42.296082,-71.116173,Walk Hill St,Jamaica Plain,Suffolk,MA,45.0,43.0,90.0,30.38,10.0,5.0,0.0
2,42.290217999999996,-71.124107,Washington St,Roslindale,Suffolk,MA,40.0,40.0,89.0,30.38,8.0,0.0,0.0
2,41.122541999999996,-73.353615,Governor John Davis Lodge Tpke,Westport,Fairfield,CT,62.0,62.0,65.0,30.22,10.0,6.0,0.0
2,41.324375,-72.882839,I-91 S,New Haven,New Haven,CT,47.0,41.0,93.0,29.62,3.0,14.0,0.01
3,42.365120000000005,-71.589119,Austen Way,Marlborough,Middlesex,MA,31.0,31.0,69.0,29.63,10.0,0.0,0.0
2,42.608608000000004,-71.325577,US-3 N,Lowell,Middlesex,MA,73.0,73.0,13.0,29.96,10.0,16.0,0.0
2,41.69035,-72.75705699999999,CT-9 N,Newington,Hartford,CT,40.0,34.0,58.0,29.95,10.0,9.0,0.0
2,41.587721,-72.649343,CT-9 S,Cromwell,Middlesex,CT,73.0,73.0,53.0,30.0,10.0,6.0,0.0
4,41.85293,-71.71767, Hartford Pike,North Scituate,Providence,RI,56.0,56.0,24.0,29.69,10.0,12.0,0.0
3,42.52275,-71.08422,I-95 N,Wakefield,Middlesex,MA,60.0,60.0,46.0,30.07,10.0,5.0,0.0
2,42.349491,-71.111221,Essex St,Brookline,Norfolk,MA,44.0,38.0,82.0,29.94,0.25,12.0,0.0
2,41.376598,-73.473202,US-7 N,Danbury,Fairfield,CT,57.0,57.0,89.0,29.36,6.0,9.0,0.0
2,43.19923,-72.506332,Rockingham Rd,Bellows Falls,Windham,VT,35.0,35.0,92.0,29.79,3.0,3.0,0.0
3,41.000549,-73.65276300000001,I-95 N,Greenwich,Fairfield,CT,76.0,76.0,67.0,29.55,10.0,12.0,0.0
2,41.620529,-70.543983,Nathan Ellis Hwy,East Falmouth,Barnstable,MA,70.0,70.0,83.0,30.0,10.0,12.0,0.0
2,42.301849,-71.085564,Blue Hill Ave,Dorchester,Suffolk,MA,72.0,72.0,53.0,30.08,10.0,10.0,0.0
3,42.358662,-71.120956,Cambridge St,Allston,Suffolk,MA,41.0,38.0,82.0,30.06,3.0,5.0,0.01
2,41.288277,-72.88585,Governor John Davis Lodge Tpke S,East Haven,New Haven,CT,41.0,35.0,60.0,29.79,10.0,9.0,0.0
2,41.365875,-72.92306500000001,CT-15 S,Hamden,New Haven,CT,53.0,53.0,50.0,30.23,10.0,6.0,0.0
2,41.669703999999996,-72.833702,CT-72 W,Plainville,Hartford,CT,33.0,33.0,64.0,29.97,10.0,0.0,0.0
2,44.258781,-73.228287,US Route 7,North Ferrisburgh,Addison,VT,41.0,37.0,60.0,30.04,10.0,6.0,0.0
3,42.664322,-71.19369499999999,I-495 N,Andover,Essex,MA,43.0,43.0,62.0,29.6,10.0,3.0,0.0
2,41.312938,-72.912687,I-91 S,New Haven,New Haven,CT,36.0,36.0,97.0,30.29,10.0,0.0,0.0
2,41.271075,-72.97148100000001,Governor John Davis Lodge Tpke N,West Haven,New Haven,CT,70.0,70.0,81.0,30.24,10.0,6.0,0.0
2,41.539558,-72.81298100000001,W Main St,Meriden,New Haven,CT,47.0,44.0,37.0,30.21,10.0,6.0,0.0
2,42.300442,-71.14810899999999,W Roxbury Pkwy,Chestnut Hill,Norfolk,MA,58.0,58.0,58.0,30.31,10.0,15.0,0.0
2,41.841625,-71.419014,Louisquisset Pike S,Providence,Providence,RI,77.0,77.0,40.0,29.55,10.0,7.0,0.0
3,42.301105,-71.048355,Point Rd,Dorchester,Suffolk,MA,68.0,68.0,81.0,29.96,10.0,9.0,0.0
3,41.76899,-72.66121700000001,US-44 E,East Hartford,Hartford,CT,61.0,61.0,90.0,29.45,4.0,16.0,0.19
2,41.800743,-71.402214,Thurbers Ave,Providence,Providence,RI,39.0,36.0,86.0,30.15,10.0,5.0,0.0
1,41.74517,-71.43426,RI-37 E,Warwick,Kent,RI,78.0,78.0,45.0,30.01,10.0,14.0,0.0
2,41.721728999999996,-72.793596,US-6 W,Farmington,Hartford,CT,43.0,40.0,74.0,30.55,10.0,5.0,0.0
2,42.304722,-71.224602,Franklin St,Needham Heights,Norfolk,MA,25.0,13.0,75.0,29.97,10.0,14.0,0.0
1,42.36424,-71.06991,Storrow Dr,Boston,Suffolk,MA,43.0,33.0,93.0,29.85,2.0,29.0,0.0
3,41.134651,-73.29348,Governor John Davis Lodge Tpke,Southport,Fairfield,CT,74.0,74.0,76.0,30.3,10.0,7.0,0.0
3,42.03688,-71.307129,Washington St,Plainville,Norfolk,MA,40.0,34.0,73.0,29.58,10.0,9.0,0.0
2,41.72804,-72.61339,CT-2 W,East Hartford,Hartford,CT,57.0,57.0,77.0,29.93,10.0,13.0,0.0
2,42.664112,-71.194603,I-495 S,Andover,Essex,MA,80.0,80.0,47.0,29.89,10.0,6.0,0.0
2,41.733429,-72.731163,Quaker Ln S,West Hartford,Hartford,CT,71.0,71.0,70.0,30.15,10.0,9.0,0.0
2,42.350182000000004,-71.147079,Cambridge St,Brighton,Suffolk,MA,30.0,21.0,59.0,29.69,10.0,12.0,0.0
2,41.058240999999995,-73.512535,Governor John Davis Lodge Tpke,Stamford,Fairfield,CT,49.0,47.0,93.0,29.43,6.0,5.0,0.0
3,41.842857,-71.410896,I-95 S,Providence,Providence,RI,49.0,46.0,38.0,29.76,10.0,7.0,0.0
2,42.16135,-71.157501,Neponset St,Canton,Norfolk,MA,59.0,59.0,83.0,29.82,10.0,3.0,0.0
2,42.189003,-71.852417,Southbridge St,Auburn,Worcester,MA,69.0,69.0,53.0,29.01,10.0,14.0,0.0
3,41.832249,-71.519882,I-295 S,Johnston,Providence,RI,37.0,32.0,93.0,29.03,10.0,7.0,0.0
4,42.42087,-71.00449,Albert J Brown Cir,Revere,Suffolk,MA,47.0,42.0,28.0,30.05,10.0,12.0,0.0
3,43.72121,-70.304771,I-95 N,Portland,Cumberland,ME,58.0,58.0,65.0,30.0,10.0,5.0,0.0
2,42.404461,-71.076775,Rivers Edge Dr,Medford,Middlesex,MA,34.0,29.0,61.0,30.17,10.0,6.0,0.0
2,41.342121,-72.124367,Boston Post Rd,Waterford,New London,CT,27.0,17.0,34.0,30.42,10.0,10.0,0.0
2,42.440369,-71.369141,Sudbury Rd,Concord,Middlesex,MA,50.0,50.0,74.0,30.08,10.0,10.0,0.0
4,41.23551,-73.04581,I-95 S,Milford,New Haven,CT,37.0,33.0,48.0,30.03,10.0,5.0,0.0
2,42.336971000000005,-71.093643,Ruggles St,Boston,Suffolk,MA,36.0,30.0,44.0,30.39,10.0,8.0,0.0
3,43.246658000000004,-71.747864,I-89 N,Warner,Merrimack,NH,45.0,35.0,44.0,29.26,10.0,32.0,0.0
2,43.64634,-70.29068000000001,I-295 S,Portland,Cumberland,ME,77.0,77.0,48.0,29.71,10.0,16.0,0.0
3,42.80134,-71.27176,I-93 S,Windham,Rockingham,NH,59.0,59.0,46.0,30.2,10.0,10.0,0.0
2,41.878479999999996,-71.1681, Winthrop St,Taunton,Bristol,MA,42.0,42.0,92.0,30.06,8.0,3.0,0.0
2,42.351688,-71.06472,LaGrange St,Boston,Suffolk,MA,72.0,72.0,81.0,30.04,10.0,5.0,0.0
2,42.24147,-70.991928,Richard St,Quincy,Norfolk,MA,41.0,41.0,86.0,30.24,9.0,0.0,0.0
2,41.181756,-73.194255,CT-25 S,Bridgeport,Fairfield,CT,68.0,68.0,84.0,30.23,8.0,3.0,0.0
2,41.539931,-72.804583, Grove St,Meriden,New Haven,CT,48.0,48.0,89.0,29.91,10.0,0.0,0.0
3,41.729649,-71.18985,I-195 E,Somerset,Bristol,MA,61.0,61.0,58.0,30.04,10.0,13.0,0.0
2,41.680002,-72.818621,I-84 W,New Britain,Hartford,CT,59.0,59.0,78.0,30.31,10.0,8.0,0.0
3,42.369888,-71.064697,US-1 N,Charlestown,Suffolk,MA,79.0,79.0,79.0,30.12,10.0,10.0,0.0
2,41.742414000000004,-71.44504599999999,I-95 N,Cranston,Providence,RI,70.0,70.0,93.0,29.91,2.0,7.0,0.02
2,42.460304,-70.945229,Lynnway,Lynn,Essex,MA,64.0,64.0,70.0,29.68,10.0,15.0,0.0
2,42.427631,-71.20706899999999,Pleasant St,Lexington,Middlesex,MA,67.0,67.0,79.0,29.77,10.0,7.0,0.0
2,41.764052,-72.693687,Sigourney St,Hartford,Hartford,CT,43.0,43.0,80.0,30.18,10.0,0.0,0.0
2,41.771854,-72.599662,I-84 W,East Hartford,Hartford,CT,76.0,76.0,69.0,29.86,10.0,7.0,0.0
3,42.33153,-71.25444,I-95 N,Newton Lower Falls,Middlesex,MA,87.0,87.0,30.0,29.69,10.0,10.0,0.0
2,41.104434000000005,-73.563047,CT-15 N,Stamford,Fairfield,CT,54.0,54.0,41.0,29.94,10.0,3.0,0.0
2,41.67038,-72.839366,CT-72 W,Plainville,Hartford,CT,64.0,64.0,28.0,29.74,10.0,6.0,0.0
2,42.228058000000004,-71.181549,I-95 S,Dedham,Norfolk,MA,45.0,43.0,82.0,29.91,1.0,5.0,0.0
2,41.293483,-72.67614499999999,Governor John Davis Lodge Tpke S,Guilford,New Haven,CT,34.0,34.0,60.0,29.97,10.0,0.0,0.0
3,42.39116,-71.60571999999999,I-495 N,Berlin,Worcester,MA,79.0,79.0,42.0,29.51,10.0,10.0,0.0
2,42.378632,-71.245667,Francis St,Waltham,Middlesex,MA,78.0,78.0,52.0,29.9,10.0,7.0,0.0
2,42.35584,-71.07406999999999,Storrow Dr,Boston,Suffolk,MA,40.0,35.0,86.0,29.87,9.0,7.0,0.02
2,41.78893,-72.56396,Wilbur Cross Hwy N,Manchester,Hartford,CT,41.0,36.0,79.0,29.69,10.0,7.0,0.0
2,42.574749,-71.24115,Gray St,Billerica,Middlesex,MA,52.0,52.0,54.0,29.73,10.0,7.0,0.0
2,41.109734,-73.40344499999999,Governor John Davis Lodge Tpke,Norwalk,Fairfield,CT,56.0,56.0,72.0,30.38,10.0,5.0,0.0
1,42.209179999999996,-71.04869000000001,I-93 N,Quincy,Norfolk,MA,45.0,45.0,80.0,29.54,7.0,0.0,0.05
3,41.800743,-71.402214,Thurbers Ave,Providence,Providence,RI,49.0,42.0,93.0,29.01,3.0,22.0,0.01
2,41.770716,-72.67794,I-84 E,Hartford,Hartford,CT,44.0,44.0,71.0,30.18,10.0,0.0,0.0
2,41.10658,-73.422671,Governor John Davis Lodge Tpke,Norwalk,Fairfield,CT,31.0,23.0,64.0,29.33,10.0,8.0,0.0
2,41.092289,-73.629587,CT-15 N,Greenwich,Fairfield,CT,81.0,81.0,74.0,29.68,10.0,5.0,0.0
2,42.373425,-71.457787,Old Garrison Rd,Sudbury,Middlesex,MA,32.0,27.0,92.0,29.65,1.0,5.0,0.01
2,42.555149,-71.26580799999999,Charnstaffe Ln,Billerica,Middlesex,MA,65.0,65.0,87.0,29.78,10.0,3.0,0.01
3,41.909523,-71.891632,I-395 S,Putnam,Windham,CT,44.0,38.0,89.0,29.47,6.0,12.0,0.03
3,41.70349,-71.1603,Braga Bridge,Fall River,Bristol,MA,45.0,39.0,97.0,30.23,1.0,13.0,0.13
3,42.64672,-70.97678,I-95 N,Boxford,Essex,MA,49.0,43.0,24.0,29.68,10.0,17.0,0.0
3,41.044724,-73.562714,I-95 N,Stamford,Fairfield,CT,72.0,72.0,73.0,29.37,10.0,3.0,0.0
2,41.559165,-72.919188,Yankee Expy E,Cheshire,New Haven,CT,47.0,40.0,50.0,29.8,10.0,16.0,0.0
2,41.479128,-73.203867,I-84 E,Southbury,New Haven,CT,50.0,50.0,59.0,29.45,10.0,5.0,0.0
2,42.37846,-71.07584399999999,I-93 N,Somerville,Middlesex,MA,28.0,20.0,51.0,30.23,10.0,8.0,0.0
2,42.587799,-71.295174,Angie Rd,North Billerica,Middlesex,MA,51.0,51.0,96.0,29.66,1.0,8.0,0.27
3,41.000549,-73.65276300000001,I-95 N,Greenwich,Fairfield,CT,50.0,50.0,96.0,29.5,8.0,0.0,0.0
2,42.583999999999996,-71.15786700000001,I-93 S,Wilmington,Middlesex,MA,27.0,27.0,92.0,29.74,3.0,0.0,0.0
2,42.66547,-71.548286,East St,Pepperell,Middlesex,MA,74.0,74.0,45.0,29.55,10.0,12.0,0.0
2,42.627781,-71.271034,I-495 N,Tewksbury,Middlesex,MA,40.0,34.0,58.0,29.94,10.0,8.0,0.0
2,41.364308,-72.099913,Gold Star Memorial Bridge,New London,New London,CT,41.0,38.0,65.0,30.48,10.0,5.0,0.0
2,42.354053,-71.196923, Lewis Ter,Newton,Middlesex,MA,60.0,60.0,90.0,30.22,7.0,6.0,0.0
2,42.539925,-70.938766,MA-128 S,Peabody,Essex,MA,88.0,88.0,39.0,29.83,10.0,7.0,0.0
2,42.346359,-71.162102,Kenrick St,Brighton,Suffolk,MA,30.0,19.0,96.0,29.88,0.75,16.0,0.02
2,41.867496,-71.43070999999999,Eddie Dowling Hwy N,Providence,Providence,RI,41.0,34.0,93.0,29.65,10.0,12.0,0.0
2,42.5788,-71.278198,High St,North Billerica,Middlesex,MA,36.0,25.0,44.0,29.33,10.0,22.0,0.0
3,41.873371,-71.38329300000001,US-1 N,Pawtucket,Providence,RI,44.0,44.0,93.0,29.44,10.0,0.0,0.0
3,42.518440000000005,-70.993027,I-95 N,Peabody,Essex,MA,57.0,57.0,83.0,29.63,10.0,8.0,0.0
2,42.104622,-70.783241,Water St,Pembroke,Plymouth,MA,61.0,61.0,77.0,30.24,10.0,9.0,0.0
3,42.569469,-71.425774,I-495 S,Westford,Middlesex,MA,37.0,28.0,41.0,30.42,10.0,14.0,0.0
2,42.153702,-71.008476,S Franklin St,Holbrook,Norfolk,MA,65.0,65.0,90.0,29.62,10.0,0.0,0.0
4,42.609454,-70.955361,Boston St,Topsfield,Essex,MA,66.0,66.0,96.0,29.86,2.0,6.0,0.0
2,42.278999,-71.136162,Cedrus Ave,Roslindale,Suffolk,MA,73.0,73.0,55.0,30.0,10.0,10.0,0.0
1,41.752959999999995,-71.43896,I-95 S,Warwick,Kent,RI,57.0,57.0,27.0,29.72,10.0,8.0,0.0
3,41.823475,-71.419296,Aborn St,Providence,Providence,RI,27.0,15.0,41.0,29.85,10.0,16.0,0.0
3,42.168236,-72.472321,I-90 W,Ludlow,Hampden,MA,52.0,52.0,79.0,29.73,10.0,10.0,0.0
2,41.670082,-72.843018,I-84 W,Plainville,Hartford,CT,51.0,51.0,92.0,29.64,7.0,8.0,0.11
2,41.806381,-72.689552,Greenwood Ave,Bloomfield,Hartford,CT,50.0,50.0,46.0,29.66,10.0,12.0,0.0
2,41.445075,-72.117573,Governor John Davis Lodge Tpke S,Uncasville,New London,CT,39.0,33.0,57.0,30.25,10.0,8.0,0.0
2,41.744659000000006,-70.146301,Main St,Brewster,Barnstable,MA,90.0,90.0,57.0,29.72,10.0,6.0,0.0
2,43.665749,-70.990051,Province Lake Rd,East Wakefield,Carroll,NH,58.0,58.0,60.0,29.3,10.0,13.0,0.0
2,42.33952,-71.108261,Longwood Ave,Boston,Suffolk,MA,44.0,36.0,68.0,29.84,10.0,17.0,0.0
3,42.687168,-71.14048000000001,I-495 N,Lawrence,Essex,MA,69.0,69.0,90.0,29.67,6.0,9.0,0.01
3,41.749718,-71.441788,I-95 N,Warwick,Kent,RI,43.0,43.0,100.0,29.93,2.0,3.0,0.03
2,41.81899,-72.66133,I-291 W,Windsor,Hartford,CT,33.0,33.0,92.0,29.87,2.0,3.0,0.02
3,41.046616,-73.5448,I-95 N,Stamford,Fairfield,CT,77.0,77.0,62.0,29.41,10.0,10.0,0.0
2,42.333290000000005,-71.024986,Farragut Rd,Boston,Suffolk,MA,43.0,36.0,51.0,30.08,10.0,14.0,0.0
2,41.74981,-72.71985,I-84 E,West Hartford,Hartford,CT,39.0,35.0,86.0,30.12,8.0,6.0,0.0
2,41.286770000000004,-73.04224,CT-15 S,Orange,New Haven,CT,44.0,40.0,63.0,30.24,10.0,8.0,0.0
3,42.43558,-71.01992,Northeast Expy S,Revere,Suffolk,MA,69.0,69.0,16.0,30.04,10.0,12.0,0.0
3,41.851475,-72.664429,I-91 N,Windsor,Hartford,CT,39.0,36.0,93.0,29.63,3.0,5.0,0.04
2,41.1415,-73.43073000000001,CT-15 N,Norwalk,Fairfield,CT,40.0,35.0,89.0,29.59,1.0,7.0,0.0
2,42.213402,-71.150139,I-95 N,Dedham,Norfolk,MA,89.0,89.0,48.0,29.69,10.0,9.0,0.0
2,41.819247999999995,-71.389572,I-195 W,Providence,Providence,RI,69.0,69.0,100.0,29.8,2.0,6.0,0.0
2,41.141191,-73.28399,Governor John Davis Lodge Tpke,Southport,Fairfield,CT,42.0,37.0,89.0,29.98,10.0,8.0,0.0
3,41.814693,-71.411636,I-95 S,Providence,Providence,RI,59.0,59.0,48.0,30.15,10.0,17.0,0.0
2,41.246354,-73.089619,CT-15 N,Milford,New Haven,CT,27.0,22.0,75.0,29.84,10.0,5.0,0.0
2,41.602897999999996,-73.065833,CT-8 N,Oakville,Litchfield,CT,27.0,19.0,75.0,29.56,10.0,8.0,0.0
2,42.166599,-70.891029,Hingham St,Rockland,Plymouth,MA,43.0,43.0,89.0,30.21,0.5,0.0,0.0
2,42.38945,-71.023064,Eastern Ave,Chelsea,Suffolk,MA,57.0,57.0,36.0,29.91,10.0,14.0,0.0
3,41.840019,-71.411263,I-95 S,Providence,Providence,RI,37.0,37.0,86.0,29.71,10.0,0.0,0.0
3,42.538536,-71.49324,I-495 N,Littleton,Middlesex,MA,37.0,33.0,65.0,29.56,10.0,5.0,0.0
3,41.737751,-72.662849,CT-15 N,Hartford,Hartford,CT,46.0,43.0,44.0,29.94,10.0,6.0,0.0
3,42.321537,-71.053772,Columbia Rd,Dorchester,Suffolk,MA,41.0,32.0,57.0,29.49,10.0,17.0,0.0
2,42.284771,-71.094353,Deering Rd,Mattapan,Suffolk,MA,79.0,79.0,62.0,29.92,10.0,9.0,0.0
4,41.23039,-73.07275,I-95 N,Milford,New Haven,CT,60.0,60.0,60.0,30.03,10.0,7.0,0.0
2,41.284729999999996,-72.84215999999999,I-95 N,Branford,New Haven,CT,50.0,50.0,48.0,30.11,10.0,8.0,0.0
3,41.825728999999995,-71.419891,US-6 E,Providence,Providence,RI,97.0,97.0,35.0,29.67,10.0,13.0,0.0
2,42.323471000000005,-71.16391800000001,Boylston St,Chestnut Hill,Norfolk,MA,46.0,46.0,79.0,29.93,4.0,0.0,0.0
3,42.32785,-71.05878,I-93 N,Boston,Suffolk,MA,87.0,87.0,51.0,29.76,10.0,14.0,0.0
3,42.39419,-71.26248000000001,I-95 S,Waltham,Middlesex,MA,60.0,60.0,90.0,29.33,6.0,17.0,0.09
3,42.439941,-71.25621,Birch Hill Ln,Lexington,Middlesex,MA,6.0,6.0,67.0,30.25,10.0,0.0,0.0
4,41.69907,-72.30619, Route 66,Columbia,Tolland,CT,72.0,72.0,26.0,30.0,10.0,12.0,0.0
2,41.811370000000004,-72.52058000000001,Deming St,Manchester,Hartford,CT,35.0,26.0,89.0,29.95,9.0,15.0,0.12
2,41.767649,-72.656077,I-84 W,East Hartford,Hartford,CT,50.0,50.0,94.0,29.94,2.0,0.0,0.0
2,42.447289000000005,-71.151077,Church St,Winchester,Middlesex,MA,36.0,30.0,48.0,29.94,10.0,8.0,0.0
3,41.178515999999995,-73.18283100000001,Kossuth St,Bridgeport,Fairfield,CT,61.0,61.0,90.0,29.5,2.0,32.0,0.15
3,41.540985,-72.95148499999999,Waterbury Rd,Cheshire,New Haven,CT,77.0,77.0,79.0,29.84,10.0,7.0,0.0
3,41.717090999999996,-71.47333499999999,I-295 N,Warwick,Kent,RI,89.0,89.0,43.0,29.95,10.0,10.0,0.0
2,41.542869,-72.81275500000001, Ames Ave,Meriden,New Haven,CT,50.0,50.0,61.0,29.98,10.0,5.0,0.0
3,42.72963,-71.20503199999999,I-93 S,Methuen,Essex,MA,67.0,67.0,51.0,30.06,10.0,8.0,0.0
2,42.306709000000005,-71.066513,Bowdoin St,Dorchester,Suffolk,MA,65.0,65.0,87.0,30.03,10.0,7.0,0.0
2,41.740099,-72.66365,I-91 N,Hartford,Hartford,CT,68.0,68.0,68.0,29.83,10.0,7.0,0.0
2,41.163946,-73.376797,CT-15 S,Westport,Fairfield,CT,43.0,43.0,53.0,30.47,10.0,0.0,0.0
2,42.852759999999996,-71.27606999999999,Windham Depot Rd,Derry,Rockingham,NH,35.0,26.0,46.0,29.64,10.0,14.0,0.0
2,42.331181,-71.194618,Pelham St,Newton Center,Middlesex,MA,60.0,60.0,69.0,29.93,10.0,8.0,0.0
2,41.577518,-73.052177,CT-8 S,Waterbury,New Haven,CT,40.0,36.0,60.0,29.58,10.0,6.0,0.0
2,42.298640999999996,-71.060661,Park St,Dorchester,Suffolk,MA,41.0,35.0,79.0,30.22,10.0,10.0,0.0
3,42.963573,-70.8592,I-95 S,Hampton,Rockingham,NH,85.0,85.0,30.0,29.95,10.0,6.0,0.0
3,41.819247999999995,-71.389572,I-195 W,Providence,Providence,RI,39.0,31.0,32.0,30.14,10.0,13.0,0.0
3,42.679264,-71.15238199999999,I-495 S,Andover,Essex,MA,56.0,56.0,93.0,29.71,3.0,13.0,0.18
3,42.7842,-71.4944,Everett Tpke N,Nashua,Hillsborough,NH,39.0,34.0,100.0,29.77,10.0,7.0,0.01
2,42.327412,-71.058327,I-93 N,South Boston,Suffolk,MA,40.0,33.0,51.0,30.16,10.0,10.0,0.0
2,41.093278999999995,-73.610388,CT-15 N,Greenwich,Fairfield,CT,54.0,54.0,47.0,29.76,10.0,8.0,0.0
3,42.624393,-71.176514,I-93 N,Andover,Essex,MA,87.0,87.0,43.0,29.69,10.0,9.0,0.0
2,42.15065,-70.86122900000001,Webster St,Hanover,Plymouth,MA,46.0,43.0,43.0,30.45,10.0,7.0,0.0
3,41.312466,-72.912529,I-91 N,New Haven,New Haven,CT,68.0,68.0,70.0,29.74,10.0,7.0,0.0
2,41.3746,-72.18746,I-95 S,Waterford,New London,CT,41.0,33.0,70.0,30.25,10.0,14.0,0.0
2,42.303188,-71.167152,Lagrange St,Chestnut Hill,Middlesex,MA,42.0,39.0,65.0,30.15,10.0,5.0,0.0
2,41.818529999999996,-71.39428000000001,I-195 E,Providence,Providence,RI,45.0,37.0,76.0,29.45,10.0,18.0,0.0
2,42.372108000000004,-71.266052,Weston St,Waltham,Middlesex,MA,82.0,82.0,69.0,29.81,10.0,6.0,0.0
3,41.844772,-71.40984300000001,Branch Ave,Providence,Providence,RI,59.0,59.0,31.0,29.82,10.0,5.0,0.0
2,41.548590000000004,-72.814803, Chamberlain Hwy,Meriden,New Haven,CT,32.0,32.0,82.0,30.34,10.0,0.0,0.0
2,41.178356,-73.19458,CT-25 N,Bridgeport,Fairfield,CT,83.0,83.0,58.0,30.02,10.0,8.0,0.0
3,41.166924,-73.205139,Wordin Ave,Bridgeport,Fairfield,CT,51.0,51.0,83.0,30.09,10.0,7.0,0.0
3,41.737751,-72.662849,CT-15 N,Hartford,Hartford,CT,49.0,49.0,48.0,29.61,10.0,0.0,0.0
2,43.27066,-70.95976999999999,Spaulding Tpke S,Rochester,Strafford,NH,41.0,35.0,65.0,29.6,10.0,9.0,0.0
4,41.918925,-72.614983,I-91 N,East Windsor,Hartford,CT,61.0,61.0,83.0,29.92,10.0,10.0,0.0
2,42.30888,-71.10249300000001,Glen Rd,Jamaica Plain,Suffolk,MA,19.0,5.0,52.0,30.03,10.0,15.0,0.0
2,41.75373,-72.64801999999999,CT-2 E,East Hartford,Hartford,CT,47.0,47.0,61.0,29.71,10.0,3.0,0.0
3,42.447340000000004,-71.36025, Concord Tpke,Concord,Middlesex,MA,72.0,72.0,84.0,29.72,10.0,6.0,0.0
2,41.383542,-73.483692,I-84 E,Danbury,Fairfield,CT,39.0,39.0,79.0,29.54,10.0,3.0,0.0
4,41.505413,-73.05933399999999, Porter Ave,Naugatuck,New Haven,CT,51.0,51.0,71.0,29.48,10.0,7.0,0.0
2,41.934566,-71.466217,Eddie Dowling Hwy S,Lincoln,Providence,RI,60.0,60.0,20.0,29.19,10.0,7.0,0.0
3,42.355637,-71.05096400000001,I-93 N,Boston,Suffolk,MA,44.0,37.0,79.0,30.01,10.0,14.0,0.0
2,42.34758,-71.16130799999999,Rogers Park Ave,Brighton,Suffolk,MA,47.0,44.0,77.0,29.9,10.0,7.0,0.0
3,42.257839000000004,-71.793289,I-290 E,Worcester,Worcester,MA,43.0,43.0,35.0,28.98,10.0,0.0,0.0
2,42.400428999999995,-71.038498,Carter St,Chelsea,Suffolk,MA,75.0,75.0,79.0,30.01,10.0,17.0,0.0
3,42.129063,-71.224556,I-95 N,Sharon,Norfolk,MA,36.0,36.0,86.0,29.75,8.0,0.0,0.0
2,41.767406,-72.669525,Columbus Blvd,Hartford,Hartford,CT,29.0,23.0,69.0,29.79,10.0,6.0,0.0
3,41.78907,-71.41957099999999,I-95 S,Providence,Providence,RI,44.0,40.0,58.0,29.76,10.0,8.0,0.0
2,42.306076000000004,-71.078377,Columbia Rd,Dorchester,Suffolk,MA,53.0,53.0,100.0,30.22,0.5,5.0,0.0
2,41.669357,-72.82504,I-84 W,New Britain,Hartford,CT,42.0,36.0,49.0,29.89,10.0,12.0,0.0
2,42.203098,-71.11930100000001,I-93 N,Canton,Norfolk,MA,23.0,14.0,22.0,30.53,10.0,8.0,0.0
2,42.33633,-71.110031,Riverway,Boston,Suffolk,MA,38.0,30.0,27.0,30.01,10.0,13.0,0.0
2,42.35561,-71.18999000000001,I-90 W,Newton,Middlesex,MA,59.0,59.0,87.0,29.48,4.0,26.0,0.0
2,42.348869,-71.081757,Boylston St,Boston,Suffolk,MA,41.0,41.0,51.0,30.5,10.0,3.0,0.0
2,41.414285,-73.414633,Route 6,Danbury,Fairfield,CT,47.0,43.0,90.0,29.64,6.0,8.0,0.04
2,41.734336,-72.748457,I-84 W,West Hartford,Hartford,CT,50.0,50.0,63.0,29.94,10.0,5.0,0.0
2,41.56129,-73.05748299999999,CT-8 S,Waterbury,New Haven,CT,33.0,27.0,78.0,29.56,10.0,7.0,0.0
2,41.003695,-73.65002199999999,I-95 N,Greenwich,Fairfield,CT,22.0,10.0,55.0,29.85,10.0,13.0,0.0
4,41.343166,-72.231789,Governor John Davis Lodge Tpke S,East Lyme,New London,CT,60.0,60.0,57.0,30.13,10.0,14.0,0.0
2,41.293601,-72.781076,Governor John Davis Lodge Tpke N,Branford,New Haven,CT,64.0,64.0,72.0,30.35,10.0,7.0,0.0
2,42.301613,-71.049759,I-93 N,Dorchester,Suffolk,MA,70.0,70.0,57.0,29.91,10.0,3.0,0.0
2,41.1684,-73.19998299999999,Governor John Davis Lodge Tpke,Bridgeport,Fairfield,CT,45.0,39.0,57.0,30.48,10.0,10.0,0.0
2,42.052890999999995,-70.905731,Franklin St,Hanson,Plymouth,MA,59.0,59.0,72.0,29.53,3.0,8.0,0.0
2,42.014545,-71.044037,W Center St,West Bridgewater,Plymouth,MA,53.0,53.0,59.0,29.72,10.0,5.0,0.0
2,42.214034999999996,-71.5467,W Main St,Hopkinton,Middlesex,MA,37.0,37.0,86.0,30.54,10.0,0.0,0.0
2,42.771549,-72.397324,Ashuelot St,Winchester,Cheshire,NH,68.0,68.0,93.0,28.88,4.0,9.0,0.0
2,42.42622,-71.10334,I-93 S,Medford,Middlesex,MA,34.0,25.0,87.0,29.83,1.0,12.0,0.05
2,41.845279999999995,-71.06334,MA-24 S,Berkley,Bristol,MA,47.0,43.0,77.0,30.24,10.0,9.0,0.0
3,42.19252,-72.931602,I-90 W,Blandford,Hampden,MA,42.0,32.0,73.0,29.0,10.0,24.0,0.0
2,41.255775,-72.99600699999999,Governor John Davis Lodge Tpke N,Orange,New Haven,CT,59.0,59.0,75.0,30.43,10.0,8.0,0.0
3,42.23818,-71.02391,Southeast Expy N,Quincy,Norfolk,MA,79.0,79.0,64.0,30.07,10.0,10.0,0.0
3,42.042652000000004,-71.24296600000001,I-95 N,Foxboro,Norfolk,MA,74.0,74.0,46.0,30.07,10.0,14.0,0.0
2,42.913876,-71.462654,Everett Tpke N,Bedford,Hillsborough,NH,36.0,36.0,70.0,29.74,10.0,0.0,0.0
2,42.559940000000005,-70.973587,I-95 N,Danvers,Essex,MA,51.0,51.0,89.0,29.68,10.0,8.0,0.0
2,41.974987,-71.530174,N Smithfield Expy N,North Smithfield,Providence,RI,42.0,36.0,89.0,29.28,10.0,12.0,0.0
2,41.183015000000005,-73.193564,Highland Ave,Bridgeport,Fairfield,CT,42.0,37.0,89.0,29.98,10.0,8.0,0.0
3,41.325066,-72.882164,I-91 S,New Haven,New Haven,CT,82.0,82.0,60.0,29.78,10.0,7.0,0.0
2,41.805,-70.781662,Cranberry Hwy,West Wareham,Plymouth,MA,39.0,36.0,96.0,29.93,10.0,5.0,0.0
2,42.58987,-71.85736800000001,Ashburnham St,Fitchburg,Worcester,MA,29.0,23.0,89.0,29.44,1.0,6.0,0.05
2,41.474385999999996,-73.214682,I-84 E,Southbury,New Haven,CT,44.0,44.0,85.0,29.16,10.0,0.0,0.0
2,41.001201,-73.652397,I-95 S,Greenwich,Fairfield,CT,47.0,45.0,93.0,29.46,3.0,5.0,0.05
3,41.897419,-71.369766,Washington St,Attleboro,Bristol,MA,28.0,19.0,63.0,30.12,10.0,9.0,0.0
3,41.851475,-72.664429,I-91 N,Windsor,Hartford,CT,66.0,66.0,54.0,29.47,10.0,14.0,0.0
3,42.222485,-71.032249,I-93 S,Braintree,Norfolk,MA,23.0,14.0,22.0,30.53,10.0,8.0,0.0
2,41.175459000000004,-73.151854,Governor John Davis Lodge Tpke,Stratford,Fairfield,CT,25.0,18.0,66.0,30.12,10.0,6.0,0.0
2,42.33117,-71.06211,US-1 S,Boston,Suffolk,MA,40.0,32.0,93.0,29.94,2.0,14.0,0.0
3,42.502384,-71.11895,I-95 S,Reading,Middlesex,MA,58.0,58.0,75.0,30.26,10.0,15.0,0.0
3,41.769878000000006,-72.68264,Myrtle St,Hartford,Hartford,CT,56.0,56.0,75.0,30.02,10.0,13.0,0.0
2,41.670177,-72.776154,E Main St,New Britain,Hartford,CT,67.0,67.0,90.0,29.95,3.0,3.0,0.05
2,41.60305,-73.06577,CT-8 N,Oakville,Litchfield,CT,54.0,54.0,29.0,29.17,10.0,12.0,0.0
2,42.34024,-71.270844,Park Rd,Weston,Middlesex,MA,74.0,74.0,93.0,29.3,5.0,25.0,0.13
2,42.576359000000004,-71.816971,Pratt St,Fitchburg,Worcester,MA,44.0,42.0,68.0,29.62,10.0,5.0,0.0
2,41.142371000000004,-73.273969,Governor John Davis Lodge Tpke,Fairfield,Fairfield,CT,55.0,55.0,74.0,30.09,10.0,9.0,0.0
3,42.34111,-71.26517,MA-128 S,Weston,Middlesex,MA,47.0,39.0,42.0,29.01,10.0,22.0,0.0
2,42.590697999999996,-71.083733,Haverhill St,North Reading,Middlesex,MA,72.0,72.0,87.0,29.9,10.0,10.0,0.0
2,41.115705,-73.41889499999999,US-7 N,Norwalk,Fairfield,CT,56.0,56.0,42.0,29.75,10.0,5.0,0.0
2,41.163474,-73.239508,Governor John Davis Lodge Tpke,Fairfield,Fairfield,CT,54.0,54.0,64.0,30.26,10.0,12.0,0.0
2,42.36557,-71.052948,Hanover St,Boston,Suffolk,MA,64.0,64.0,70.0,30.13,10.0,7.0,0.0
2,42.359032,-71.147362,Leo M Birmingham Pkwy,Brighton,Suffolk,MA,29.0,22.0,67.0,29.77,10.0,7.0,0.0
2,41.475802,-73.410912,US-7 S,Brookfield,Fairfield,CT,73.0,73.0,96.0,29.67,10.0,0.0,0.0
2,41.871983,-71.055779,MA-24 S,Taunton,Bristol,MA,60.0,60.0,20.0,30.08,10.0,15.0,0.0
2,41.36939,-72.16959,I-95 S,Waterford,New London,CT,39.0,39.0,100.0,29.59,10.0,0.0,0.01
2,41.625727000000005,-71.486674,RI-4 N,East Greenwich,Kent,RI,24.0,10.0,96.0,29.75,0.75,20.0,0.03
2,41.183673999999996,-73.14002099999999,Governor John Davis Lodge Tpke,Stratford,Fairfield,CT,38.0,38.0,97.0,30.14,4.0,0.0,0.0
2,41.321843,-72.262862,Governor John Davis Lodge Tpke S,Old Lyme,New London,CT,61.0,61.0,100.0,29.66,10.0,6.0,0.0
2,42.609196000000004,-71.325066,US-3 N,Lowell,Middlesex,MA,31.0,26.0,85.0,29.73,10.0,5.0,0.0
2,41.86851,-71.42520999999999, Mineral Spring Ave,North Providence,Providence,RI,42.0,36.0,89.0,29.28,10.0,12.0,0.0
2,41.8407,-71.41799,Louisquisset Pike S,Providence,Providence,RI,57.0,57.0,100.0,29.06,1.0,20.0,0.08
2,41.551676,-73.05005899999999,I-84 E,Waterbury,New Haven,CT,32.0,26.0,73.0,29.01,10.0,7.0,0.0
2,42.587982000000004,-71.313271,US-3 S,Chelmsford,Middlesex,MA,44.0,36.0,42.0,29.87,10.0,17.0,0.0
3,42.95686,-71.436256,S Willow St,Manchester,Hillsborough,NH,31.0,21.0,85.0,29.68,0.5,13.0,0.02
2,42.269997,-71.200455,I-95 S,Needham,Norfolk,MA,60.0,60.0,60.0,30.16,10.0,9.0,0.0
2,43.811062,-70.159775,I-295 N,Yarmouth,Cumberland,ME,20.0,7.0,65.0,30.06,10.0,14.0,0.0
2,42.433098,-71.01792900000001,Northeast Expy S,Revere,Suffolk,MA,41.0,35.0,65.0,30.2,10.0,10.0,0.0
2,41.202453000000006,-73.19279499999999,CT-25 S,Bridgeport,Fairfield,CT,40.0,35.0,73.0,30.36,10.0,7.0,0.0
2,42.299389,-71.073647,Washington St,Dorchester,Suffolk,MA,84.0,84.0,61.0,29.9,10.0,10.0,0.0
3,41.781845000000004,-71.42351500000001,RI-10 S,Cranston,Providence,RI,50.0,50.0,80.0,30.37,10.0,12.0,0.0
2,41.228266,-73.244851,CT-15 N,Trumbull,Fairfield,CT,51.0,51.0,59.0,30.1,10.0,3.0,0.0
4,42.3042,-71.08244,Seaver St,Dorchester,Suffolk,MA,41.0,31.0,93.0,29.79,2.0,24.0,0.0
2,43.26899,-71.093239,Strafford Rd,Strafford,Strafford,NH,69.0,69.0,68.0,30.0,10.0,6.0,0.0
3,44.1068,-71.15952, White Mountain Rd,Intervale,Carroll,NH,72.0,72.0,34.0,23.97,10.0,9.0,0.0
3,42.54253,-71.88301,MA-2 E,Westminster,Worcester,MA,80.0,80.0,20.0,29.23,10.0,15.0,0.0
2,41.763399,-72.641462,I-84 E,East Hartford,Hartford,CT,49.0,49.0,66.0,29.91,10.0,0.0,0.0
2,42.374451,-71.253212,Weston St,Waltham,Middlesex,MA,41.0,33.0,89.0,29.38,6.0,14.0,0.04
3,42.526866999999996,-70.95671800000001,MA-128 N,Peabody,Essex,MA,70.0,70.0,68.0,30.11,10.0,14.0,0.0
2,41.236892,-73.14674699999999,CT-15 N,Trumbull,Fairfield,CT,69.0,69.0,42.0,30.12,10.0,13.0,0.0
3,41.855938,-71.406189,I-95 S,Providence,Providence,RI,64.0,64.0,78.0,29.53,10.0,3.0,0.0
2,42.95459,-71.44256999999999,I-293 S,Manchester,Hillsborough,NH,35.0,26.0,54.0,29.51,10.0,15.0,0.0
2,41.7452,-71.4438,I-95 N,Warwick,Kent,RI,46.0,41.0,93.0,29.22,2.0,12.0,0.16
2,41.763935,-72.693938,I-84 E,Hartford,Hartford,CT,53.0,53.0,57.0,30.23,10.0,13.0,0.0
2,43.02042,-72.832626,French Hill Rd,Wardsboro,Windham,VT,30.0,30.0,88.0,29.57,2.0,0.0,0.0
2,42.081108,-71.032883,Belmont Ave,Brockton,Plymouth,MA,44.0,40.0,73.0,30.08,10.0,7.0,0.0
2,42.435696,-71.020264,Northeast Expy S,Revere,Suffolk,MA,40.0,33.0,86.0,29.57,3.0,12.0,0.0
2,41.908559999999994,-71.511715,I-295 S,Smithfield,Providence,RI,21.0,8.0,92.0,29.6,10.0,15.0,0.0
2,42.642761,-71.23397800000001,Andover St,Tewksbury,Middlesex,MA,41.0,38.0,55.0,29.75,10.0,5.0,0.0
2,41.737465,-72.664436,I-91 N,Hartford,Hartford,CT,43.0,38.0,93.0,29.94,1.0,8.0,0.0
3,41.512463000000004,-71.692299,I-95 S,Wyoming,Washington,RI,47.0,42.0,66.0,30.13,10.0,10.0,0.0
2,42.568748,-70.97174100000001,Centre St,Danvers,Essex,MA,30.0,23.0,85.0,29.81,1.0,7.0,0.01
3,41.73141,-72.66235,I-91 S,Hartford,Hartford,CT,39.0,31.0,93.0,30.34,3.0,14.0,0.03
2,41.393603999999996,-72.87447399999999,CT-15 S,North Haven,New Haven,CT,32.0,25.0,20.0,30.27,10.0,8.0,0.0
2,41.424647,-73.355981,I-84 W,Newtown,Fairfield,CT,44.0,42.0,100.0,29.58,10.0,5.0,0.0
3,42.729534,-71.139877,I-495 S,Methuen,Essex,MA,49.0,45.0,54.0,30.11,10.0,10.0,0.0
3,41.851475,-72.664429,I-91 N,Windsor,Hartford,CT,59.0,59.0,36.0,29.66,10.0,16.0,0.0
2,41.365829999999995,-72.92282,CT-15 S,Hamden,New Haven,CT,42.0,37.0,73.0,30.44,10.0,8.0,0.0
2,41.544073,-72.784888, Broad St,Meriden,New Haven,CT,50.0,50.0,41.0,30.08,10.0,10.0,0.0
3,41.166924,-73.205139,Wordin Ave,Bridgeport,Fairfield,CT,80.0,80.0,67.0,30.0,10.0,13.0,0.0
3,41.750607,-72.71714,I-84 W,West Hartford,Hartford,CT,29.0,23.0,54.0,30.24,10.0,6.0,0.0
3,41.50691,-72.11506999999999,CT-2A E,Norwich,New London,CT,52.0,52.0,59.0,30.01,10.0,10.0,0.0
2,42.80389,-71.097977,Main St,Haverhill,Essex,MA,29.0,29.0,58.0,30.23,10.0,3.0,0.0
3,41.299534,-72.915779,Governor John Davis Lodge Tpke S,New Haven,New Haven,CT,55.0,55.0,96.0,30.08,2.0,6.0,0.04
2,41.95285,-70.83313000000001,Cross St,Plympton,Plymouth,MA,34.0,34.0,67.0,29.84,10.0,3.0,0.0
2,41.337701,-72.978605,CT-15 S,New Haven,New Haven,CT,78.0,78.0,42.0,29.79,10.0,14.0,0.0
2,41.751186,-72.70288599999999,US-6 E,Hartford,Hartford,CT,51.0,51.0,63.0,30.2,10.0,7.0,0.0
2,42.271366,-71.17261500000001,Spring St,West Roxbury,Suffolk,MA,42.0,35.0,60.0,29.9,10.0,14.0,0.0
2,42.330585,-71.061317,I-93 N,Boston,Suffolk,MA,69.0,69.0,53.0,30.08,10.0,8.0,0.0
3,42.089079999999996,-71.22243,I-95 N,Foxboro,Norfolk,MA,41.0,37.0,55.0,30.15,10.0,6.0,0.0
2,42.106578999999996,-71.230049,I-95 N,Sharon,Norfolk,MA,46.0,41.0,58.0,29.66,10.0,12.0,0.0
2,43.81899,-73.19362, Route 30,Brandon,Rutland,VT,38.0,31.0,83.0,29.41,7.0,10.0,0.0
3,42.419708,-71.103928,I-93 N,Medford,Middlesex,MA,86.0,86.0,48.0,29.74,10.0,12.0,0.0
2,42.205875,-71.14053299999999,I-95 N,Canton,Norfolk,MA,50.0,50.0,54.0,30.25,10.0,7.0,0.0
2,42.771961,-71.46759,Courtland St,Nashua,Hillsborough,NH,83.0,83.0,47.0,29.76,10.0,12.0,0.0
2,42.371552,-71.069801,US-1 N,Cambridge,Middlesex,MA,55.0,55.0,72.0,29.7,8.0,22.0,0.0
2,41.869751,-71.425797,Charles St,North Providence,Providence,RI,74.0,74.0,71.0,29.5,10.0,0.0,0.0
2,41.105755,-73.425568,Governor John Davis Lodge Tpke,Norwalk,Fairfield,CT,52.0,52.0,97.0,29.2,10.0,17.0,0.0
2,42.318596,-71.06349200000001,Columbia Rd,Dorchester,Suffolk,MA,48.0,41.0,80.0,30.2,8.0,20.0,0.0
3,42.02414,-71.26135,I-95 S,Mansfield,Bristol,MA,57.0,57.0,69.0,29.82,10.0,0.0,0.0
3,41.10693,-73.419075,West Ave,Norwalk,Fairfield,CT,81.0,81.0,36.0,29.48,10.0,6.0,0.0
2,42.294418,-71.083588,Wales St,Dorchester Center,Suffolk,MA,50.0,50.0,86.0,29.94,10.0,7.0,0.0
2,41.237373,-73.188889,CT-25 N,Trumbull,Fairfield,CT,63.0,63.0,90.0,29.46,4.0,26.0,0.16
3,41.166924,-73.205139,Wordin Ave,Bridgeport,Fairfield,CT,48.0,44.0,56.0,30.12,10.0,9.0,0.0
2,41.173893,-73.19445,CT-25 S,Bridgeport,Fairfield,CT,74.0,74.0,64.0,29.97,10.0,8.0,0.0
2,42.059731,-71.06611600000001,Belmont St,Brockton,Plymouth,MA,46.0,43.0,44.0,29.82,10.0,6.0,0.0
2,43.53804,-72.39012,I-91 N,Hartland,Windsor,VT,41.0,37.0,57.0,28.91,10.0,6.0,0.0
2,42.294666,-71.087997,Blue Hill Ave,Dorchester Center,Suffolk,MA,42.0,34.0,67.0,29.83,10.0,16.0,0.0
3,42.574259999999995,-71.14998,I-93 N,Wilmington,Middlesex,MA,57.0,57.0,36.0,29.68,10.0,9.0,0.0
2,42.415508,-71.257347,I-95 S,Waltham,Middlesex,MA,42.0,42.0,51.0,29.75,10.0,3.0,0.0
2,42.99091,-71.44632,Hall St,Manchester,Hillsborough,NH,37.0,30.0,57.0,29.49,10.0,9.0,0.0
2,41.51482,-73.04947800000001,Ansonia Derby Expy S,Naugatuck,New Haven,CT,63.0,63.0,100.0,29.48,4.0,3.0,0.0
2,41.208009999999994,-73.094583,I-95 S,Milford,New Haven,CT,57.0,57.0,45.0,30.05,10.0,12.0,0.0
3,41.86006,-71.48924, Putnam Pike,Johnston,Providence,RI,44.0,37.0,58.0,29.25,10.0,14.0,0.0
2,42.963879,-71.414436,NH-101 W,Manchester,Hillsborough,NH,75.0,75.0,60.0,29.96,10.0,7.0,0.0
2,41.90671,-71.89317,I-395 S,Putnam,Windham,CT,45.0,39.0,86.0,29.47,8.0,13.0,0.0
2,41.567768,-72.650566,Saint Johns Sq,Middletown,Middlesex,CT,14.0,14.0,92.0,30.3,7.0,0.0,0.0
4,41.42688,-72.6356, Route 148,Killingworth,Middlesex,CT,37.0,31.0,28.0,30.21,10.0,9.0,0.0
2,42.40096,-71.15233,Concord Tpke W,Arlington,Middlesex,MA,40.0,35.0,68.0,30.05,10.0,7.0,0.0
2,41.77681,-71.42644200000001,I-95 S,Cranston,Providence,RI,44.0,36.0,76.0,29.96,10.0,17.0,0.0
3,41.800743,-71.402214,Thurbers Ave,Providence,Providence,RI,64.0,64.0,90.0,30.12,10.0,12.0,0.0
2,41.120978,-73.328064,Governor John Davis Lodge Tpke,Westport,Fairfield,CT,60.0,60.0,86.0,30.21,5.0,8.0,0.0
2,42.280949,-71.09264399999999,Blue Hill Ave,Mattapan,Suffolk,MA,71.0,71.0,61.0,29.89,10.0,0.0,0.0
3,42.31859,-71.05201,I-93 S,Dorchester,Suffolk,MA,68.0,68.0,55.0,30.37,10.0,13.0,0.0
4,41.76144,-73.15254, Clark Rd,Litchfield,Litchfield,CT,86.0,86.0,49.0,29.25,10.0,7.0,0.0
2,42.339157,-71.064285,I-93 S,Boston,Suffolk,MA,32.0,22.0,32.0,30.21,10.0,15.0,0.0
2,41.80205,-72.65661,I-91 S,Hartford,Hartford,CT,38.0,33.0,79.0,30.05,10.0,7.0,0.0
3,42.32099,-71.11659, Jamaicaway,Jamaica Plain,Suffolk,MA,39.0,30.0,70.0,30.02,10.0,16.0,0.0
2,41.66493,-72.846468,I-84 E,Plainville,Hartford,CT,27.0,22.0,63.0,30.0,10.0,5.0,0.0
2,42.274822,-71.050812,Granite Ave,Milton,Norfolk,MA,77.0,77.0,52.0,30.25,10.0,8.0,0.0
2,41.236892,-73.14674699999999,CT-15 N,Trumbull,Fairfield,CT,67.0,67.0,47.0,29.93,10.0,15.0,0.0
2,44.60284,-70.20475, US Route 2 E,Wilton,Franklin,ME,35.0,29.0,46.0,30.23,10.0,7.0,0.0
2,43.207561,-71.853767,Bradford Rd,Henniker,Merrimack,NH,28.0,28.0,92.0,30.01,4.0,0.0,0.0
2,42.547371000000005,-70.983109,Newbury St,Peabody,Essex,MA,47.0,42.0,56.0,29.96,10.0,10.0,0.0
3,42.362701,-71.590141,I-290 E,Marlborough,Middlesex,MA,13.0,13.0,54.0,30.26,10.0,0.0,0.0
2,42.7356,-71.323174,Mossey Ln,Pelham,Hillsborough,NH,58.0,58.0,36.0,30.01,10.0,9.0,0.0
2,41.902592,-71.447296,Breakneck Hill Rd,Lincoln,Providence,RI,30.0,24.0,93.0,29.67,10.0,6.0,0.0
2,42.537163,-71.134827,Lowell St,Wilmington,Middlesex,MA,89.0,89.0,38.0,29.81,10.0,7.0,0.0
2,42.729549,-71.205017,I-93 S,Methuen,Essex,MA,30.0,30.0,61.0,30.24,10.0,3.0,0.0
3,41.046616,-73.5448,I-95 N,Stamford,Fairfield,CT,83.0,83.0,65.0,29.55,10.0,8.0,0.0
2,41.293669,-72.77764599999999,Governor John Davis Lodge Tpke S,Branford,New Haven,CT,58.0,58.0,93.0,30.02,6.0,0.0,0.0
2,41.538734000000005,-72.809081, W Main St,Meriden,New Haven,CT,57.0,57.0,77.0,29.81,10.0,18.0,0.0
3,42.288685,-71.04298399999999,I-93 N,Dorchester,Suffolk,MA,51.0,51.0,63.0,30.32,10.0,8.0,0.0
2,42.96519,-70.85606999999999,I-95 S,North Hampton,Rockingham,NH,19.0,11.0,90.0,29.67,0.63,6.0,0.06
3,41.965527,-71.872726,I-395 N,Thompson,Windham,CT,45.0,45.0,100.0,29.41,10.0,3.0,0.01
3,42.538536,-71.49324,I-495 N,Littleton,Middlesex,MA,76.0,76.0,46.0,29.71,10.0,18.0,0.0
3,41.870059999999995,-71.40038299999999,I-95 S,Pawtucket,Providence,RI,84.0,84.0,63.0,29.57,10.0,3.0,0.0
2,42.284248,-71.081131,Norfolk St,Dorchester Center,Suffolk,MA,65.0,65.0,84.0,30.0,10.0,6.0,0.0
3,42.503304,-71.10282099999999,I-95 N,Reading,Middlesex,MA,22.0,9.0,85.0,29.9,10.0,14.0,0.0
2,42.129063,-71.224556,I-95 N,Sharon,Norfolk,MA,82.0,82.0,49.0,30.1,10.0,14.0,0.0
2,42.3708,-71.269104,I-95 N,Waltham,Middlesex,MA,37.0,33.0,62.0,29.66,10.0,5.0,0.0
2,42.125374,-71.061844,Harrison Blvd,Avon,Norfolk,MA,40.0,40.0,89.0,30.13,6.0,0.0,0.0
2,42.330059000000006,-71.033173,Columbia Rd,Boston,Suffolk,MA,48.0,42.0,28.0,29.99,10.0,16.0,0.0
2,41.1684,-73.19998299999999,Governor John Davis Lodge Tpke,Bridgeport,Fairfield,CT,37.0,29.0,73.0,30.29,10.0,13.0,0.0
3,41.819247999999995,-71.389572,I-195 W,Providence,Providence,RI,72.0,72.0,93.0,29.44,4.0,23.0,0.02
2,42.132381,-72.546082,Bay St,Springfield,Hampden,MA,29.0,21.0,38.0,30.09,10.0,8.0,0.0
3,42.627781,-71.271034,I-495 N,Tewksbury,Middlesex,MA,44.0,41.0,79.0,30.19,10.0,6.0,0.0
2,42.319672,-71.066109,Humphreys St,Dorchester,Suffolk,MA,32.0,24.0,44.0,30.11,10.0,10.0,0.0
2,41.843281,-71.41925,Louisquisset Pike N,Providence,Providence,RI,27.0,22.0,51.0,29.98,10.0,5.0,0.0
3,41.108776,-73.405991,Governor John Davis Lodge Tpke,Norwalk,Fairfield,CT,77.0,77.0,71.0,29.92,10.0,9.0,0.0
3,42.583999999999996,-71.15786700000001,I-93 S,Wilmington,Middlesex,MA,72.0,72.0,87.0,29.54,10.0,6.0,0.0
4,41.64626,-72.67403,I-91 N,Rocky Hill,Hartford,CT,85.0,85.0,28.0,29.98,10.0,9.0,0.0
2,41.287833,-72.534152,Governor John Davis Lodge Tpke S,Clinton,Middlesex,CT,66.0,66.0,68.0,29.25,10.0,9.0,0.0
2,42.86531,-71.94572, Wilton Rd,Peterborough,Hillsborough,NH,31.0,24.0,72.0,28.47,10.0,7.0,0.0
3,41.319916,-72.34168199999999,Governor John Davis Lodge Tpke S,Old Lyme,New London,CT,81.0,81.0,37.0,29.51,10.0,7.0,0.0
2,41.974971999999994,-71.53220400000001,N Smithfield Expy S,North Smithfield,Providence,RI,25.0,18.0,55.0,30.01,10.0,6.0,0.0
3,41.288391,-72.820183,I-95 S,Branford,New Haven,CT,64.0,64.0,56.0,29.95,10.0,0.0,0.0
2,43.126948999999996,-71.45461999999999,Main St,Allenstown,Merrimack,NH,32.0,20.0,45.0,29.31,10.0,21.0,0.0
2,43.07862,-71.47218000000001,I-93 N,Hooksett,Merrimack,NH,82.0,82.0,67.0,29.29,10.0,7.0,0.01
2,41.297253999999995,-72.739419,Governor John Davis Lodge Tpke S,Guilford,New Haven,CT,57.0,57.0,100.0,29.89,10.0,3.0,0.0
2,41.825771,-71.425812,RI-10 N,Providence,Providence,RI,39.0,29.0,41.0,29.46,10.0,22.0,0.0
3,41.10693,-73.419075,West Ave,Norwalk,Fairfield,CT,44.0,39.0,49.0,30.01,10.0,10.0,0.0
2,42.157021,-71.069061,MA-24 S,Stoughton,Norfolk,MA,54.0,54.0,86.0,30.07,5.0,0.0,0.0
2,42.289631,-71.093338,Senator Bolling Cir,Dorchester Center,Suffolk,MA,76.0,76.0,56.0,29.87,10.0,7.0,0.0
3,41.39261,-73.52794,I-84 E,Danbury,Fairfield,CT,48.0,48.0,71.0,29.86,10.0,0.0,0.0
2,42.559151,-71.319183,Stage Rd,North Billerica,Middlesex,MA,70.0,70.0,42.0,30.02,10.0,9.0,0.0
2,41.73145,-70.45945,Mid Cape Hwy,East Sandwich,Barnstable,MA,66.0,66.0,37.0,29.83,10.0,9.0,0.0
2,41.79733,-71.40356,I-95 N,Providence,Providence,RI,70.0,70.0,17.0,30.12,10.0,15.0,0.0
2,42.323139000000005,-71.07330300000001,Dudley St,Roxbury,Suffolk,MA,45.0,37.0,56.0,29.46,10.0,18.0,0.0
2,42.36678,-71.06085999999999,I-93 N,Boston,Suffolk,MA,54.0,54.0,64.0,29.86,10.0,9.0,0.0
2,41.808699,-71.404752,I-95 N,Providence,Providence,RI,30.0,21.0,72.0,29.65,10.0,12.0,0.0
3,41.235240000000005,-73.02929,I-95 S,Milford,New Haven,CT,38.0,29.0,89.0,29.95,8.0,16.0,0.2
2,42.353221999999995,-71.134003,Brighton Ave,Allston,Suffolk,MA,42.0,36.0,82.0,30.01,1.0,10.0,0.01
4,41.436609999999995,-72.1097, Route 163,Uncasville,New London,CT,41.0,33.0,100.0,29.88,10.0,14.0,0.0
2,41.867496,-71.43070999999999,Eddie Dowling Hwy N,Providence,Providence,RI,39.0,33.0,60.0,29.36,10.0,9.0,0.0
2,41.732059,-70.14183,Golden Rod Path,South Dennis,Barnstable,MA,65.0,65.0,84.0,30.15,2.0,7.0,0.0
2,41.05206,-73.53113,I-95 S,Stamford,Fairfield,CT,39.0,32.0,93.0,29.21,2.0,10.0,0.02
3,41.252777,-73.00018299999999,Governor John Davis Lodge Tpke N,Orange,New Haven,CT,39.0,30.0,46.0,30.33,10.0,17.0,0.0
3,41.885681,-71.37870799999999,I-95 N,Pawtucket,Providence,RI,49.0,46.0,33.0,29.56,10.0,7.0,0.0
2,42.686316999999995,-71.143089,Winthrop Ave,Lawrence,Essex,MA,53.0,53.0,29.0,29.69,10.0,20.0,0.0
2,41.233018,-73.03738,I-95 N,Milford,New Haven,CT,35.0,35.0,54.0,29.71,10.0,3.0,0.0
2,42.386539,-71.090561,Pearl St,Somerville,Middlesex,MA,71.0,71.0,87.0,29.99,10.0,8.0,0.0
3,42.214034999999996,-71.5467,W Main St,Hopkinton,Middlesex,MA,30.0,21.0,72.0,29.62,10.0,10.0,0.0
2,42.018188,-70.887215,Elm St,Halifax,Plymouth,MA,49.0,44.0,93.0,29.51,4.0,13.0,0.12
3,42.29286,-71.48479,I-90 W,Framingham,Middlesex,MA,45.0,41.0,86.0,30.31,1.0,7.0,0.01
2,42.837521,-71.98050699999999,Peterborough St,Jaffrey,Hillsborough,NH,24.0,24.0,84.0,28.72,1.0,3.0,0.04
2,42.214226000000004,-71.151276,I-95 N,Dedham,Norfolk,MA,24.0,24.0,77.0,30.57,10.0,0.0,0.0
3,41.92985,-71.3223,I-95 N,Attleboro,Bristol,MA,52.0,52.0,57.0,29.3,10.0,8.0,0.0
2,41.120526,-73.373995,Governor John Davis Lodge Tpke,Westport,Fairfield,CT,42.0,42.0,79.0,30.06,10.0,0.0,0.0
2,42.4262,-71.10309000000001,I-93 N,Medford,Middlesex,MA,33.0,24.0,92.0,29.83,2.0,12.0,0.06
2,42.02726,-70.737381,MA-53,Duxbury,Plymouth,MA,50.0,50.0,82.0,30.3,10.0,9.0,0.0
2,42.335547999999996,-71.04155,E Broadway,Boston,Suffolk,MA,41.0,35.0,76.0,29.76,10.0,9.0,0.0
2,41.179062,-73.194962,CT-25 S,Bridgeport,Fairfield,CT,43.0,37.0,49.0,30.18,10.0,10.0,0.0
3,42.146770000000004,-72.55085,US-20 W,Springfield,Hampden,MA,1.0,1.0,81.0,30.16,10.0,0.0,0.0
2,41.82846,-73.10729,James H Darcey Memorial Hwy S,Torrington,Litchfield,CT,43.0,35.0,62.0,29.13,10.0,16.0,0.0
2,41.765481,-72.690128,I-84 W,Hartford,Hartford,CT,45.0,45.0,60.0,30.12,10.0,0.0,0.0
2,41.415131,-71.907639,New London Tpke,Stonington,New London,CT,70.0,70.0,90.0,29.96,7.0,0.0,0.0
3,41.343166,-72.231789,Governor John Davis Lodge Tpke S,East Lyme,New London,CT,38.0,33.0,39.0,30.15,10.0,6.0,0.0
2,42.313347,-71.274757,Worcester St,Wellesley Hills,Norfolk,MA,42.0,34.0,28.0,29.77,10.0,16.0,0.0
2,42.54749,-71.81143,MA-2 W,Fitchburg,Worcester,MA,32.0,23.0,42.0,29.28,10.0,13.0,0.0
2,42.269192,-71.301727,Dover Rd,Dover,Norfolk,MA,33.0,33.0,82.0,30.32,5.0,0.0,0.0
2,42.533939000000004,-70.95030200000001,MA-128 N,Peabody,Essex,MA,38.0,29.0,86.0,30.01,2.0,17.0,0.03
2,42.213314000000004,-71.15181700000001,Blue Hill Dr,Westwood,Norfolk,MA,43.0,35.0,56.0,29.47,10.0,17.0,0.0
3,42.3205,-71.17514, Boylston St,Chestnut Hill,Middlesex,MA,55.0,55.0,17.0,29.91,10.0,12.0,0.0
2,42.42971,-71.018158,Northeast Expy S,Revere,Suffolk,MA,48.0,42.0,93.0,29.01,8.0,14.0,0.02
3,42.392452,-71.08444200000001,I-93 S,Somerville,Middlesex,MA,79.0,79.0,34.0,29.68,10.0,18.0,0.0
4,41.49848,-72.95356, Cheshire Rd,Prospect,New Haven,CT,41.0,37.0,65.0,29.78,10.0,6.0,0.0
3,41.742509999999996,-72.66301999999999,I-91 S,Hartford,Hartford,CT,63.0,63.0,72.0,29.88,10.0,9.0,0.0
2,42.627959999999995,-71.17895,I-93 S,Andover,Essex,MA,41.0,41.0,53.0,29.95,10.0,0.0,0.0
3,41.27264,-72.970589,Governor John Davis Lodge Tpke N,West Haven,New Haven,CT,36.0,29.0,55.0,30.4,10.0,9.0,0.0
2,42.358383,-71.147903,I-90 W,Brighton,Suffolk,MA,57.0,57.0,96.0,29.76,3.0,12.0,0.4
2,41.584872,-72.053242,I-395 S,Norwich,New London,CT,65.0,65.0,75.0,30.16,10.0,9.0,0.0
3,42.07343,-72.58610999999999,I-91 S,Longmeadow,Hampden,MA,45.0,39.0,86.0,30.02,10.0,12.0,0.0
2,41.106429999999996,-73.415526,Governor John Davis Lodge Tpke,Norwalk,Fairfield,CT,65.0,65.0,93.0,29.44,10.0,5.0,0.0
3,42.779846,-71.116302,I-495 N,Haverhill,Essex,MA,52.0,52.0,63.0,29.62,10.0,9.0,0.0
3,42.7842,-71.4944,Everett Tpke N,Nashua,Hillsborough,NH,39.0,34.0,100.0,29.77,10.0,7.0,0.01
2,42.312271,-71.114151,Centre St,Jamaica Plain,Suffolk,MA,36.0,30.0,31.0,30.06,10.0,7.0,0.0
2,42.341888,-71.14589699999999,Colborne Rd,Brighton,Suffolk,MA,32.0,24.0,52.0,30.54,10.0,9.0,0.0
3,42.38511,-71.04735,US-1 N,Charlestown,Suffolk,MA,40.0,34.0,40.0,29.93,10.0,9.0,0.0
2,41.384289,-72.89411199999999,CT-15 S,North Haven,New Haven,CT,40.0,33.0,49.0,29.85,10.0,13.0,0.0
2,42.800625,-71.092789,I-495 S,Haverhill,Essex,MA,45.0,41.0,25.0,30.15,10.0,7.0,0.0
2,41.58137,-72.317162, Northern Blvd,Colchester,New London,CT,44.0,39.0,89.0,29.4,5.0,10.0,0.02
2,42.503395000000005,-71.13046999999999,I-95 S,Woburn,Middlesex,MA,84.0,84.0,51.0,29.63,10.0,8.0,0.0
2,41.551328000000005,-73.037915,I-84 W,Waterbury,New Haven,CT,34.0,27.0,70.0,28.99,10.0,8.0,0.0
2,41.749718,-71.441788,I-95 N,Warwick,Kent,RI,73.0,73.0,76.0,29.99,10.0,6.0,0.0
2,43.19397,-71.14961, 1st NH Tpke,Northwood,Rockingham,NH,63.0,63.0,78.0,29.57,10.0,0.0,0.0
2,41.669703999999996,-72.833702,CT-72 W,Plainville,Hartford,CT,62.0,62.0,90.0,29.8,5.0,12.0,0.0
3,42.347649,-71.081123,I-90 E,Boston,Suffolk,MA,29.0,19.0,36.0,30.43,10.0,12.0,0.0
2,46.1407,-68.00135999999999,I-95 S,Houlton,Aroostook,ME,13.0,3.0,84.0,29.4,0.75,7.0,0.02
2,42.476490000000005,-71.223061,I-95 S,Lexington,Middlesex,MA,84.0,84.0,51.0,29.63,10.0,8.0,0.0
2,42.283611,-71.089272,Morton St,Mattapan,Suffolk,MA,63.0,63.0,67.0,30.26,10.0,12.0,0.0
3,41.289932,-72.66561899999999,Governor John Davis Lodge Tpke S,Guilford,New Haven,CT,86.0,86.0,62.0,29.56,10.0,9.0,0.0
2,42.373379,-71.037338,Havre St,Boston,Suffolk,MA,76.0,76.0,79.0,29.75,10.0,10.0,0.0
2,41.44429,-72.79066,I-91 N,Wallingford,New Haven,CT,58.0,58.0,22.0,30.11,10.0,12.0,0.0
3,41.325066,-72.882164,I-91 S,New Haven,New Haven,CT,73.0,73.0,79.0,29.99,10.0,9.0,0.0
3,41.814693,-71.411636,I-95 S,Providence,Providence,RI,65.0,65.0,93.0,30.05,10.0,3.0,0.0
2,42.33168,-71.067993,Southampton St,Boston,Suffolk,MA,37.0,28.0,70.0,30.5,9.0,16.0,0.0
2,42.499466,-71.157074,I-95 N,Woburn,Middlesex,MA,53.0,53.0,55.0,29.67,10.0,12.0,0.0
3,43.732609000000004,-70.230301,I-295 S,Falmouth,Cumberland,ME,12.0,-5.0,92.0,29.99,0.25,16.0,0.09
2,42.779846,-71.116302,I-495 N,Haverhill,Essex,MA,73.0,73.0,81.0,29.83,10.0,12.0,0.0
2,41.390208,-73.517493,I-84 E,Danbury,Fairfield,CT,28.0,23.0,69.0,29.32,10.0,5.0,0.0
3,41.55085,-73.05662,I-84 E,Waterbury,New Haven,CT,62.0,62.0,39.0,29.26,10.0,14.0,0.0
2,41.742796000000006,-72.7348,I-84 E,West Hartford,Hartford,CT,39.0,39.0,93.0,30.11,1.0,3.0,0.0
2,43.47312,-71.58414,I-93 N,Tilton,Belknap,NH,36.0,36.0,79.0,29.78,10.0,3.0,0.0
2,41.556715000000004,-72.777778, N Broad St,Meriden,New Haven,CT,33.0,33.0,96.0,30.02,0.25,0.0,0.0
3,42.894669,-70.879944,NH-107,Seabrook,Rockingham,NH,72.0,72.0,56.0,29.75,10.0,9.0,0.0
2,42.394131,-71.116814,Willow Ave,Somerville,Middlesex,MA,27.0,22.0,41.0,30.43,10.0,5.0,0.0
2,41.55595,-72.642647,CT-17,Middletown,Middlesex,CT,27.0,16.0,56.0,30.05,10.0,14.0,0.0
2,42.36417,-71.11799599999999,Soldiers Field Rd,Allston,Suffolk,MA,43.0,37.0,76.0,30.04,10.0,10.0,0.0
2,41.854938,-72.423709,I-84 E,Vernon Rockville,Tolland,CT,51.0,51.0,68.0,30.12,10.0,5.0,0.0
2,43.17661,-71.6202,I-89 S,Contoocook,Merrimack,NH,44.0,40.0,60.0,29.59,10.0,7.0,0.0
2,41.08943,-73.454034,Governor John Davis Lodge Tpke,Darien,Fairfield,CT,69.0,69.0,42.0,29.42,10.0,7.0,0.0
2,41.00038,-73.65295,I-95 N,Greenwich,Fairfield,CT,37.0,33.0,96.0,29.04,1.0,5.0,0.01
2,42.096699,-70.964729,Brockton Ave,Abington,Plymouth,MA,72.0,72.0,59.0,29.79,10.0,8.0,0.0
2,41.78642,-71.43338,RI-10 N,Cranston,Providence,RI,29.0,29.0,69.0,30.35,10.0,3.0,0.0
4,44.439285,-73.114403,I-89 N,Williston,Chittenden,VT,37.0,31.0,67.0,29.36,10.0,8.0,0.0
2,42.242306,-71.027573,I-93 S,Quincy,Norfolk,MA,87.0,87.0,65.0,29.91,8.0,10.0,0.0
3,41.80162,-71.40229000000001,Lehigh St,Providence,Providence,RI,71.0,71.0,63.0,29.82,10.0,17.0,0.0
3,42.288685,-71.04298399999999,I-93 N,Dorchester,Suffolk,MA,79.0,79.0,31.0,29.96,10.0,7.0,0.0
3,42.549988,-71.480637,Great Rd,Littleton,Middlesex,MA,81.0,81.0,36.0,30.03,10.0,8.0,0.0
2,41.75009,-72.71556,I-84 W,West Hartford,Hartford,CT,41.0,36.0,40.0,30.03,10.0,8.0,0.0
2,42.366642,-71.063553,Nashua St,Boston,Suffolk,MA,44.0,40.0,49.0,30.49,10.0,7.0,0.0
3,41.55168,-73.03296,I-84 W,Waterbury,New Haven,CT,32.0,27.0,64.0,29.41,10.0,5.0,0.0
3,41.000549,-73.65276300000001,I-95 N,Greenwich,Fairfield,CT,39.0,39.0,49.0,29.9,10.0,0.0,0.0
2,42.34111,-71.26517,MA-128 S,Weston,Middlesex,MA,42.0,35.0,89.0,29.73,3.0,14.0,0.05
3,42.33215,-72.619934,I-91 N,Northampton,Hampshire,MA,69.0,69.0,66.0,29.66,10.0,6.0,0.0
2,41.842659999999995,-71.41113,I-95 S,Providence,Providence,RI,57.0,57.0,94.0,29.06,3.0,10.0,0.46
2,44.421378999999995,-71.684471,Simonds Rd,Dalton,Coos,NH,59.0,59.0,87.0,28.98,10.0,0.0,0.0
3,42.32785,-71.05878,I-93 N,Boston,Suffolk,MA,63.0,63.0,87.0,30.04,5.0,3.0,0.0
2,41.667345000000005,-71.48707399999999,I-95 N,East Greenwich,Kent,RI,43.0,35.0,60.0,29.59,10.0,16.0,0.0
4,42.07343,-72.58610999999999,I-91 S,Longmeadow,Hampden,MA,45.0,39.0,86.0,30.03,9.0,12.0,0.0
2,42.369911,-71.067268,US-1 S,Cambridge,Middlesex,MA,34.0,23.0,92.0,30.29,1.0,17.0,0.06
3,41.532799,-71.680992,I-95 N,Wyoming,Washington,RI,60.0,60.0,86.0,30.14,7.0,6.0,0.0
1,42.5459,-71.76005,MA-2 E,Leominster,Worcester,MA,47.0,45.0,39.0,29.74,10.0,5.0,0.0
4,41.76943,-72.67305, Main St,Hartford,Hartford,CT,68.0,68.0,84.0,29.69,10.0,9.0,0.0
3,42.51215,-71.00721999999999, Broadway,Lynnfield,Essex,MA,45.0,42.0,46.0,29.83,10.0,6.0,0.0
1,42.14954,-70.84268,MA-3 S,Hanover,Plymouth,MA,32.0,27.0,69.0,30.15,10.0,5.0,0.0
2,42.462021,-70.92849,Lynn Shore Dr,Lynn,Essex,MA,68.0,68.0,87.0,29.91,10.0,9.0,0.0
2,41.216229,-73.182388,CT-25 S,Bridgeport,Fairfield,CT,75.0,75.0,94.0,30.08,10.0,0.0,0.0
2,41.472498,-73.050574,Ansonia Derby Expy S,Naugatuck,New Haven,CT,27.0,14.0,66.0,29.5,10.0,17.0,0.0
2,41.749481,-72.70966700000001,I-84 E,Hartford,Hartford,CT,57.0,57.0,93.0,30.26,0.25,0.0,0.0
3,41.28537,-73.0435,CT-15 S,Orange,New Haven,CT,69.0,69.0,58.0,30.36,10.0,8.0,0.0
2,43.47102,-71.233261,Bay Hill Rd,Alton,Belknap,NH,62.0,62.0,58.0,29.19,10.0,7.0,0.0
3,43.29306,-71.57136,US-4 W,Canterbury,Merrimack,NH,57.0,57.0,28.0,29.89,10.0,5.0,0.0
3,41.122192,-73.331757,Sherwood Island Connector,Westport,Fairfield,CT,64.0,64.0,37.0,30.0,10.0,15.0,0.0
2,41.188488,-73.19368,CT-25 S,Bridgeport,Fairfield,CT,84.0,84.0,33.0,29.88,10.0,13.0,0.0
2,42.95779,-72.3303, Corporate Dr,Keene,Cheshire,NH,37.0,32.0,93.0,29.89,10.0,6.0,0.0
3,41.144386,-73.26463299999999,Governor John Davis Lodge Tpke,Fairfield,Fairfield,CT,55.0,55.0,89.0,30.04,2.0,12.0,0.08
2,42.374615000000006,-71.137466,Gerrys Landing Rd,Cambridge,Middlesex,MA,69.0,69.0,44.0,29.72,10.0,9.0,0.0
2,41.769365,-72.66126700000001,I-84 W,East Hartford,Hartford,CT,31.0,31.0,82.0,30.29,10.0,0.0,0.0
4,41.89777,-71.93106999999999, Wrights Crossing Rd,Pomfret Center,Windham,CT,39.0,31.0,86.0,29.31,10.0,14.0,0.0
3,41.955566,-71.305656,I-95 S,Attleboro,Bristol,MA,67.0,67.0,93.0,29.59,10.0,6.0,0.0
2,40.998999,-73.654747,I-95 S,Greenwich,Fairfield,CT,51.0,51.0,89.0,29.47,10.0,6.0,0.0
2,41.522729999999996,-72.81151, Old Colony Rd,Meriden,New Haven,CT,21.0,21.0,88.0,29.72,10.0,0.0,0.0
2,42.342251,-71.099182,Queensberry St,Boston,Suffolk,MA,69.0,69.0,63.0,30.07,10.0,12.0,0.0
3,42.287399,-71.042358,Redfield St,Dorchester,Suffolk,MA,68.0,68.0,87.0,29.82,10.0,8.0,0.0
2,41.551699,-73.050903,I-84 W,Waterbury,New Haven,CT,39.0,39.0,46.0,29.54,10.0,0.0,0.0
2,42.262821,-71.56244699999999,I-495 N,Hopkinton,Middlesex,MA,48.0,48.0,89.0,30.02,10.0,0.0,0.0
2,43.389990000000004,-71.97788,I-89 S,New London,Merrimack,NH,74.0,74.0,30.0,29.3,10.0,8.0,0.0
2,42.3848,-71.047623,Tobin Memorial Brg S,Charlestown,Suffolk,MA,53.0,53.0,96.0,29.95,3.0,13.0,0.02
3,41.81337,-71.408691,Crary St,Providence,Providence,RI,49.0,42.0,66.0,29.43,10.0,20.0,0.0
3,41.7852,-71.5039,I-295 N,Cranston,Providence,RI,65.0,65.0,21.0,29.74,10.0,9.0,0.0
2,41.190433,-73.134022, W Broad St,Stratford,Fairfield,CT,42.0,38.0,60.0,30.22,10.0,7.0,0.0
3,42.214034999999996,-71.5467,W Main St,Hopkinton,Middlesex,MA,30.0,23.0,66.0,29.65,10.0,7.0,0.0
2,42.737068,-72.02169,Dale Farm Rd,Rindge,Cheshire,NH,34.0,34.0,100.0,29.25,0.75,0.0,0.09
4,41.233234,-73.069374,I-95 S,Milford,New Haven,CT,70.0,70.0,90.0,29.99,6.0,5.0,0.07
3,41.233234,-73.069374,I-95 S,Milford,New Haven,CT,46.0,40.0,58.0,30.0,10.0,15.0,0.0
2,42.152859,-70.84597,Washington St,Hanover,Plymouth,MA,41.0,37.0,57.0,30.21,10.0,6.0,0.0
2,41.736923,-72.66458,I-91 N,Hartford,Hartford,CT,7.0,7.0,85.0,30.4,10.0,0.0,0.0
2,42.255829,-71.124123,Hyde Park Ave,Hyde Park,Suffolk,MA,53.0,53.0,50.0,30.01,10.0,7.0,0.0
2,41.224662,-73.183203,CT-25 S,Trumbull,Fairfield,CT,75.0,75.0,94.0,30.08,10.0,0.0,0.0
2,41.316998999999996,-72.905524,I-91 S,New Haven,New Haven,CT,63.0,63.0,93.0,30.0,7.0,3.0,0.0
2,41.765029999999996,-72.654579,CT-2 W,East Hartford,Hartford,CT,44.0,40.0,65.0,30.5,10.0,8.0,0.0
3,42.762203,-71.122849,I-495 S,Haverhill,Essex,MA,10.0,10.0,64.0,30.3,10.0,3.0,0.0
2,41.803482,-72.54571700000001,I-84 W,Manchester,Hartford,CT,71.0,71.0,90.0,30.06,1.0,0.0,0.0
2,41.621556,-72.692658,I-91 N,Cromwell,Middlesex,CT,47.0,43.0,90.0,29.7,2.0,9.0,0.01
2,42.664112,-71.194603,I-495 S,Andover,Essex,MA,78.0,78.0,48.0,29.63,10.0,9.0,0.0
2,42.064735,-71.401138,I-495 S,Franklin,Norfolk,MA,60.0,60.0,80.0,29.21,10.0,16.0,0.0
2,42.358727,-71.120995,Cambridge St,Allston,Suffolk,MA,39.0,33.0,70.0,29.9,10.0,9.0,0.0
2,41.28354,-72.941576,Governor John Davis Lodge Tpke S,West Haven,New Haven,CT,17.0,10.0,65.0,30.38,10.0,5.0,0.0
2,41.72383,-70.94634,MA-140 S,New Bedford,Bristol,MA,46.0,42.0,68.0,30.01,10.0,7.0,0.0
3,43.26123,-72.16226999999999,NH Route 10,Lempster,Sullivan,NH,30.0,25.0,92.0,29.45,4.0,5.0,0.01
4,41.45636,-72.83869,CT-15 S,Wallingford,New Haven,CT,50.0,50.0,63.0,29.9,10.0,7.0,0.0
2,41.53948,-72.7684,I-691 W,Meriden,New Haven,CT,33.0,33.0,70.0,30.23,10.0,0.0,0.0
2,41.7049,-72.64457,I-91 N,Wethersfield,Hartford,CT,35.0,35.0,100.0,29.66,1.0,0.0,0.01
2,42.751789,-71.48349,W Hollis St,Nashua,Hillsborough,NH,32.0,32.0,100.0,28.77,2.0,3.0,0.0
4,41.66968,-72.83388000000001,CT-72 W,Plainville,Hartford,CT,79.0,79.0,56.0,29.94,10.0,14.0,0.0
3,41.249516,-73.08000200000001,Corporate Campus II,Milford,New Haven,CT,59.0,59.0,48.0,30.32,10.0,8.0,0.0
2,42.29118,-71.062782,Dorchester Ave,Dorchester Center,Suffolk,MA,71.0,71.0,49.0,30.05,10.0,0.0,0.0
2,42.401749,-71.041527,Revere Beach Pkwy,Everett,Middlesex,MA,40.0,30.0,49.0,29.88,10.0,20.0,0.0
2,42.481083,-71.02131700000001,Broadway,Saugus,Essex,MA,31.0,21.0,46.0,30.08,10.0,14.0,0.0
2,42.499309999999994,-71.47324,MA-2 W,Littleton,Middlesex,MA,46.0,42.0,83.0,30.14,5.0,8.0,0.03
2,41.359809999999996,-73.08206899999999,Underhill Rd,Ansonia,New Haven,CT,51.0,51.0,36.0,29.17,10.0,3.0,0.0
2,41.542299,-72.979334,I-84 E,Waterbury,New Haven,CT,65.0,65.0,93.0,29.46,9.0,6.0,0.0
2,41.767196999999996,-71.429682, Woodbine St,Cranston,Providence,RI,60.0,60.0,86.0,30.07,10.0,7.0,0.0
2,43.584221,-71.388458,Dock Rd,Gilford,Belknap,NH,54.0,54.0,97.0,29.44,10.0,6.0,0.04
3,42.242306,-71.027573,I-93 S,Quincy,Norfolk,MA,81.0,81.0,60.0,29.87,10.0,6.0,0.0
3,41.78907,-71.41957099999999,I-95 S,Providence,Providence,RI,69.0,69.0,51.0,29.79,10.0,13.0,0.0
2,42.202831,-71.822315,I-90 W,Auburn,Worcester,MA,51.0,51.0,50.0,29.1,10.0,14.0,0.0
2,43.03025,-71.35481,NH-101 E,Auburn,Rockingham,NH,81.0,81.0,49.0,29.91,10.0,5.0,0.0
2,41.502327,-72.115252,CT-2A E,Norwich,New London,CT,36.0,31.0,73.0,29.74,10.0,6.0,0.0
2,42.272526,-71.11904100000001,American Legion Hwy,Roslindale,Suffolk,MA,41.0,36.0,53.0,30.12,10.0,7.0,0.0
3,41.088776,-73.455826,Governor John Davis Lodge Tpke,Darien,Fairfield,CT,73.0,73.0,81.0,29.65,10.0,14.0,0.0
2,41.148996999999994,-73.411289,E Rocks Rd,Norwalk,Fairfield,CT,32.0,27.0,82.0,30.37,10.0,5.0,0.0
3,41.769878000000006,-72.68264,Myrtle St,Hartford,Hartford,CT,43.0,36.0,35.0,30.16,10.0,15.0,0.0
2,41.821047,-71.41971,Service Road 8,Providence,Providence,RI,66.0,66.0,96.0,30.18,10.0,6.0,0.0
2,41.119708,-73.378671,Governor John Davis Lodge Tpke,Westport,Fairfield,CT,40.0,34.0,55.0,30.4,10.0,8.0,0.0
3,41.11757,-73.48787,Merritt Pkwy N,New Canaan,Fairfield,CT,58.0,58.0,93.0,29.27,1.0,20.0,0.31
3,42.398216,-71.260857,I-95 N,Waltham,Middlesex,MA,47.0,47.0,30.0,29.93,10.0,0.0,0.0
2,46.14399,-68.04284,I-95 S,Smyrna Mills,Aroostook,ME,33.0,24.0,78.0,29.49,10.0,12.0,0.0
2,42.34433,-71.067001,E Berkeley St,Boston,Suffolk,MA,36.0,28.0,70.0,29.9,10.0,12.0,0.0
2,41.750890000000005,-72.703174,I-84 E,Hartford,Hartford,CT,31.0,31.0,89.0,30.29,10.0,0.0,0.0
2,42.39307,-71.085899,Fellsway,Somerville,Middlesex,MA,77.0,77.0,40.0,30.1,10.0,6.0,0.0
2,42.361481,-71.11598199999999,River St,Cambridge,Middlesex,MA,37.0,26.0,39.0,29.67,10.0,21.0,0.0
2,42.87619,-71.471939,Charles Bancroft Hwy,Litchfield,Hillsborough,NH,56.0,56.0,87.0,29.71,10.0,0.0,0.0
3,41.818054,-71.396523,I-195 E,Providence,Providence,RI,90.0,90.0,43.0,29.91,10.0,17.0,0.0
2,42.398071,-71.1418,Alewife Brook Pkwy,Cambridge,Middlesex,MA,49.0,47.0,100.0,29.92,2.0,5.0,0.24
3,41.815113000000004,-71.370491,Freeborn Ave,East Providence,Providence,RI,56.0,56.0,93.0,30.04,9.0,8.0,0.01
3,42.744040000000005,-71.49067,US-3 N,Nashua,Hillsborough,NH,70.0,70.0,64.0,30.0,10.0,8.0,0.0
2,41.192454,-73.194919,CT-25 S,Bridgeport,Fairfield,CT,78.0,78.0,84.0,30.18,10.0,3.0,0.0
2,41.507084000000006,-73.14152299999999, Christian Rd,Middlebury,New Haven,CT,59.0,59.0,90.0,29.35,10.0,3.0,0.0
2,42.328216999999995,-71.251701,Washington St,Newton Lower Falls,Middlesex,MA,49.0,46.0,93.0,29.67,10.0,7.0,0.0
2,41.180479999999996,-73.19429699999999,CT-25 N,Bridgeport,Fairfield,CT,67.0,67.0,90.0,30.23,10.0,7.0,0.0
3,43.003819,-71.475433,Everett Tpke S,Manchester,Hillsborough,NH,39.0,35.0,55.0,29.78,10.0,6.0,0.0
2,43.201328000000004,-71.162949,1st NH Tpke,Northwood,Rockingham,NH,73.0,73.0,76.0,29.65,10.0,0.0,0.0
3,41.86603,-71.4027,I-95 S,Pawtucket,Providence,RI,51.0,51.0,54.0,29.13,10.0,3.0,0.0
2,42.156997,-71.069086,MA-24 S,Stoughton,Norfolk,MA,69.0,69.0,87.0,30.0,10.0,3.0,0.0
2,41.538734999999996,-73.000782,I-84 W,Waterbury,New Haven,CT,45.0,40.0,58.0,29.4,10.0,9.0,0.0
2,42.061909,-70.758842,Congress St,Duxbury,Plymouth,MA,52.0,52.0,82.0,30.4,10.0,14.0,0.0
3,41.76531,-72.65446,US-6 E,East Hartford,Hartford,CT,45.0,42.0,86.0,29.4,4.0,6.0,0.05
3,41.769878000000006,-72.68264,Myrtle St,Hartford,Hartford,CT,42.0,38.0,92.0,30.01,1.0,6.0,0.01
2,42.424325,-71.257676,I-95 N,Lexington,Middlesex,MA,50.0,50.0,96.0,29.6,10.0,8.0,0.03
2,41.730321,-72.660462,I-91 N,Hartford,Hartford,CT,55.0,55.0,77.0,30.29,10.0,6.0,0.0
2,41.564809999999994,-73.05792,CT-73,Waterbury,New Haven,CT,68.0,68.0,90.0,29.26,10.0,0.0,0.0
2,42.39138,-71.013176,William F McClellan Hwy,East Boston,Suffolk,MA,70.0,70.0,55.0,30.14,10.0,5.0,0.0
3,42.28034,-71.04635, Hallet St,Dorchester Center,Suffolk,MA,58.0,58.0,56.0,30.0,10.0,3.0,0.0
2,42.69813,-71.14175999999999,I-495 N,North Andover,Essex,MA,63.0,63.0,38.0,30.05,10.0,7.0,0.0
2,41.825987,-71.420615,US-6 E,Providence,Providence,RI,47.0,41.0,77.0,30.32,10.0,13.0,0.0
2,42.477325,-71.217232,I-95 S,Burlington,Middlesex,MA,43.0,39.0,86.0,29.84,10.0,7.0,0.0
2,42.40316,-71.056664,Lewis St,Everett,Middlesex,MA,44.0,34.0,93.0,29.67,1.0,31.0,0.0
2,41.7669,-72.65385,I-84 W,East Hartford,Hartford,CT,39.0,33.0,93.0,30.0,2.0,8.0,0.01
3,41.29094,-72.57458000000001,Governor John Davis Lodge Tpke S,Madison,New Haven,CT,68.0,68.0,88.0,29.52,10.0,0.0,0.0
2,42.157021,-71.069061,MA-24 S,Stoughton,Norfolk,MA,71.0,71.0,63.0,29.75,10.0,5.0,0.0
4,41.89778,-71.93101, Putnam Rd,Pomfret Center,Windham,CT,39.0,31.0,86.0,29.31,10.0,14.0,0.0
2,41.249767,-73.00401,Governor John Davis Lodge Tpke N,Orange,New Haven,CT,31.0,24.0,69.0,29.71,10.0,7.0,0.0
2,41.54555,-72.62931999999999,CT-9 N,Middletown,Middlesex,CT,38.0,34.0,68.0,29.82,10.0,5.0,0.0
2,41.500599,-73.04858399999999,Ansonia Derby Expy S,Naugatuck,New Haven,CT,60.0,60.0,78.0,29.19,10.0,12.0,0.0
2,41.704519,-72.644444,I-91 N,Wethersfield,Hartford,CT,55.0,55.0,69.0,30.2,10.0,6.0,0.0
3,42.35065,-71.11124000000001,Commonwealth Ave,Boston,Suffolk,MA,87.0,87.0,49.0,29.72,10.0,15.0,0.0
2,41.433616,-73.407329,US-7 S,Brookfield,Fairfield,CT,54.0,54.0,100.0,29.61,0.75,0.0,0.0
2,41.767519,-72.658156,I-84 E,East Hartford,Hartford,CT,42.0,42.0,96.0,29.94,0.25,0.0,0.0
2,42.321171,-71.05587,Columbia Rd,Dorchester,Suffolk,MA,67.0,67.0,59.0,30.07,10.0,15.0,0.0
2,41.731393,-72.662311,I-91 S,Hartford,Hartford,CT,50.0,50.0,71.0,30.06,10.0,5.0,0.0
2,42.576809000000004,-71.303871,Rangeway Rd,North Billerica,Middlesex,MA,71.0,71.0,87.0,29.53,10.0,8.0,0.0
2,42.287704,-71.10674300000001,American Legion Hwy,Roslindale,Suffolk,MA,61.0,61.0,38.0,30.21,10.0,9.0,0.0
3,42.94936,-71.454262,I-293 N,Manchester,Hillsborough,NH,86.0,86.0,46.0,29.66,10.0,12.0,0.0
2,41.234189,-73.041239,I-95 S,Milford,New Haven,CT,53.0,53.0,50.0,30.53,10.0,6.0,0.0
3,42.45795,-71.10191999999999,I-93 N,Stoneham,Middlesex,MA,82.0,82.0,62.0,29.76,10.0,22.0,0.0
2,42.374359000000005,-71.229919,Amory Rd,Waltham,Middlesex,MA,69.0,69.0,96.0,29.7,10.0,0.0,0.0
2,41.084071,-73.66527099999999,CT-15 S,Greenwich,Fairfield,CT,49.0,44.0,43.0,29.65,10.0,13.0,0.0
2,41.823475,-71.419296,Aborn St,Providence,Providence,RI,69.0,69.0,100.0,29.8,2.0,6.0,0.0
3,41.970290999999996,-71.295868,I-95 S,Attleboro Falls,Bristol,MA,40.0,37.0,77.0,29.7,10.0,5.0,0.0
3,41.288559,-72.530609,Governor John Davis Lodge Tpke S,Clinton,Middlesex,CT,9.0,9.0,62.0,30.16,10.0,0.0,0.0
2,42.370971999999995,-72.701431,Fort Hill Rd,Haydenville,Hampshire,MA,60.0,60.0,57.0,30.03,10.0,0.0,0.0
3,42.149139,-71.197998,I-95 N,East Walpole,Norfolk,MA,74.0,74.0,50.0,30.02,10.0,8.0,0.0
2,41.91907,-72.61474,I-91 N,East Windsor,Hartford,CT,50.0,50.0,26.0,29.8,10.0,10.0,0.0
2,42.352482,-71.061272,Essex St,Boston,Suffolk,MA,65.0,65.0,87.0,29.91,10.0,3.0,0.0
3,42.365615999999996,-71.05995899999999,I-93 S,Boston,Suffolk,MA,45.0,45.0,90.0,30.11,10.0,0.0,0.01
2,42.78985,-71.50143,N Southwood Dr,Nashua,Hillsborough,NH,21.0,21.0,100.0,29.81,10.0,0.0,0.0
2,43.073139000000005,-71.13922099999999,Raymond Rd,Nottingham,Rockingham,NH,35.0,24.0,72.0,29.61,10.0,18.0,0.0
4,41.89778,-71.93101, Putnam Rd,Pomfret Center,Windham,CT,40.0,31.0,83.0,29.27,10.0,16.0,0.0
2,41.829281,-71.515907,US-6 W,Johnston,Providence,RI,57.0,57.0,100.0,29.32,7.0,12.0,0.01
2,41.019065999999995,-73.632458,Field Point Rd,Greenwich,Fairfield,CT,58.0,58.0,37.0,29.77,10.0,8.0,0.0
3,42.35715,-71.12031,I-90 W,Allston,Suffolk,MA,75.0,75.0,66.0,30.12,10.0,15.0,0.0
2,41.274628,-73.117126,CT-8 S,Shelton,Fairfield,CT,46.0,44.0,89.0,30.01,4.0,5.0,0.08
3,41.81382,-71.44129000000001,US-6 E,Providence,Providence,RI,68.0,68.0,93.0,29.98,3.0,13.0,0.07
2,41.218306,-73.081521,I-95 S,Milford,New Haven,CT,34.0,29.0,61.0,30.25,10.0,6.0,0.0
4,41.84462,-72.48706, Talcottville Rd,Vernon Rockville,Tolland,CT,14.0,14.0,74.0,30.41,10.0,0.0,0.0
3,44.966228,-72.435928,VT Route 105 E,North Troy,Orleans,VT,11.0,11.0,69.0,29.6,10.0,3.0,0.0
2,41.14589,-73.25978,Governor John Davis Lodge Tpke,Fairfield,Fairfield,CT,42.0,36.0,41.0,30.04,10.0,12.0,0.0
3,41.06803,-73.49295,Governor John Davis Lodge Tpke,Darien,Fairfield,CT,78.0,78.0,62.0,29.13,10.0,12.0,0.0
2,41.731173999999996,-70.457436,Quaker Meeting House Rd,East Sandwich,Barnstable,MA,75.0,75.0,100.0,30.02,10.0,8.0,0.0
4,41.95581,-71.06985999999999, Broadway,Raynham,Bristol,MA,42.0,38.0,38.0,30.09,10.0,6.0,0.0
2,41.736526,-72.66459300000001,I-91 N,Hartford,Hartford,CT,59.0,59.0,32.0,30.5,10.0,6.0,0.0
2,42.31439,-71.36055,N Main St,Natick,Middlesex,MA,40.0,33.0,53.0,30.41,10.0,10.0,0.0
2,44.10184,-69.86785,I-295 N,Richmond,Sagadahoc,ME,71.0,71.0,78.0,29.7,10.0,3.0,0.0
2,42.129063,-71.224556,I-95 N,Sharon,Norfolk,MA,84.0,84.0,51.0,29.86,10.0,6.0,0.0
2,41.731578000000006,-72.62019699999999,CT-2 W,East Hartford,Hartford,CT,48.0,45.0,83.0,30.13,5.0,6.0,0.11
2,42.680019,-71.09458199999999,Appleton St,North Andover,Essex,MA,68.0,68.0,90.0,29.74,10.0,7.0,0.01
2,41.935147,-71.46686899999999,Eddie Dowling Hwy S,Lincoln,Providence,RI,37.0,31.0,93.0,29.59,10.0,8.0,0.0
2,41.91907,-72.61474,I-91 N,East Windsor,Hartford,CT,50.0,50.0,26.0,29.8,10.0,10.0,0.0
2,41.76963,-72.67305,US-6 E,Hartford,Hartford,CT,51.0,51.0,52.0,29.81,10.0,6.0,0.0
3,42.363281,-71.05765500000001,I-93 S,Boston,Suffolk,MA,56.0,56.0,44.0,30.46,10.0,10.0,0.0
2,41.943708,-71.47616,I-295 S,Lincoln,Providence,RI,39.0,39.0,96.0,29.58,10.0,3.0,0.0
3,42.274770000000004,-71.05026,I-93 N,Milton,Norfolk,MA,86.0,86.0,48.0,30.06,10.0,12.0,0.0
2,42.27219,-71.068031,Adams St,Dorchester Center,Suffolk,MA,66.0,66.0,42.0,29.87,10.0,3.0,0.0
2,41.762584000000004,-72.653864,CT-2 W,East Hartford,Hartford,CT,37.0,37.0,89.0,30.26,9.0,0.0,0.0
2,41.733131,-70.805511,Marion Rd,Rochester,Plymouth,MA,30.0,23.0,61.0,29.64,10.0,7.0,0.0
2,41.022420000000004,-73.617246,I-95 N,Greenwich,Fairfield,CT,40.0,31.0,51.0,29.25,10.0,17.0,0.0
2,41.375938,-71.816078,Tower St,Westerly,Washington,RI,62.0,62.0,62.0,30.1,10.0,9.0,0.0
2,42.99913,-70.93557,Exeter Hampton Expy E,Stratham,Rockingham,NH,37.0,33.0,93.0,29.96,1.0,6.0,0.0
2,41.087912,-73.45704599999999,Governor John Davis Lodge Tpke,Darien,Fairfield,CT,26.0,19.0,60.0,30.03,10.0,6.0,0.0
3,41.769878000000006,-72.68264,Myrtle St,Hartford,Hartford,CT,73.0,73.0,84.0,29.83,10.0,6.0,0.0
2,42.39423,-71.067398,Alford St,Charlestown,Suffolk,MA,46.0,38.0,44.0,29.52,10.0,22.0,0.0
2,41.71154,-71.40203100000001,Sandy Ln,Warwick,Kent,RI,68.0,68.0,47.0,29.84,10.0,8.0,0.0
2,42.706612,-71.138962,I-495 S,Lawrence,Essex,MA,29.0,21.0,96.0,29.71,0.75,8.0,0.03
2,42.36462,-71.13588,Soldiers Field Rd,Brighton,Suffolk,MA,75.0,75.0,26.0,29.77,10.0,14.0,0.0
2,42.723122,-71.332962,Marsh Rd,Pelham,Hillsborough,NH,64.0,64.0,65.0,29.99,10.0,0.0,0.0
3,42.371208,-71.269226,I-95 S,Waltham,Middlesex,MA,34.0,29.0,75.0,30.34,4.0,6.0,0.0
3,43.441856,-72.06462900000001,I-89 N,Sunapee,Sullivan,NH,56.0,56.0,37.0,29.43,10.0,3.0,0.0
3,41.866440000000004,-71.402428,I-95 N,Pawtucket,Providence,RI,71.0,71.0,47.0,29.37,10.0,5.0,0.0
2,41.709990999999995,-72.75965,CT-9 S,New Britain,Hartford,CT,51.0,51.0,66.0,30.2,10.0,6.0,0.0
2,41.87153,-71.05575,MA-24 S,Taunton,Bristol,MA,60.0,60.0,20.0,30.08,10.0,12.0,0.0
2,42.353142,-71.048439,Seaport Blvd,Boston,Suffolk,MA,49.0,43.0,46.0,29.99,10.0,16.0,0.0
2,42.26363,-71.045311,I-93 S,Milton,Norfolk,MA,82.0,82.0,31.0,29.8,10.0,12.0,0.0
2,41.300171,-72.906399,Governor John Davis Lodge Tpke N,East Haven,New Haven,CT,44.0,42.0,73.0,30.06,10.0,5.0,0.0
2,41.456672999999995,-72.98131500000001, Cheshire Rd,Bethany,New Haven,CT,47.0,41.0,90.0,29.42,10.0,13.0,0.0
2,42.094143,-71.058815,MA-24 N,Brockton,Plymouth,MA,72.0,72.0,76.0,29.95,9.0,13.0,0.0
2,41.670833,-72.843936,CT-72 E,Plainville,Hartford,CT,41.0,41.0,96.0,29.81,0.5,0.0,0.0
2,41.955596,-72.596057,I-91 S,Enfield,Hartford,CT,55.0,55.0,45.0,30.01,10.0,13.0,0.0
3,41.058723,-73.512344,I-95 S,Stamford,Fairfield,CT,41.0,35.0,79.0,29.55,10.0,10.0,0.0
2,41.964512,-71.484665,RI-99 S,Lincoln,Providence,RI,42.0,36.0,73.0,29.63,10.0,10.0,0.0
2,43.881859999999996,-70.08306999999999,I-295 S,Freeport,Cumberland,ME,77.0,77.0,54.0,29.79,10.0,7.0,0.0
2,42.335449,-71.064842,Frontage Rd,Boston,Suffolk,MA,31.0,23.0,52.0,30.57,10.0,8.0,0.0
2,41.31856,-72.899211,I-91 S,New Haven,New Haven,CT,33.0,28.0,92.0,29.97,1.0,6.0,0.0
2,42.58056,-71.15439,I-93 N,Wilmington,Middlesex,MA,73.0,73.0,84.0,29.53,10.0,7.0,0.0
2,41.143351,-73.26786,Governor John Davis Lodge Tpke,Fairfield,Fairfield,CT,65.0,65.0,42.0,30.21,10.0,9.0,0.0
4,42.30628,-71.98527, Thompson Pond Rd,Spencer,Worcester,MA,42.0,36.0,85.0,28.67,7.0,10.0,0.01
3,41.810333,-71.349602,I-195 E,East Providence,Providence,RI,61.0,61.0,64.0,30.19,10.0,0.0,0.0
2,41.07131,-73.48294,Governor John Davis Lodge Tpke,Darien,Fairfield,CT,41.0,34.0,96.0,28.48,0.5,12.0,0.09
2,41.840019,-71.411263,I-95 S,Providence,Providence,RI,77.0,77.0,56.0,29.62,10.0,5.0,0.0
2,42.241982,-70.993874,Quincy Ave,Quincy,Norfolk,MA,33.0,33.0,75.0,29.88,10.0,3.0,0.0
2,41.81337,-71.408691,Crary St,Providence,Providence,RI,63.0,63.0,100.0,30.18,4.0,0.0,0.0
3,41.649544,-72.672073,I-91 N,Rocky Hill,Hartford,CT,68.0,68.0,90.0,29.75,7.0,0.0,0.0
2,42.228058000000004,-71.012711,MA-3 N,Braintree,Norfolk,MA,71.0,71.0,44.0,29.7,10.0,13.0,0.0
3,41.781845000000004,-71.42351500000001,RI-10 S,Cranston,Providence,RI,32.0,32.0,59.0,30.35,10.0,0.0,0.0
4,43.39093,-71.9777,I-89 N,New London,Merrimack,NH,31.0,31.0,96.0,29.36,1.0,0.0,0.01
2,42.36411,-71.11903000000001, Western Ave,Allston,Suffolk,MA,47.0,40.0,61.0,29.82,10.0,16.0,0.0
3,42.76481,-71.49361999999999,Everett Tpke S,Nashua,Hillsborough,NH,66.0,66.0,75.0,29.43,10.0,3.0,0.0
2,42.32756,-71.067528,Proctor St,Boston,Suffolk,MA,49.0,49.0,100.0,30.09,7.0,0.0,0.0
2,41.124819,-73.309025,Governor John Davis Lodge Tpke,Westport,Fairfield,CT,52.0,52.0,41.0,30.18,10.0,9.0,0.0
3,43.597458,-72.166916,Old Route 10,Enfield,Grafton,NH,69.0,69.0,49.0,29.57,10.0,5.0,0.0
3,41.402640999999996,-73.463623,I-84 E,Danbury,Fairfield,CT,52.0,52.0,54.0,29.45,10.0,10.0,0.0
2,41.246269,-73.095871,CT-15 S,Stratford,Fairfield,CT,39.0,35.0,89.0,29.72,5.0,6.0,0.0
3,43.013458,-71.479378,Everett Tpke S,Manchester,Hillsborough,NH,9.0,-3.0,44.0,30.27,10.0,8.0,0.0
2,41.464236,-72.776473,I-91 S,Wallingford,New Haven,CT,50.0,50.0,68.0,30.03,10.0,6.0,0.0
3,41.196655,-73.121933,Governor John Davis Lodge Tpke,Stratford,Fairfield,CT,78.0,78.0,48.0,29.86,10.0,3.0,0.0
2,42.135288,-71.520432,Forest St,Milford,Worcester,MA,60.0,60.0,93.0,29.29,10.0,0.0,0.0
2,41.746899,-71.444611,I-95 S,Warwick,Kent,RI,87.0,87.0,46.0,29.59,10.0,14.0,0.0
2,41.65504,-70.98416999999999,I-195 W,North Dartmouth,Bristol,MA,37.0,29.0,79.0,29.88,10.0,12.0,0.0
2,42.294078999999996,-71.05574,Rozella St,Dorchester,Suffolk,MA,24.0,10.0,96.0,29.9,0.25,20.0,0.01
2,42.320759,-71.05677,Columbia Rd,Dorchester,Suffolk,MA,50.0,50.0,100.0,29.92,2.0,0.0,0.02
2,42.352551,-71.128357,Chester St,Allston,Suffolk,MA,49.0,45.0,61.0,29.77,10.0,8.0,0.0
2,41.894973,-72.64222600000001,I-91 N,Windsor,Hartford,CT,58.0,58.0,97.0,29.89,10.0,10.0,0.0
2,41.020626,-73.62273,I-95 N,Greenwich,Fairfield,CT,49.0,49.0,97.0,29.45,10.0,0.0,0.0
2,42.380833,-71.076225,I-93 S,Charlestown,Suffolk,MA,70.0,70.0,84.0,29.95,4.0,12.0,0.55
2,42.34024,-71.270844,Park Rd,Weston,Middlesex,MA,59.0,59.0,96.0,30.17,2.0,7.0,0.0
2,42.771358,-72.07656899999999,NH Route 119,Rindge,Cheshire,NH,70.0,70.0,65.0,28.86,10.0,3.0,0.0
3,41.676491,-72.818031,I-84 E,New Britain,Hartford,CT,70.0,70.0,36.0,30.31,10.0,12.0,0.0
2,42.20303,-71.097557,I-93 N,Milton,Norfolk,MA,58.0,58.0,81.0,30.07,10.0,3.0,0.0
1,41.79749,-71.40377,I-95 S,Providence,Providence,RI,43.0,34.0,37.0,29.68,10.0,20.0,0.0
2,41.295922,-72.76008,Governor John Davis Lodge Tpke N,Branford,New Haven,CT,36.0,36.0,70.0,30.18,10.0,3.0,0.0
2,41.141692,-73.282206,Governor John Davis Lodge Tpke,Southport,Fairfield,CT,42.0,37.0,89.0,29.98,10.0,8.0,0.0
3,41.026886,-73.605621,Indian Field Rd,Greenwich,Fairfield,CT,57.0,57.0,93.0,29.26,8.0,10.0,0.0
3,41.559090000000005,-71.28772, W Main Rd,Portsmouth,Newport,RI,48.0,42.0,29.0,29.81,10.0,15.0,0.0
3,42.777489,-71.244904,I-93 S,Salem,Rockingham,NH,35.0,31.0,89.0,29.55,3.0,5.0,0.02
3,41.540649,-73.08091,I-84 W,Waterbury,New Haven,CT,34.0,25.0,96.0,28.36,0.75,13.0,0.01
2,41.688957,-72.648767,I-91 N,Wethersfield,Hartford,CT,71.0,71.0,68.0,30.23,10.0,8.0,0.0
3,41.78622,-71.42175999999999,I-95 S,Cranston,Providence,RI,61.0,61.0,38.0,30.29,10.0,17.0,0.0
2,43.36303,-71.93037,I-89 S,Warner,Merrimack,NH,41.0,38.0,89.0,29.94,3.0,5.0,0.0
2,41.673491999999996,-72.847563,CT-72 E,Plainville,Hartford,CT,54.0,54.0,86.0,29.73,10.0,10.0,0.0
3,41.81337,-71.408691,Crary St,Providence,Providence,RI,67.0,67.0,59.0,29.7,10.0,3.0,0.0
2,41.555131,-73.05538,CT-8 S,Waterbury,New Haven,CT,40.0,40.0,89.0,29.38,10.0,0.0,0.0
3,41.669703999999996,-72.833702,CT-72 W,Plainville,Hartford,CT,37.0,32.0,57.0,30.23,10.0,7.0,0.0
2,41.542767,-72.98033199999999,I-84 E,Waterbury,New Haven,CT,29.0,22.0,89.0,29.54,10.0,7.0,0.0
2,42.589745,-71.31263,US-3 N,Chelmsford,Middlesex,MA,38.0,38.0,89.0,29.89,1.0,3.0,0.0
2,42.013222999999996,-71.585844,N Smithfield Expy S,North Smithfield,Providence,RI,19.0,3.0,100.0,29.38,0.25,22.0,0.0
2,41.561749,-72.914528,Yankee Expy E,Plantsville,Hartford,CT,23.0,23.0,81.0,29.98,10.0,0.0,0.0
2,41.546259,-72.748998,I-91 S,Middletown,Middlesex,CT,27.0,18.0,63.0,30.03,10.0,9.0,0.0
2,42.067840999999994,-70.87338299999999,Liberty St,Hanson,Plymouth,MA,63.0,63.0,68.0,29.91,10.0,0.0,0.0
3,41.301048,-72.91423,Governor John Davis Lodge Tpke S,New Haven,New Haven,CT,66.0,66.0,90.0,30.24,4.0,6.0,0.0
3,43.024307,-71.195534,Old Manchester Rd,Raymond,Rockingham,NH,36.0,36.0,70.0,29.78,10.0,0.0,0.0
2,41.872479999999996,-71.39454,Main St,Pawtucket,Providence,RI,38.0,32.0,100.0,29.89,6.0,8.0,0.11
2,42.279961,-71.11895,Cummins Hwy,Roslindale,Suffolk,MA,69.0,69.0,78.0,29.97,10.0,7.0,0.0
2,41.119708,-73.378671,Governor John Davis Lodge Tpke,Westport,Fairfield,CT,37.0,32.0,70.0,30.09,10.0,6.0,0.0
2,41.791290000000004,-71.87653,I-395 S,Danielson,Windham,CT,67.0,67.0,19.0,29.92,10.0,0.0,0.0
2,41.174966,-73.18781700000001,Governor John Davis Lodge Tpke,Bridgeport,Fairfield,CT,64.0,64.0,93.0,30.2,10.0,8.0,0.0
2,41.842356,-72.665253,I-91 S,Windsor,Hartford,CT,35.0,35.0,85.0,30.03,10.0,0.0,0.0
2,43.46843,-72.384006, NH Route 12A,Cornish,Sullivan,NH,18.0,9.0,65.0,29.54,10.0,7.0,0.0
2,41.793819,-72.686562,Vine St,Hartford,Hartford,CT,50.0,50.0,29.0,30.05,10.0,7.0,0.0
2,42.349258,-71.137199,Glenville Ave,Allston,Suffolk,MA,41.0,36.0,86.0,30.04,2.0,7.0,0.0
2,41.77217,-72.59765,I-84 W,East Hartford,Hartford,CT,71.0,71.0,90.0,29.97,10.0,8.0,0.01
2,41.814743,-71.43991899999999,RI-10 S,Providence,Providence,RI,32.0,32.0,96.0,29.61,6.0,3.0,0.0
2,42.626831,-71.130882,Paddock Ln,Andover,Essex,MA,29.0,21.0,96.0,29.72,0.5,8.0,0.04
3,42.470978,-71.108482,I-93 N,Stoneham,Middlesex,MA,43.0,43.0,100.0,30.03,4.0,3.0,0.0
3,43.33289,-71.60595699999999,I-93 N,Canterbury,Merrimack,NH,69.0,69.0,87.0,29.54,10.0,5.0,0.01
2,41.383542,-73.483692,I-84 E,Danbury,Fairfield,CT,56.0,56.0,90.0,29.4,10.0,8.0,0.0
2,42.511478000000004,-70.991318,Lynnfield St,Lynn,Essex,MA,81.0,81.0,41.0,29.94,10.0,9.0,0.0
2,41.548078000000004,-72.782375, Broad St,Meriden,New Haven,CT,21.0,21.0,88.0,29.73,10.0,3.0,0.0
2,42.519484999999996,-70.993851,I-95 S,Peabody,Essex,MA,70.0,70.0,84.0,29.83,10.0,9.0,0.0
2,42.371274,-71.06172600000001,Tobin Memorial Brg N,Charlestown,Suffolk,MA,48.0,43.0,89.0,30.06,5.0,13.0,0.0
2,42.31909,-71.72282,I-290 E,Shrewsbury,Worcester,MA,53.0,53.0,93.0,28.67,0.25,9.0,0.03
2,41.727592,-72.612358,CT-2 W,Glastonbury,Hartford,CT,25.0,18.0,39.0,30.73,10.0,6.0,0.0
2,42.15416,-71.06848000000001,MA-24 S,Stoughton,Norfolk,MA,42.0,37.0,82.0,30.35,5.0,8.0,0.07
2,42.386219,-71.18576800000001,Trapelo Rd,Belmont,Middlesex,MA,78.0,78.0,71.0,29.82,10.0,7.0,0.0
2,42.502136,-71.11869,I-93 N,Reading,Middlesex,MA,77.0,77.0,39.0,29.58,10.0,13.0,0.0
3,42.347919,-71.08946999999999,I-90 W,Boston,Suffolk,MA,77.0,77.0,69.0,29.91,10.0,10.0,0.0
2,43.434738,-71.644722,Cedar Ct,Franklin,Merrimack,NH,38.0,33.0,44.0,29.87,10.0,7.0,0.0
2,41.214997,-73.08617,I-95 S,Milford,New Haven,CT,53.0,53.0,48.0,30.38,10.0,12.0,0.0
2,42.843651,-70.876968,Elm St,Salisbury,Essex,MA,82.0,82.0,42.0,29.75,10.0,7.0,0.0
1,42.5459,-71.76005,MA-2 E,Leominster,Worcester,MA,47.0,45.0,39.0,29.74,10.0,5.0,0.0
2,41.566215,-72.653311,Main St,Middletown,Middlesex,CT,48.0,48.0,89.0,30.19,10.0,0.0,0.0
2,42.55806,-70.92896999999999,MA-128 N,Danvers,Essex,MA,47.0,47.0,90.0,30.29,10.0,3.0,0.0
2,41.303711,-72.915779,Chapel St,New Haven,New Haven,CT,79.0,79.0,74.0,30.08,10.0,8.0,0.0
2,42.231091,-71.07109100000001,Randolph Ave,Milton,Norfolk,MA,42.0,39.0,79.0,30.01,10.0,5.0,0.0
3,42.202164,-71.079132,I-93 N,Randolph,Norfolk,MA,19.0,10.0,30.0,30.56,10.0,7.0,0.0
3,42.37635,-71.05541,US-1 N,Charlestown,Suffolk,MA,69.0,69.0,47.0,30.36,10.0,13.0,0.0
3,41.288059999999994,-72.53188,Governor John Davis Lodge Tpke S,Clinton,Middlesex,CT,66.0,66.0,30.0,29.63,10.0,7.0,0.0
3,42.358727,-71.120995,Cambridge St,Allston,Suffolk,MA,48.0,41.0,42.0,29.87,10.0,22.0,0.0
3,42.231209,-71.023338,US-1 S,Quincy,Norfolk,MA,81.0,81.0,31.0,29.92,10.0,12.0,0.0
2,41.29206,-72.920776,Governor John Davis Lodge Tpke S,New Haven,New Haven,CT,38.0,34.0,76.0,30.37,10.0,5.0,0.0
3,42.163383,-72.542732,I-90 W,Chicopee,Hampden,MA,72.0,72.0,94.0,29.55,7.0,6.0,0.0
3,42.419624,-71.10393499999999,I-93 N,Medford,Middlesex,MA,39.0,30.0,50.0,29.98,10.0,16.0,0.0
2,44.251301,-69.424149,Augusta Rd,Washington,Knox,ME,45.0,43.0,100.0,30.08,10.0,5.0,0.0
2,42.228058000000004,-71.012711,MA-3 N,Braintree,Norfolk,MA,59.0,59.0,20.0,29.84,10.0,5.0,0.0
2,41.763292,-72.667168,I-91 S,Hartford,Hartford,CT,71.0,71.0,90.0,30.07,9.0,0.0,0.0
2,41.055339000000004,-73.52084,I-95 S,Stamford,Fairfield,CT,66.0,66.0,93.0,29.54,5.0,0.0,0.0
3,41.782944,-70.732063,MA-25 E,Wareham,Plymouth,MA,86.0,86.0,48.0,29.66,10.0,13.0,0.0
2,42.34582,-71.05958000000001,MA-3 N,Boston,Suffolk,MA,68.0,68.0,45.0,30.02,10.0,15.0,0.0
2,41.019290000000005,-73.628815,I-95 N,Greenwich,Fairfield,CT,60.0,60.0,80.0,29.79,10.0,7.0,0.0
2,42.228058000000004,-71.012711,MA-3 N,Braintree,Norfolk,MA,34.0,34.0,79.0,29.81,10.0,0.0,0.0
2,42.546452,-71.173576,Main St,Wilmington,Middlesex,MA,48.0,41.0,44.0,29.41,10.0,21.0,0.0
2,41.770888,-72.678498,US-6 E,Hartford,Hartford,CT,53.0,53.0,89.0,29.82,9.0,10.0,0.0
2,41.807751,-71.435059,Althea St,Providence,Providence,RI,77.0,77.0,82.0,29.94,10.0,3.0,0.0
2,42.223186,-71.17083000000001,I-95 N,Westwood,Norfolk,MA,37.0,37.0,41.0,30.35,10.0,0.0,0.0
2,41.417051,-73.419409,Route 6,Danbury,Fairfield,CT,43.0,39.0,80.0,30.06,10.0,6.0,0.0
2,41.464236,-72.776473,I-91 S,Wallingford,New Haven,CT,31.0,31.0,64.0,30.22,10.0,3.0,0.0
3,42.026924,-71.25737,I-95 S,Foxboro,Norfolk,MA,56.0,56.0,84.0,30.22,10.0,5.0,0.0
3,41.36565,-72.104362,US-1 S,New London,New London,CT,43.0,35.0,100.0,30.26,1.0,16.0,0.17
2,41.080915999999995,-73.462097,Governor John Davis Lodge Tpke,Darien,Fairfield,CT,41.0,35.0,57.0,30.04,10.0,9.0,0.0
2,41.170932,-73.192752,Governor John Davis Lodge Tpke,Bridgeport,Fairfield,CT,58.0,58.0,70.0,30.1,10.0,8.0,0.0
4,41.365784000000005,-72.108467,S Frontage Rd,New London,New London,CT,75.0,75.0,96.0,29.89,6.0,9.0,0.0
2,41.320714,-72.888981,I-91 N,New Haven,New Haven,CT,33.0,26.0,52.0,29.88,10.0,8.0,0.0
2,41.663994,-72.80555,CT-72 W,New Britain,Hartford,CT,69.0,69.0,87.0,30.13,10.0,8.0,0.0
3,42.518017,-70.99586500000001,I-95 S,Peabody,Essex,MA,23.0,10.0,88.0,29.8,0.25,15.0,0.0
3,41.851475,-72.664429,I-91 N,Windsor,Hartford,CT,50.0,50.0,89.0,28.92,6.0,18.0,0.14
3,41.389992,-73.476875,I-84 W,Danbury,Fairfield,CT,52.0,52.0,59.0,29.68,10.0,0.0,0.0
2,42.344311,-71.074463,Dartmouth St,Boston,Suffolk,MA,54.0,54.0,49.0,29.79,10.0,21.0,0.0
2,42.898399,-72.445229,Maple Rd,Spofford,Cheshire,NH,32.0,27.0,93.0,29.88,0.5,5.0,0.05
2,41.016157,-73.637377,I-95 S,Greenwich,Fairfield,CT,47.0,43.0,54.0,29.58,10.0,9.0,0.0
3,42.458553,-71.74715400000001,I-190 N,Sterling,Worcester,MA,36.0,36.0,93.0,29.35,1.0,0.0,0.0
2,41.134574,-73.455352,CT-15 S,Norwalk,Fairfield,CT,69.0,69.0,54.0,29.38,10.0,3.0,0.0
2,41.787102000000004,-71.43412,RI-10 N,Cranston,Providence,RI,74.0,74.0,62.0,30.1,10.0,9.0,0.0
2,42.004318,-70.829399,Holmes St,Halifax,Plymouth,MA,43.0,37.0,93.0,30.21,4.0,12.0,0.08
2,41.441111,-73.24853399999999,I-84 E,Southbury,New Haven,CT,30.0,30.0,96.0,29.29,0.5,0.0,0.01
3,42.08726,-71.42466999999999,I-495 N,Franklin,Norfolk,MA,34.0,25.0,46.0,29.47,10.0,12.0,0.0
2,41.342622,-72.339794, Neck Rd,Old Lyme,New London,CT,37.0,33.0,60.0,29.46,10.0,6.0,0.0
2,41.54806,-73.06734,I-84 E,Waterbury,New Haven,CT,36.0,36.0,97.0,28.88,10.0,3.0,0.0
2,41.83163,-72.6653,I-91 N,Windsor,Hartford,CT,39.0,35.0,41.0,30.12,10.0,6.0,0.0
2,41.81272,-72.6427,Bissell Brg W,South Windsor,Hartford,CT,70.0,70.0,83.0,29.98,10.0,6.0,0.0
3,41.163909999999994,-73.237785,Governor John Davis Lodge Tpke,Fairfield,Fairfield,CT,44.0,44.0,47.0,30.5,10.0,3.0,0.0
2,42.282581,-71.096603,Wellington Hill St,Mattapan,Suffolk,MA,56.0,56.0,55.0,29.81,10.0,7.0,0.0
2,42.202164,-71.079132,I-93 N,Randolph,Norfolk,MA,36.0,36.0,46.0,30.26,10.0,0.0,0.0
2,42.855109999999996,-71.512001,Turkey Hill Rd,Merrimack,Hillsborough,NH,59.0,59.0,78.0,30.01,10.0,5.0,0.0
2,42.425751,-71.256241,Concord Tpke E,Lexington,Middlesex,MA,40.0,33.0,93.0,29.78,4.0,10.0,0.05
2,43.647758,-71.500107,Daniel Webster Hwy,Meredith,Belknap,NH,37.0,28.0,65.0,28.85,10.0,14.0,0.0
2,41.767452,-72.683966,I-84 E,Hartford,Hartford,CT,42.0,42.0,96.0,29.9,0.25,0.0,0.0
2,42.20303,-71.097557,I-93 N,Milton,Norfolk,MA,65.0,65.0,90.0,30.08,5.0,3.0,0.0
2,42.91827,-71.37236999999999,I-93 N,Londonderry,Rockingham,NH,43.0,37.0,28.0,29.71,10.0,12.0,0.0
2,42.02361,-71.26073000000001,I-95 N,Mansfield,Bristol,MA,50.0,50.0,46.0,30.3,10.0,6.0,0.0
2,41.120527,-73.373984,Governor John Davis Lodge Tpke,Westport,Fairfield,CT,33.0,25.0,54.0,30.21,10.0,10.0,0.0
3,41.78907,-71.41957099999999,I-95 S,Providence,Providence,RI,60.0,60.0,100.0,29.75,5.0,12.0,0.24
2,41.364481,-72.084654,Gold Star Memorial Bridge,Groton,New London,CT,39.0,34.0,73.0,30.06,10.0,7.0,0.0
2,41.723892,-71.48083000000001,I-295 S,Warwick,Kent,RI,29.0,24.0,67.0,30.05,10.0,5.0,0.0
2,41.27275,-73.11884,CT-8 N,Shelton,Fairfield,CT,43.0,38.0,93.0,30.09,5.0,8.0,0.01
3,41.976486,-71.29441800000001,I-95 N,Attleboro Falls,Bristol,MA,41.0,41.0,96.0,29.43,10.0,0.0,0.0
2,42.476467,-71.220184,US-3 S,Burlington,Middlesex,MA,38.0,33.0,73.0,29.83,10.0,7.0,0.0
2,42.300468,-71.12754100000001,Centre St,Jamaica Plain,Suffolk,MA,85.0,85.0,26.0,29.89,10.0,14.0,0.0
3,41.044571000000005,-73.556122,I-95 S,Stamford,Fairfield,CT,63.0,63.0,25.0,29.99,10.0,6.0,0.0
2,41.305869,-73.033912,CT-15 S,Orange,New Haven,CT,39.0,33.0,65.0,30.53,10.0,9.0,0.0
1,42.52323,-71.51366,MA-2 E,Littleton,Middlesex,MA,30.0,30.0,79.0,29.52,10.0,0.0,0.0
3,42.31859,-71.05201,I-93 S,Dorchester,Suffolk,MA,69.0,69.0,54.0,29.88,10.0,8.0,0.0
2,41.194578,-73.195027,CT-25 N,Bridgeport,Fairfield,CT,42.0,37.0,89.0,29.98,10.0,8.0,0.0
3,42.294259999999994,-71.7998,I-190 S,Worcester,Worcester,MA,43.0,38.0,74.0,29.15,10.0,9.0,0.0
2,42.377029,-71.030479,Putnam St,Boston,Suffolk,MA,58.0,58.0,36.0,29.92,10.0,14.0,0.0
2,42.30127,-71.07972,Fowler St,Dorchester,Suffolk,MA,34.0,25.0,56.0,29.73,10.0,12.0,0.0
2,41.318556,-72.90054599999999,I-91 S,New Haven,New Haven,CT,27.0,18.0,45.0,30.37,10.0,9.0,0.0
3,42.590709999999994,-70.79146999999999,Yankee Division Hwy S,Manchester,Essex,MA,75.0,75.0,69.0,29.9,10.0,10.0,0.0
2,42.790997,-71.519501,Amherst St,Nashua,Hillsborough,NH,30.0,30.0,100.0,29.48,1.0,0.0,0.0
3,41.81878,-71.39434,US-6 W,Providence,Providence,RI,81.0,81.0,54.0,29.99,10.0,17.0,0.0
3,41.680659999999996,-72.65335999999999,I-91 N,Wethersfield,Hartford,CT,87.0,87.0,55.0,29.73,10.0,9.0,0.0
2,41.754129999999996,-72.65272,CT-15 S,East Hartford,Hartford,CT,50.0,50.0,28.0,30.09,10.0,10.0,0.0
3,42.514221,-71.027939,I-95 S,Lynnfield,Essex,MA,85.0,85.0,63.0,29.55,10.0,16.0,0.0
2,42.27454,-71.064819,Richmond St,Dorchester Center,Suffolk,MA,64.0,64.0,90.0,29.85,1.0,0.0,0.0
2,41.058837,-73.51195600000001,Governor John Davis Lodge Tpke,Stamford,Fairfield,CT,53.0,53.0,96.0,29.64,1.0,10.0,0.0
2,42.05984,-71.06609399999999,Belmont St,Brockton,Plymouth,MA,35.0,35.0,70.0,30.0,10.0,3.0,0.0
2,42.732101,-71.197365,Loop Connector,Methuen,Essex,MA,40.0,34.0,65.0,29.92,10.0,8.0,0.0
2,41.110248999999996,-73.418809, Connecticut Ave,Norwalk,Fairfield,CT,56.0,56.0,42.0,29.75,10.0,5.0,0.0
2,42.447340000000004,-71.36025, Concord Tpke,Concord,Middlesex,MA,79.0,79.0,66.0,29.72,10.0,20.0,0.0
2,42.333560999999996,-71.073425,Albany St,Roxbury,Suffolk,MA,37.0,30.0,65.0,29.87,10.0,9.0,0.0
3,41.8216,-71.42035,I-95 S,Providence,Providence,RI,83.0,83.0,47.0,29.91,10.0,9.0,0.0
2,41.285151,-72.875736,Governor John Davis Lodge Tpke N,East Haven,New Haven,CT,32.0,32.0,64.0,29.78,10.0,3.0,0.0
2,42.566238,-71.183472,Miller Rd,Wilmington,Middlesex,MA,48.0,44.0,71.0,29.54,10.0,8.0,0.0
2,41.283777,-72.937427,Governor John Davis Lodge Tpke S,New Haven,New Haven,CT,48.0,48.0,96.0,29.94,9.0,0.0,0.0
3,41.410698,-73.45385,I-84 W,Danbury,Fairfield,CT,38.0,31.0,68.0,29.49,10.0,9.0,0.0
2,41.496194,-73.159177,I-84 W,Southbury,New Haven,CT,41.0,35.0,65.0,28.86,10.0,9.0,0.0
2,41.552582,-72.167976,Gager Rd,Bozrah,New London,CT,83.0,83.0,53.0,29.78,10.0,6.0,0.0
3,42.08725,-71.42466999999999,I-495 N,Franklin,Norfolk,MA,69.0,69.0,17.0,29.61,10.0,9.0,0.0
2,42.633282,-70.782913,Chebacco Ter,Essex,Essex,MA,84.0,84.0,53.0,29.85,10.0,12.0,0.0
3,42.502384,-71.11895,I-95 S,Reading,Middlesex,MA,73.0,73.0,37.0,29.93,10.0,12.0,0.0
2,41.301208,-72.92501800000001,Oak Street Connector,New Haven,New Haven,CT,23.0,13.0,46.0,30.44,10.0,9.0,0.0
3,41.709045,-72.646126,I-91 S,Wethersfield,Hartford,CT,60.0,60.0,83.0,29.62,2.0,17.0,0.15
2,42.340393,-71.261932,I-90 E,Weston,Middlesex,MA,41.0,35.0,35.0,30.14,10.0,9.0,0.0
3,42.242306,-71.027573,I-93 S,Quincy,Norfolk,MA,72.0,72.0,87.0,29.99,5.0,6.0,0.0
2,42.014545,-71.044037,W Center St,West Bridgewater,Plymouth,MA,47.0,44.0,52.0,29.68,10.0,7.0,0.0
2,41.514812,-73.049458,Ansonia Derby Expy S,Naugatuck,New Haven,CT,46.0,40.0,96.0,29.48,10.0,14.0,0.0
2,42.481083,-71.02131700000001,Broadway,Saugus,Essex,MA,39.0,29.0,38.0,29.66,10.0,21.0,0.0
2,42.205631,-71.065086,N Main St,Randolph,Norfolk,MA,62.0,62.0,30.0,29.89,10.0,14.0,0.0
3,41.120358,-73.375702,Governor John Davis Lodge Tpke,Westport,Fairfield,CT,52.0,52.0,80.0,30.25,10.0,14.0,0.0
2,42.14904,-71.853157,Depot Rd,Oxford,Worcester,MA,45.0,37.0,44.0,28.73,10.0,18.0,0.0
2,42.367165,-71.063133,Legends Way,Boston,Suffolk,MA,73.0,73.0,83.0,30.02,10.0,8.0,0.0
3,41.734859,-72.744217,I-84 E,West Hartford,Hartford,CT,36.0,29.0,79.0,29.99,10.0,9.0,0.0
2,42.348999,-71.06397199999999,Washington St,Boston,Suffolk,MA,73.0,73.0,73.0,29.98,10.0,17.0,0.0
2,42.349747,-71.056976,Atlantic Ave,Boston,Suffolk,MA,76.0,76.0,71.0,29.78,10.0,10.0,0.0
2,42.520965999999994,-71.637642,MA-2 E,Lancaster,Worcester,MA,53.0,53.0,89.0,29.68,10.0,3.0,0.0
2,41.249767,-73.00401,Governor John Davis Lodge Tpke N,Orange,New Haven,CT,59.0,59.0,75.0,30.43,10.0,8.0,0.0
2,41.740099,-72.66365,I-91 N,Hartford,Hartford,CT,70.0,70.0,76.0,30.05,10.0,5.0,0.0
2,42.336201,-71.15097,Chestnut Hill Ave,Brighton,Suffolk,MA,41.0,36.0,57.0,29.74,10.0,8.0,0.0
2,41.001201,-73.652397,I-95 S,Greenwich,Fairfield,CT,72.0,72.0,59.0,29.66,10.0,8.0,0.0
3,41.781845000000004,-71.42351500000001,RI-10 S,Cranston,Providence,RI,67.0,67.0,51.0,29.89,10.0,14.0,0.0
2,42.355470000000004,-71.18993,I-90 E,Newton,Middlesex,MA,32.0,26.0,92.0,29.9,0.75,7.0,0.04
3,44.78474,-72.84683199999999,Old Creamery Rd,East Fairfield,Franklin,VT,20.0,20.0,59.0,30.41,10.0,3.0,0.0
2,41.67387,-71.09109000000001,I-195 W,Westport,Bristol,MA,72.0,72.0,43.0,30.04,10.0,0.0,0.0
2,42.216202,-71.414558,Washington St,Holliston,Middlesex,MA,63.0,63.0,90.0,30.15,6.0,3.0,0.0
3,41.765285,-72.626373,I-84 E,East Hartford,Hartford,CT,61.0,61.0,87.0,29.6,2.0,24.0,0.02
2,41.272426,-72.970966,Governor John Davis Lodge Tpke S,West Haven,New Haven,CT,44.0,44.0,96.0,30.21,0.0,0.0,0.0
2,41.6856,-71.13707,I-195 W,Fall River,Bristol,MA,59.0,59.0,93.0,30.19,10.0,7.0,0.0
3,44.324558,-71.80695300000001,I-93 S,Littleton,Grafton,NH,15.0,0.0,74.0,28.87,1.0,15.0,0.0
2,41.765698,-72.688815,I-84 E,Hartford,Hartford,CT,36.0,36.0,93.0,30.01,0.5,0.0,0.0
2,42.70163,-70.986023,Central St,Georgetown,Essex,MA,50.0,50.0,46.0,29.71,10.0,17.0,0.0
2,42.56007,-71.269386,Boston Rd,Billerica,Middlesex,MA,71.0,71.0,73.0,29.79,10.0,12.0,0.0
2,42.855869,-70.922203,Elm St,Amesbury,Essex,MA,43.0,40.0,82.0,29.59,10.0,5.0,0.0
3,42.18561,-71.07672,Canton St,Randolph,Norfolk,MA,87.0,87.0,53.0,29.58,10.0,13.0,0.0
2,42.34993,-71.092857,Beacon St,Boston,Suffolk,MA,22.0,9.0,42.0,30.42,10.0,14.0,0.0
2,41.320714,-72.888981,I-91 N,New Haven,New Haven,CT,33.0,26.0,52.0,29.88,10.0,8.0,0.0
2,41.578453,-72.901414,I-84 E,Plantsville,Hartford,CT,33.0,33.0,85.0,30.1,10.0,0.0,0.0
2,41.358847,-72.86787199999999,I-91 N,North Haven,New Haven,CT,52.0,52.0,86.0,30.33,10.0,6.0,0.0
2,42.627926,-71.272423,I-495 S,Tewksbury,Middlesex,MA,71.0,71.0,73.0,30.03,10.0,0.0,0.0
2,41.934406,-71.466042,Eddie Dowling Hwy N,Lincoln,Providence,RI,63.0,63.0,82.0,29.38,10.0,16.0,0.0
3,42.463770000000004,-71.02475,Broadway,Saugus,Essex,MA,69.0,69.0,81.0,29.98,6.0,13.0,0.0
2,42.331635,-71.062241,I-93 N,Boston,Suffolk,MA,76.0,76.0,85.0,29.94,10.0,9.0,0.0
2,42.664112,-71.194603,I-495 S,Andover,Essex,MA,88.0,88.0,42.0,29.8,10.0,13.0,0.0
2,42.66502,-71.146141,N Main St,Andover,Essex,MA,53.0,53.0,40.0,29.72,10.0,12.0,0.0
2,42.43558,-71.01992,Northeast Expy S,Revere,Suffolk,MA,67.0,67.0,93.0,29.79,3.0,6.0,0.02
2,41.614731,-70.599648,Thomas B Landers Rd,East Falmouth,Barnstable,MA,46.0,38.0,62.0,29.46,10.0,26.0,0.0
2,41.707051,-72.80194399999999,I-84 E,Farmington,Hartford,CT,51.0,51.0,89.0,30.03,3.0,8.0,0.03
2,41.244534,-73.103554,CT-15 N,Stratford,Fairfield,CT,76.0,76.0,56.0,30.06,10.0,3.0,0.0
2,41.106429999999996,-73.415526,Governor John Davis Lodge Tpke,Norwalk,Fairfield,CT,49.0,47.0,74.0,29.73,10.0,6.0,0.0
2,41.742428000000004,-71.445044,I-95 N,Cranston,Providence,RI,46.0,46.0,89.0,30.16,10.0,3.0,0.0
3,42.12957,-72.062218,I-90 E,Sturbridge,Worcester,MA,86.0,86.0,44.0,28.88,10.0,10.0,0.0
3,42.331309999999995,-71.25456,MA-128 S,Newton Lower Falls,Middlesex,MA,73.0,73.0,84.0,29.84,8.0,15.0,0.0
2,42.874111,-71.336472,Saint Charles St,Derry,Rockingham,NH,42.0,42.0,89.0,29.73,10.0,3.0,0.0
1,41.80862,-71.40475,I-195 E,Providence,Providence,RI,45.0,37.0,53.0,29.7,10.0,18.0,0.0
2,41.663994,-72.80555,CT-72 W,New Britain,Hartford,CT,44.0,39.0,43.0,29.89,10.0,9.0,0.0
2,42.55722,-71.298553,Treble Cove Rd,North Billerica,Middlesex,MA,36.0,29.0,57.0,29.73,10.0,9.0,0.0
2,42.541512,-71.885002,MA-2 E,Westminster,Worcester,MA,68.0,68.0,90.0,29.49,5.0,0.0,0.0
3,42.347415999999996,-71.078812,Huntington Ave,Boston,Suffolk,MA,35.0,35.0,82.0,29.68,6.0,0.0,0.0
2,41.841625,-71.419014,Louisquisset Pike S,Providence,Providence,RI,24.0,24.0,40.0,29.88,10.0,0.0,0.0
